Row,Timestamp,EventSource,SlideEvent,StimType,Duration,CollectionPhase,SourceStimuliName,EventSource.1,SampleNumber,Anger,Contempt,Disgust,Fear,Joy,Sadness,Surprise,Engagement,Valence,Sentimentality,Confusion,Neutral,Attention,Brow Furrow,Brow Raise,Cheek Raise,Chin Raise,Dimpler,Eye Closure,Eye Widen,Inner Brow Raise,Jaw Drop,Lip Corner Depressor,Lip Press,Lip Pucker,Lip Stretch,Lip Suck,Lid Tighten,Mouth Open,Nose Wrinkle,Smile,Smirk,Upper Lip Raise,Blink,BlinkRate,Pitch,Yaw,Roll,Interocular Distance,EventSource.2,SampleNumber.1,width,height,feature id_1,feature-x_1,feature-y_1,feature id_2,feature-x_2,feature-y_2,feature id_3,feature-x_3,feature-y_3,feature id_4,feature-x_4,feature-y_4,feature id_5,feature-x_5,feature-y_5,feature id_6,feature-x_6,feature-y_6,EventSource.3,CPU Sys,Memory Sys,CPU Proc,Memory Proc,EventSource.4,ET_GazeLeftx,ET_GazeLefty,ET_GazeRightx,ET_GazeRighty,ET_PupilLeft,ET_PupilRight,ET_TimeSignal,ET_DistanceLeft,ET_DistanceRight,ET_CameraLeftX,ET_CameraLeftY,ET_CameraRightX,ET_CameraRightY,ET_ValidityLeft,ET_ValidityRight,EventSource.5,Gaze X,Gaze Y,Interpolated Gaze X,Interpolated Gaze Y,Interpolated Distance,Gaze Velocity,Gaze Acceleration,Fixation Index,Fixation Index by Stimulus,Fixation X,Fixation Y,Fixation Start,Fixation End,Fixation Duration,Fixation Dispersion,Saccade Index,Saccade Index by Stimulus,Saccade Start,Saccade End,Saccade Duration,Saccade Amplitude,Saccade Peak Velocity,Saccade Peak Acceleration,Saccade Peak Deceleration,Saccade Direction
28522,189037.3085,1.0,StartSlide,TestImage,120000.0,StimuliDisplay,Frage 3,,,,,,,,,,,,,,,,,,,,,,,,,,,,,,,,,,,,,,,,,,,,,,,,,,,,,,,,,,,,,,,,,,,,,,,,,,,,,,,,,,,,,,,,,,,,,,,,,,,,,,,,,,,,,,
28523,189040.5717,,,,,,Frage 3,,,,,,,,,,,,,,,,,,,,,,,,,,,,,,,,,,,,,,,,,,,,,,,,,,,,,,,,,,,,,,,,,,,,,1.0,785.0,507.0,771.0,547.0,-1.0,-1.0,189084.743,649.3986206054688,643.116943359375,0.6225391626358032,0.4343817234039306,0.4753592014312744,0.4194556474685668,0.0,0.0,1.0,778.0,527.0,778.0,527.0,646.257781982422,37.1321852397162,1048.30082107688,,,,,,,,,1006.0,,189036.38565,189044.72525,8.33960000000661,,37.1321852397162,1048.30082107688,,
28524,189045.6801,,,,,,Frage 3,1.0,-1.0,0.1730456799268722,0.1930329650640487,0.0380091331899166,0.1660193651914596,0.0241084732115268,0.1286808848381042,0.0563255921006202,0.3287661075592041,0.0,0.0057846657000482,0.1177818551659584,99.6139373779297,96.47610473632812,0.1177818551659584,0.1430174857378006,0.0469578839838504,0.0006470937514677,0.0,0.0074781090952455,0.0083724856376647,0.2026367783546447,0.0968545526266098,0.0057846657000482,0.0002199960290454,0.0006979807512834,0.0004040485073346,0.0006076039280742,0.0981532260775566,12.648239135742188,0.0177747141569852,0.0049351146444678,0.0270010605454444,0.7927576899528503,0.0,12.0,-6.989843368530273,-5.451359748840332,3.583887815475464,100.65482330322266,1.0,-1.0,640.0,480.0,0.0,270.6199951171875,177.73104858398438,1.0,423.96337890625,340.1488647460937,2.0,298.9102478027344,208.08566284179688,3.0,399.4168701171875,213.54568481445315,4.0,352.5824890136719,255.8306884765625,5.0,343.54791259765625,340.1488647460937,,,,,,,,,,,,,,,,,,,,,,,,,,,,,,,,,,,,,,,,,,,,,,,
28525,189048.8788,,,,,,Frage 3,,,,,,,,,,,,,,,,,,,,,,,,,,,,,,,,,,,,,,,,,,,,,,,,,,,,,,,,,,,,,,,,,,,,,1.0,789.0,517.0,781.0,548.0,4.035079956054688,4.132965087890625,189093.049,649.4481201171875,643.0449829101562,0.6226589679718016,0.4344170093536377,0.4753396809101104,0.4194161295890808,0.0,0.0,1.0,785.0,532.5,785.0,532.5,646.246551513672,19.6746382374897,-2101.521229095,418.0,,782.966557965554,542.880966983379,189044.72525,189253.03185,208.306599999982,0.290572963713328,,,,,,,,,,
28526,189057.2209,,,,,,Frage 3,,,,,,,,,,,,,,,,,,,,,,,,,,,,,,,,,,,,,,,,,,,,,,,,,,,,,,,,,,,,,,,,,,,,,1.0,786.0,528.0,783.0,546.0,-1.0,-1.0,189101.391,649.4202880859375,642.9318237304688,0.622532069683075,0.4344330430030822,0.475342720746994,0.4194403290748596,0.0,0.0,1.0,784.5,537.0,784.5,537.0,646.176055908203,16.4543978161831,-386.022754619866,418.0,,782.966557965554,542.880966983379,189044.72525,189253.03185,208.306599999982,0.290572963713328,,,,,,,,,,
28527,189065.5268,,,,,,Frage 3,,,,,,,,,,,,,,,,,,,,,,,,,,,,,,,,,,,,,,,,,,,,,,,,,,,,,,,,,,,,,,,,,,,,,1.0,781.0,538.0,783.0,546.0,-1.0,-1.0,189109.698,649.4528198242188,642.9182739257812,0.6227191686630249,0.4344176352024078,0.4754640460014343,0.419411152601242,0.0,0.0,1.0,782.0,542.0,782.0,542.0,646.185546875,21.6600033738839,626.735881445311,418.0,,782.966557965554,542.880966983379,189044.72525,189253.03185,208.306599999982,0.290572963713328,,,,,,,,,,
28528,189073.927,,,,,,Frage 3,,,,,,,,,,,,,,,,,,,,,,,,,,,,,,,,,,,,,,,,,,,,,,,,,,,,,,,,,,,,,,,,,,,,,1.0,764.0,544.0,781.0,541.0,4.036773681640625,4.137237548828125,189118.081,649.5234985351562,642.9119873046875,0.6228203177452087,0.4343858361244201,0.4754826724529266,0.4193252921104431,0.0,0.0,1.0,772.5,542.5,772.5,542.5,646.217742919922,20.5117920221664,-136.68857309552,418.0,,782.966557965554,542.880966983379,189044.72525,189253.03185,208.306599999982,0.290572963713328,,,,,,,,,,
28529,189074.2046,1.0,StartMedia,TestImage,120000.0,StimuliDisplay,Frage 3,,,,,,,,,,,,,,,,,,,,,,,,,,,,,,,,,,,,,,,,,,,,,,,,,,,,,,,,,,,,,,,,,,,,,,,,,,,,,,,,,,,,,,,,,,,,,,,,,,,,,,,,,,,,,,
28530,189082.2296,,,,,,Frage 3,,,,,,,,,,,,,,,,,,,,,,,,,,,,,,,,,,,,,,,,,,,,,,,,,,,,,,,,,,,,,,,,,,,,,1.0,770.0,539.0,769.0,546.0,-1.0,-1.0,189126.399,649.5130615234375,642.8436279296875,0.6226811408996582,0.4343622326850891,0.4754636585712432,0.4193806648254394,0.0,0.0,1.0,769.5,542.5,769.5,542.5,646.178344726563,7.45483942022147,-1572.63418711634,418.0,,782.966557965554,542.880966983379,189044.72525,189253.03185,208.306599999982,0.290572963713328,,,,,,,,,,
28531,189090.5221,,,,,,Frage 3,,,,,,,,,,,,,,,,,,,,,,,,,,,,,,,,,,,,,,,,,,,,,,,,,,,,,,,,,,,,,,,,,,,,,1.0,773.0,534.0,772.0,560.0,-1.0,-1.0,189134.69,649.5447387695312,642.8617553710938,0.6228313446044921,0.4343630373477935,0.4755468964576721,0.4193971753120422,0.0,0.0,1.0,772.5,547.0,772.5,547.0,646.203247070313,16.9342790842355,1143.13411685283,418.0,,782.966557965554,542.880966983379,189044.72525,189253.03185,208.306599999982,0.290572963713328,,,,,,,,,,
28532,189098.8554,,,,,,Frage 3,,,,,,,,,,,,,,,,,,,,,,,,,,,,,,,,,,,,,,,,,,,,,,,,,,,,,,,,,,,,,,,,,,,,,1.0,776.0,538.0,777.0,562.0,4.022796630859375,4.15069580078125,189143.024,649.6058349609375,642.8796997070312,0.6228883862495422,0.4343936741352081,0.4755080938339233,0.4193818867206573,0.0,0.0,1.0,776.5,550.0,776.5,550.0,646.242767333984,36.43101425292,2339.61757871289,418.0,,782.966557965554,542.880966983379,189044.72525,189253.03185,208.306599999982,0.290572963713328,,,,,,,,,,
28533,189103.025,,,,,,Frage 3,1.0,0.0,,,,,,,,,,,,,,,,,,,,,,,,,,,,,,,,,,,,,,,,1.0,0.0,640.0,480.0,,,,,,,,,,,,,,,,,,,,,,,,,,,,,,,,,,,,,,,,,,,,,,,,,,,,,,,,,,,,,,,,,
28534,189107.1859,,,,,,Frage 3,,,,,,,,,,,,,,,,,,,,,,,,,,,,,,,,,,,,,,,,,,,,,,,,,,,,,,,,,,,,,,,,,,,,,1.0,801.0,528.0,784.0,547.0,-1.0,-1.0,189151.357,649.5816650390625,642.8326416015625,0.6226963996887207,0.434498131275177,0.4754434525966644,0.41950324177742,0.0,0.0,1.0,792.5,537.5,792.5,537.5,646.207153320313,22.8639627124403,-1628.59990882443,418.0,,782.966557965554,542.880966983379,189044.72525,189253.03185,208.306599999982,0.290572963713328,,,,,,,,,,
28535,189115.5188,,,,,,Frage 3,,,,,,,,,,,,,,,,,,,,,,,,,,,,,,,,,,,,,,,,,,,,,,,,,,,,,,,,,,,,,,,,,,,,,1.0,800.0,535.0,777.0,551.0,-1.0,-1.0,189159.689,649.58056640625,642.872314453125,0.6228340864181519,0.4344982504844665,0.4754576683044433,0.4195353984832763,0.0,0.0,1.0,788.5,543.0,788.5,543.0,646.226440429688,11.6278964961817,-1348.39806265361,418.0,,782.966557965554,542.880966983379,189044.72525,189253.03185,208.306599999982,0.290572963713328,,,,,,,,,,
28536,189123.8871,,,,,,Frage 3,,,,,,,,,,,,,,,,,,,,,,,,,,,,,,,,,,,,,,,,,,,,,,,,,,,,,,,,,,,,,,,,,,,,,1.0,798.0,534.0,777.0,551.0,4.04266357421875,4.128753662109375,189168.054,649.5860595703125,642.9371948242188,0.6228144764900208,0.4345479309558868,0.4753669500350952,0.4195814728736877,0.0,0.0,1.0,787.5,542.5,787.5,542.5,646.261627197266,49.2532952030601,4496.18186571583,418.0,,782.966557965554,542.880966983379,189044.72525,189253.03185,208.306599999982,0.290572963713328,,,,,,,,,,
28537,189126.0184,,,,,,Frage 3,1.0,1.0,0.179659217596054,0.1930872797966003,0.0403856560587883,0.1708301603794097,0.0241333786398172,0.1287640184164047,0.0563573837280273,0.3287661075592041,0.0,0.0054480377584695,0.1303700357675552,99.61383056640624,96.88549041748048,0.1303700357675552,0.143144816160202,0.0645486414432525,0.0006253465544432,0.0,0.0032150058541446,0.0101108821108937,0.2032111436128616,0.1079645454883575,0.0054480377584695,0.0002825619303621,0.0008522524149157,0.0004588897281792,0.0005354686290957,0.1029436066746711,14.062512397766112,0.0232077091932296,0.0052547794766724,0.0269481278955936,1.0583326816558838,0.0,12.0,-7.633055686950684,-4.812724590301514,4.214484691619873,100.73021697998048,1.0,1.0,640.0,480.0,0.0,270.3657531738281,177.42051696777344,1.0,424.1483154296875,340.52496337890625,2.0,299.3385925292969,207.56765747070315,3.0,399.91937255859375,213.05255126953125,4.0,352.080810546875,256.10205078125,5.0,342.5131225585937,340.52496337890625,,,,,,,,,,,,,,,,,,,,,,,,,,,,,,,,,,,,,,,,,,,,,,,
28538,189132.2163,,,,,,Frage 3,,,,,,,,,,,,,,,,,,,,,,,,,,,,,,,,,,,,,,,,,,,,,,,,,,,,,,,,,,,,,,,,,,,,,1.0,740.0,529.0,777.0,554.0,-1.0,-1.0,189176.387,649.484619140625,642.9450073242188,0.6226481199264526,0.4345867037773132,0.4753302931785583,0.4196437001228332,0.0,0.0,1.0,758.5,541.5,758.5,541.5,646.214813232422,12.2911203534501,-4437.66206233218,418.0,,782.966557965554,542.880966983379,189044.72525,189253.03185,208.306599999982,0.290572963713328,,,,,,,,,,
28539,189140.5147,,,,,,Frage 3,,,,,,,,,,,,,,,,,,,,,,,,,,,,,,,,,,,,,,,,,,,,,,,,,,,,,,,,,,,,,,,,,,,,,1.0,792.0,522.0,778.0,549.0,-1.0,-1.0,189184.685,649.4046020507812,643.0803833007812,0.6227658987045288,0.4345861375331878,0.4753875136375427,0.4196012020111084,0.0,0.0,1.0,785.0,535.5,785.0,535.5,646.242492675781,43.3238466259585,3739.60357087024,418.0,,782.966557965554,542.880966983379,189044.72525,189253.03185,208.306599999982,0.290572963713328,,,,,,,,,,
28540,189148.8484,,,,,,Frage 3,,,,,,,,,,,,,,,,,,,,,,,,,,,,,,,,,,,,,,,,,,,,,,,,,,,,,,,,,,,,,,,,,,,,,1.0,790.0,522.0,778.0,548.0,4.0074310302734375,4.155670166015625,189193.02,649.3353881835938,643.2137451171875,0.6227876543998718,0.4345434010028839,0.4753029942512512,0.4196065664291381,0.0,0.0,1.0,784.0,535.0,784.0,535.0,646.274566650391,29.8867339212698,-1612.3825797314,418.0,,782.966557965554,542.880966983379,189044.72525,189253.03185,208.306599999982,0.290572963713328,,,,,,,,,,
28541,189157.1782,,,,,,Frage 3,,,,,,,,,,,,,,,,,,,,,,,,,,,,,,,,,,,,,,,,,,,,,,,,,,,,,,,,,,,,,,,,,,,,,1.0,801.0,531.0,786.0,572.0,-1.0,-1.0,189201.349,649.1444702148438,643.2736206054688,0.6226295232772827,0.4345309138298034,0.4752456545829772,0.4195999503135681,0.0,0.0,1.0,793.5,551.5,793.5,551.5,646.209045410156,29.7289032923841,-18.947709295006,418.0,,782.966557965554,542.880966983379,189044.72525,189253.03185,208.306599999982,0.290572963713328,,,,,,,,,,
28542,189157.2885,,,,,,Frage 3,1.0,2.0,0.1737121194601059,0.1929890662431716,0.0381101667881011,0.1667807847261428,0.0241374298930168,0.1287995874881744,0.0564426407217979,0.3287661075592041,0.0,0.0050694630481302,0.1400787681341171,99.614013671875,97.03121185302734,0.1400787681341171,0.1644173115491867,0.0682369545102119,0.0006530085229314,0.0,0.0003356708039063,0.0208043120801448,0.2072267979383468,0.1082857623696327,0.0050694630481302,0.0005042438278906,0.0009354129433631,0.0005310269771143,0.0004453012952581,0.1136554926633834,12.78465747833252,0.0241531059145927,0.004892305471003,0.0246131923049688,0.7500379681587219,0.0,12.0,-7.7718844413757315,-4.5656189918518075,4.806103229522705,99.2831573486328,1.0,2.0,640.0,480.0,0.0,270.4986572265625,177.0589599609375,1.0,424.708984375,340.7343139648437,2.0,300.8554992675781,206.79177856445315,3.0,399.9400024414063,213.06924438476565,4.0,352.2007141113281,256.0611572265625,5.0,342.0159606933594,340.7343139648437,,,,,,,,,,,,,,,,,,,,,,,,,,,,,,,,,,,,,,,,,,,,,,,
28543,189165.5136,,,,,,Frage 3,,,,,,,,,,,,,,,,,,,,,,,,,,,,,,,,,,,,,,,,,,,,,,,,,,,,,,,,,,,,,,,,,,,,,1.0,804.0,536.0,784.0,564.0,-1.0,-1.0,189209.685,648.9694213867188,643.4264526367188,0.6227161288261412,0.4344592690467834,0.4752739965915679,0.4195626378059387,0.0,0.0,1.0,794.0,550.0,794.0,550.0,646.197937011719,1.65068264486341,-3368.551077031,418.0,,782.966557965554,542.880966983379,189044.72525,189253.03185,208.306599999982,0.290572963713328,,,,,,,,,,
28544,189173.8464,,,,,,Frage 3,,,,,,,,,,,,,,,,,,,,,,,,,,,,,,,,,,,,,,,,,,,,,,,,,,,,,,,,,,,,,,,,,,,,,1.0,800.0,536.0,787.0,565.0,4.0283203125,4.1308135986328125,189218.017,648.8241577148438,643.5941162109375,0.6227186322212219,0.4344174861907959,0.475193977355957,0.4194853901863098,0.0,0.0,1.0,793.5,550.5,793.5,550.5,646.209136962891,22.7589515776637,2533.15439381609,418.0,,782.966557965554,542.880966983379,189044.72525,189253.03185,208.306599999982,0.290572963713328,,,,,,,,,,
28545,189182.2296,,,,,,Frage 3,,,,,,,,,,,,,,,,,,,,,,,,,,,,,,,,,,,,,,,,,,,,,,,,,,,,,,,,,,,,,,,,,,,,,1.0,797.0,525.0,785.0,548.0,-1.0,-1.0,189226.4,648.5945434570312,643.6786499023438,0.6225123405456543,0.4343774914741516,0.4751002490520477,0.4195058047771453,0.0,0.0,1.0,791.0,536.5,791.0,536.5,646.136596679688,18.1349552781107,-551.578907763492,418.0,,782.966557965554,542.880966983379,189044.72525,189253.03185,208.306599999982,0.290572963713328,,,,,,,,,,
28546,189188.901,,,,,,Frage 3,1.0,3.0,0.1660407930612564,0.1928696185350418,0.0355491787195205,0.1608363837003707,0.0241213012486696,0.1285978257656097,0.0564209930598735,0.3287661075592041,0.0,0.0046496605500578,0.1244659423828125,99.6142578125,96.97274780273438,0.1244659423828125,0.1690536886453628,0.0573554895818233,0.0007298578275367,0.0,0.0001612285414012,0.030665123835206,0.1911261677742004,0.1006845086812973,0.0046496605500578,0.0010684672743082,0.0009263111278414,0.0005790554569102,0.0004457304312381,0.1035900190472602,10.983999252319336,0.0212134812027215,0.0044260378926992,0.0232113227248191,0.5558969974517822,0.0,12.0,-7.7685837745666495,-4.666125774383545,4.31599998474121,99.91822052001952,1.0,3.0,640.0,480.0,0.0,271.0263366699219,178.114501953125,1.0,424.5892028808594,341.03448486328125,2.0,300.3603515625,208.08465576171875,3.0,400.12060546875,213.70086669921875,4.0,352.4821472167969,256.7637634277344,5.0,342.9423828125,341.03448486328125,,,,,,,,,,,,,,,,,,,,,,,,,,,,,,,,,,,,,,,,,,,,,,,
28547,189190.5317,,,,,,Frage 3,,,,,,,,,,,,,,,,,,,,,,,,,,,,,,,,,,,,,,,,,,,,,,,,,,,,,,,,,,,,,,,,,,,,,1.0,792.0,536.0,781.0,548.0,-1.0,-1.0,189234.703,648.4089965820312,643.8492431640625,0.6225661635398864,0.4343146979808807,0.4750728905200958,0.4194515943527221,0.0,0.0,1.0,786.5,542.0,786.5,542.0,646.129119873047,11.6733306228489,-778.31207227825,418.0,,782.966557965554,542.880966983379,189044.72525,189253.03185,208.306599999982,0.290572963713328,,,,,,,,,,
28548,189198.8671,,,,,,Frage 3,,,,,,,,,,,,,,,,,,,,,,,,,,,,,,,,,,,,,,,,,,,,,,,,,,,,,,,,,,,,,,,,,,,,,1.0,791.0,537.0,781.0,546.0,4.014816284179688,4.1267852783203125,189243.037,648.2711181640625,644.0292358398438,0.6225503087043762,0.4342881739139556,0.4749738574028015,0.419347733259201,0.0,0.0,1.0,786.0,541.5,786.0,541.5,646.150177001953,11.6324838611761,-4.90039610249701,418.0,,782.966557965554,542.880966983379,189044.72525,189253.03185,208.306599999982,0.290572963713328,,,,,,,,,,
28549,189207.2013,,,,,,Frage 3,,,,,,,,,,,,,,,,,,,,,,,,,,,,,,,,,,,,,,,,,,,,,,,,,,,,,,,,,,,,,,,,,,,,,1.0,808.0,523.0,779.0,559.0,-1.0,-1.0,189251.373,648.06494140625,644.1145629882812,0.6223045587539672,0.4342465698719024,0.474917322397232,0.4193242788314819,0.0,0.0,1.0,793.5,541.0,793.5,541.0,646.089752197266,2.9134681515044,-1046.17308316209,418.0,,782.966557965554,542.880966983379,189044.72525,189253.03185,208.306599999982,0.290572963713328,,,,,,,,,,
28550,189215.5286,,,,,,Frage 3,,,,,,,,,,,,,,,,,,,,,,,,,,,,,,,,,,,,,,,,,,,,,,,,,,,,,,,,,,,,,,,,,,,,,1.0,-1.0,-1.0,-1.0,-1.0,-1.0,-1.0,189259.699,-1.0,-1.0,-1.0,-1.0,-1.0,-1.0,4.0,4.0,1.0,,,784.75,542.75,646.113204956055,29.37739183985,3177.9716941063,418.0,,782.966557965554,542.880966983379,189044.72525,189253.03185,208.306599999982,0.290572963713328,,,,,,,,,,
28551,189221.2649,,,,,,Frage 3,1.0,4.0,0.1673999279737472,0.1927415132522583,0.0359288826584815,0.1620684713125228,0.0241085849702358,0.1284585148096084,0.0564608536660671,0.3287661075592041,0.0,0.0041978419758379,0.1100143492221832,99.61450958251952,97.38191986083984,0.1100143492221832,0.1717189252376556,0.0484854616224765,0.0007845416548661,0.0008776630274951,6.997222226345912e-05,0.0506036281585693,0.183321788907051,0.1028423979878425,0.0041961329989135,0.0013185412390157,0.0008846668060868,0.0007511452422477,0.0003940339956898,0.0957319438457489,11.350390434265137,0.0173104219138622,0.0041978419758379,0.0208136606961488,0.5253118872642517,0.0,12.0,-8.890484809875488,-3.919009685516357,4.195448875427246,100.39924621582033,1.0,4.0,640.0,480.0,0.0,271.7553100585937,178.57449340820312,1.0,424.7193603515625,340.45147705078125,2.0,300.48004150390625,208.22134399414065,3.0,400.712646484375,214.0035400390625,4.0,352.3263854980469,257.5497131347656,5.0,343.519287109375,340.45147705078125,,,,,,,,,,,,,,,,,,,,,,,,,,,,,,,,,,,,,,,,,,,,,,,
28552,189223.8553,,,,,,Frage 3,,,,,,,,,,,,,,,,,,,,,,,,,,,,,,,,,,,,,,,,,,,,,,,,,,,,,,,,,,,,,,,,,,,,,1.0,777.0,526.0,775.0,563.0,3.928802490234375,4.105133056640625,189268.025,647.9671630859375,644.30615234375,0.6224339008331298,0.4340777993202209,0.4749342203140258,0.4191449284553527,0.0,0.0,1.0,776.0,544.5,776.0,544.5,646.136657714844,17.1157030362586,-1472.57482599155,418.0,,782.966557965554,542.880966983379,189044.72525,189253.03185,208.306599999982,0.290572963713328,,,,,,,,,,
28553,189232.1755,,,,,,Frage 3,,,,,,,,,,,,,,,,,,,,,,,,,,,,,,,,,,,,,,,,,,,,,,,,,,,,,,,,,,,,,,,,,,,,,1.0,774.0,528.0,775.0,561.0,-1.0,-1.0,189276.347,647.7994384765625,644.3753662109375,0.6224313974380493,0.4340566992759704,0.4749797582626342,0.4191482067108154,0.0,0.0,1.0,774.5,544.5,774.5,544.5,646.08740234375,8.6191952736076,-1021.1903274722,418.0,,782.966557965554,542.880966983379,189044.72525,189253.03185,208.306599999982,0.290572963713328,,,,,,,,,,
28554,189240.5069,,,,,,Frage 3,,,,,,,,,,,,,,,,,,,,,,,,,,,,,,,,,,,,,,,,,,,,,,,,,,,,,,,,,,,,,,,,,,,,,1.0,782.0,537.0,773.0,562.0,-1.0,-1.0,189284.678,647.701904296875,644.4950561523438,0.6226212978363037,0.4339604377746582,0.4750926792621612,0.419088065624237,0.0,0.0,1.0,777.5,549.5,777.5,549.5,646.098480224609,23.1207109139682,1740.58569272493,418.0,,782.966557965554,542.880966983379,189044.72525,189253.03185,208.306599999982,0.290572963713328,,,,,,,,,,
28555,189248.8892,,,,,,Frage 3,,,,,,,,,,,,,,,,,,,,,,,,,,,,,,,,,,,,,,,,,,,,,,,,,,,,,,,,,,,,,,,,,,,,,1.0,798.0,542.0,776.0,560.0,3.961624145507813,4.087677001953125,189293.06,647.6594848632812,644.6366577148438,0.6226526498794555,0.4338937401771545,0.4751031994819641,0.4189478158950805,0.0,0.0,1.0,787.0,551.0,787.0,551.0,646.148071289063,16.8973359071036,-742.442409227356,418.0,,782.966557965554,542.880966983379,189044.72525,189253.03185,208.306599999982,0.290572963713328,,,,,,,,,,
28556,189252.942,,,,,,Frage 3,1.0,5.0,0.1696742326021194,0.1925755590200424,0.0366980284452438,0.163916990160942,0.0241065174341201,0.1285400241613388,0.0566331669688224,0.3287661075592041,0.0,0.0042812544852495,0.1225895509123802,99.61484527587889,97.0864486694336,0.1225895509123802,0.1943282186985015,0.0468170084059238,0.0009142717462964,0.0014551522908732,0.0001284722820855,0.0817939043045043,0.1957213431596756,0.1098110601305961,0.0037855375558137,0.0013627433218061,0.0008035884238779,0.0008462703553959,0.0003443254099693,0.1074002906680107,11.7846040725708,0.0216853972524404,0.0042812544852495,0.0151072526350617,0.6593477725982666,0.0,12.0,-8.734885215759277,-4.468845844268799,4.341596603393555,100.80036163330078,1.0,5.0,640.0,480.0,0.0,271.1647033691406,178.25685119628906,1.0,424.2537231445313,340.25799560546875,2.0,299.8740234375,207.85781860351565,3.0,400.49612426757807,213.84994506835935,4.0,352.2668762207032,257.2397155761719,5.0,342.7575378417969,340.25799560546875,,,,,,,,,,,,,,,,,,,,,,,,,,,,,,,,,,,,,,,,,,,,,,,
28557,189257.1745,,,,,,Frage 3,,,,,,,,,,,,,,,,,,,,,,,,,,,,,,,,,,,,,,,,,,,,,,,,,,,,,,,,,,,,,,,,,,,,,1.0,792.0,527.0,777.0,557.0,-1.0,-1.0,189301.343,647.5574340820312,644.6661987304688,0.6224725842475891,0.4337309002876281,0.4751704931259155,0.4188552498817443,0.0,0.0,1.0,784.5,542.0,784.5,542.0,646.11181640625,131.240024934085,13800.6697436591,,,,,,,,,1007.0,1.0,189253.03185,189286.34725,33.3153999999922,2.92290234392734,159.971701538043,13800.6697436591,-8051.10704493996,280.885527054659
28558,189265.5036,,,,,,Frage 3,,,,,,,,,,,,,,,,,,,,,,,,,,,,,,,,,,,,,,,,,,,,,,,,,,,,,,,,,,,,,,,,,,,,,1.0,770.0,466.0,755.0,485.0,-1.0,-1.0,189309.674,647.4382934570312,644.7935791015625,0.6225643754005432,0.4336417317390441,0.4753513038158416,0.4187823235988616,0.0,0.0,1.0,762.5,475.5,762.5,475.5,646.115936279297,159.971701538043,3449.55356568519,,,,,,,,,1007.0,1.0,189253.03185,189286.34725,33.3153999999922,2.92290234392734,159.971701538043,13800.6697436591,-8051.10704493996,280.885527054659
28559,189273.8494,,,,,,Frage 3,,,,,,,,,,,,,,,,,,,,,,,,,,,,,,,,,,,,,,,,,,,,,,,,,,,,,,,,,,,,,,,,,,,,,1.0,769.0,466.0,755.0,429.0,3.9560699462890634,4.0747833251953125,189318.021,647.473876953125,644.9381103515625,0.6227235198020935,0.4335396885871887,0.4753438830375671,0.4186926782131195,0.0,0.0,1.0,762.0,447.5,762.0,447.5,646.205993652344,92.7787723623021,-8051.10704493996,,,,,,,,,1007.0,1.0,189253.03185,189286.34725,33.3153999999922,2.92290234392734,159.971701538043,13800.6697436591,-8051.10704493996,280.885527054659
28560,189282.1693,,,,,,Frage 3,,,,,,,,,,,,,,,,,,,,,,,,,,,,,,,,,,,,,,,,,,,,,,,,,,,,,,,,,,,,,,,,,,,,,1.0,817.0,436.0,792.0,440.0,-1.0,-1.0,189326.34,647.4227905273438,644.92236328125,0.6225001811981201,0.4336442351341247,0.475343644618988,0.4187994003295898,0.0,0.0,1.0,804.5,438.0,804.5,438.0,646.172576904297,91.7824041390818,-119.757235449949,,,,,,,,,1007.0,1.0,189253.03185,189286.34725,33.3153999999922,2.92290234392734,159.971701538043,13800.6697436591,-8051.10704493996,280.885527054659
28561,189285.2935,,,,,,Frage 3,1.0,6.0,0.1738575547933578,0.1924429088830947,0.0380940921604633,0.1672100573778152,0.0241074357181787,0.1284315884113311,0.0568472705781459,0.3287661075592041,0.0,0.0042081023566424,0.1281341463327407,99.6151123046875,97.07518005371091,0.1281341463327407,0.2143283933401107,0.047628067433834,0.0008672862895764,0.000806848576758,0.0001621429109945,0.1545866578817367,0.1783027052879333,0.125051125884056,0.003293210407719,0.0011551375500857,0.0007527480483986,0.0009012690279632,0.0002873139455914,0.0861405357718467,12.621395111083984,0.0193458721041679,0.0042081023566424,0.011960313655436,0.8450120687484741,0.0,12.0,-8.913439750671385,-4.488733768463135,4.665140628814696,101.60076904296876,1.0,6.0,640.0,480.0,0.0,271.42803955078125,177.9931640625,1.0,424.56686401367193,339.9112548828125,2.0,300.04595947265625,207.42796325683597,3.0,401.44732666015625,213.79025268554688,4.0,352.62945556640625,257.1207580566406,5.0,342.49908447265625,339.9112548828125,,,,,,,,,,,,,,,,,,,,,,,,,,,,,,,,,,,,,,,,,,,,,,,
28562,189290.5252,,,,,,Frage 3,,,,,,,,,,,,,,,,,,,,,,,,,,,,,,,,,,,,,,,,,,,,,,,,,,,,,,,,,,,,,,,,,,,,,1.0,838.0,420.0,792.0,440.0,-1.0,-1.0,189334.696,647.404052734375,644.9092407226562,0.6227079033851624,0.4337031841278076,0.4753883779048919,0.4188085794448852,0.0,0.0,1.0,815.0,430.0,815.0,430.0,646.156646728516,25.7518394928377,-7902.26841468704,,,,,,,,,,,,,,,,,,
28563,189298.8479,,,,,,Frage 3,,,,,,,,,,,,,,,,,,,,,,,,,,,,,,,,,,,,,,,,,,,,,,,,,,,,,,,,,,,,,,,,,,,,,1.0,801.0,427.0,779.0,437.0,3.882736206054688,4.051681518554688,189343.019,647.3856811523438,645.0291748046875,0.6227662563323973,0.4336871206760406,0.4752667248249054,0.4188737869262695,0.0,0.0,1.0,790.0,432.0,790.0,432.0,646.207427978516,56.7768315559509,3727.7556638052,,,,,,,,,1008.0,2.0,189294.68655,189303.02045,8.33390000002692,,56.7768315559509,3727.7556638052,,
28564,189307.193,,,,,,Frage 3,,,,,,,,,,,,,,,,,,,,,,,,,,,,,,,,,,,,,,,,,,,,,,,,,,,,,,,,,,,,,,,,,,,,,1.0,796.0,382.0,779.0,436.0,-1.0,-1.0,189351.363,646.9014892578125,645.5673217773438,0.6225982308387756,0.4337193369865417,0.4751716554164886,0.418842613697052,0.0,0.0,1.0,787.5,409.0,787.5,409.0,646.234405517578,20.5075767297892,-4346.17378175647,419.0,1.0,793.600411130475,417.34991022784,189303.02045,189394.70125,91.6807999999728,0.248641446607434,,,,,,,,,,
28565,189315.5417,,,,,,Frage 3,,,,,,,,,,,,,,,,,,,,,,,,,,,,,,,,,,,,,,,,,,,,,,,,,,,,,,,,,,,,,,,,,,,,,1.0,789.0,404.0,784.0,436.0,-1.0,-1.0,189359.713,646.7838134765625,645.6228637695312,0.6226762533187866,0.4336737990379333,0.4752688109874725,0.4187765717506408,0.0,0.0,1.0,786.5,420.0,786.5,420.0,646.203338623047,29.346325916144,1058.69766387011,419.0,1.0,793.600411130475,417.34991022784,189303.02045,189394.70125,91.6807999999728,0.248641446607434,,,,,,,,,,
28566,189317.2469,,,,,,Frage 3,1.0,7.0,0.1829577684402465,0.1921694278717041,0.0408584363758564,0.1751434355974197,0.0241051632910966,0.1282236725091934,0.0571929216384887,0.3287661075592041,0.0,0.0044017089530825,0.1242970079183578,99.61566162109376,96.85404968261719,0.1242970079183578,0.2537832558155059,0.0455895699560642,0.0007992122555151,0.0,9.401935676578432e-05,0.2568325698375701,0.1615675836801528,0.1456604450941085,0.0029667171183973,0.0007367609650827,0.0007817603182047,0.0008565848111175,0.0002665654756128,0.0628125071525573,14.7058687210083,0.0189370233565568,0.0044017089530825,0.0088728014379739,0.8519943356513977,0.0,12.0,-6.782447338104248,-4.8645453453063965,4.065797805786133,99.22054290771484,1.0,7.0,640.0,480.0,0.0,271.0645751953125,177.2185821533203,1.0,424.3517761230469,340.13818359375,2.0,300.3851623535156,207.54721069335935,3.0,399.4752502441406,212.63351440429688,4.0,352.4913330078125,255.12982177734372,5.0,343.2641296386719,340.13818359375,,,,,,,,,,,,,,,,,,,,,,,,,,,,,,,,,,,,,,,,,,,,,,,
28567,189323.8488,,,,,,Frage 3,,,,,,,,,,,,,,,,,,,,,,,,,,,,,,,,,,,,,,,,,,,,,,,,,,,,,,,,,,,,,,,,,,,,,1.0,791.0,409.0,791.0,444.0,3.8675537109375,4.023712158203125,189368.019,646.617431640625,645.6346435546875,0.6227371096611022,0.4336079955101013,0.4751856625080108,0.4187202453613281,0.0,0.0,1.0,791.0,426.5,791.0,426.5,646.126037597656,24.8310964724206,-543.538592736396,419.0,1.0,793.600411130475,417.34991022784,189303.02045,189394.70125,91.6807999999728,0.248641446607434,,,,,,,,,,
28568,189332.1977,,,,,,Frage 3,,,,,,,,,,,,,,,,,,,,,,,,,,,,,,,,,,,,,,,,,,,,,,,,,,,,,,,,,,,,,,,,,,,,,1.0,802.0,418.0,788.0,447.0,-1.0,-1.0,189376.369,646.3814086914064,645.5218505859375,0.6225107908248901,0.433629035949707,0.4750510454177856,0.4187741577625274,0.0,0.0,1.0,795.0,432.5,795.0,432.5,645.951629638672,33.5143895779162,1040.05235486276,419.0,1.0,793.600411130475,417.34991022784,189303.02045,189394.70125,91.6807999999728,0.248641446607434,,,,,,,,,,
28569,189340.4947,,,,,,Frage 3,,,,,,,,,,,,,,,,,,,,,,,,,,,,,,,,,,,,,,,,,,,,,,,,,,,,,,,,,,,,,,,,,,,,,1.0,817.0,396.0,797.0,432.0,-1.0,-1.0,189384.665,646.2127685546875,645.4639282226562,0.6225504279136657,0.4336306750774383,0.475023865699768,0.4187632799148559,0.0,0.0,1.0,807.0,414.0,807.0,414.0,645.838348388672,12.0301996093285,-2589.39254773228,419.0,1.0,793.600411130475,417.34991022784,189303.02045,189394.70125,91.6807999999728,0.248641446607434,,,,,,,,,,
28570,189348.8282,,,,,,Frage 3,,,,,,,,,,,,,,,,,,,,,,,,,,,,,,,,,,,,,,,,,,,,,,,,,,,,,,,,,,,,,,,,,,,,,1.0,808.0,417.0,786.0,434.0,3.856292724609375,4.0007171630859375,189392.998,646.1165771484375,645.4258422851562,0.6224459409713745,0.4336395263671875,0.4749011099338531,0.4187448322772979,0.0,0.0,1.0,797.0,425.5,797.0,425.5,645.771209716797,12.7834694865308,90.3905774529631,419.0,1.0,793.600411130475,417.34991022784,189303.02045,189394.70125,91.6807999999728,0.248641446607434,,,,,,,,,,
28571,189348.9269,,,,,,Frage 3,1.0,8.0,0.1860571503639221,0.1920583397150039,0.0415231436491012,0.1782960146665573,0.0241016689687967,0.1281407177448272,0.0574888959527015,0.3287661075592041,0.0,0.0044653299264609,0.1233226880431175,99.6158905029297,97.177490234375,0.1233226880431175,0.2690859138965606,0.0429072044789791,0.0007275756797753,0.0,7.183315756265074e-05,0.3545811176300048,0.1545111536979675,0.1636161357164382,0.0024522887542843,0.0005321494536474,0.0007284504245035,0.0007299435092136,0.0002576874103397,0.0475090183317661,15.390402793884276,0.0173853039741516,0.0044653299264609,0.0072947512380778,0.7178190350532531,0.0,12.0,-7.6834540367126465,-4.305435657501221,3.8530313968658447,100.12200164794922,1.0,8.0,640.0,480.0,0.0,271.06304931640625,177.14083862304688,1.0,424.3761596679688,339.6817321777344,2.0,299.8106689453125,207.3480224609375,3.0,399.7957153320313,212.58303833007812,4.0,352.08355712890625,255.5767822265625,5.0,343.5523986816406,339.6817321777344,,,,,,,,,,,,,,,,,,,,,,,,,,,,,,,,,,,,,,,,,,,,,,,
28572,189357.1612,,,,,,Frage 3,,,,,,,,,,,,,,,,,,,,,,,,,,,,,,,,,,,,,,,,,,,,,,,,,,,,,,,,,,,,,,,,,,,,,1.0,813.0,398.0,786.0,434.0,-1.0,-1.0,189401.331,645.9921264648438,645.3123779296875,0.6222959160804749,0.4336390793323516,0.4747523665428161,0.4188024997711181,0.0,0.0,1.0,799.5,416.0,799.5,416.0,645.652252197266,7.74730742930869,-604.363621410551,419.0,1.0,793.600411130475,417.34991022784,189303.02045,189394.70125,91.6807999999728,0.248641446607434,,,,,,,,,,
28573,189365.4914,,,,,,Frage 3,,,,,,,,,,,,,,,,,,,,,,,,,,,,,,,,,,,,,,,,,,,,,,,,,,,,,,,,,,,,,,,,,,,,,1.0,802.0,422.0,784.0,424.0,-1.0,-1.0,189409.662,645.9627685546875,645.2803344726562,0.6222720742225647,0.4336655139923095,0.4747187197208404,0.4188284873962402,0.0,0.0,1.0,793.0,423.0,793.0,423.0,645.621551513672,20.2970084383093,1506.53057657746,419.0,1.0,793.600411130475,417.34991022784,189303.02045,189394.70125,91.6807999999728,0.248641446607434,,,,,,,,,,
28574,189373.8238,,,,,,Frage 3,,,,,,,,,,,,,,,,,,,,,,,,,,,,,,,,,,,,,,,,,,,,,,,,,,,,,,,,,,,,,,,,,,,,,1.0,804.0,393.0,786.0,416.0,3.7933349609375,4.001724243164063,189417.995,645.9448852539064,645.2655639648438,0.6221970915794371,0.4336456060409545,0.4746167957782745,0.4188475906848907,0.0,0.0,1.0,795.0,404.5,795.0,404.5,645.605224609375,8.44004236674271,-1422.99530405968,419.0,1.0,793.600411130475,417.34991022784,189303.02045,189394.70125,91.6807999999728,0.248641446607434,,,,,,,,,,
28575,189381.5733,,,,,,Frage 3,1.0,9.0,0.1821725964546203,0.1919491440057754,0.0400515049695968,0.1756058484315872,0.0240894239395856,0.1280659288167953,0.0576393082737922,0.3287661075592041,0.0,0.0041064373217523,0.1195876002311706,99.61610412597656,96.64610290527344,0.1195876002311706,0.2829928398132324,0.0346307270228862,0.0006582286441698,0.0,0.0001227477478096,0.4024150073528289,0.1510398983955383,0.1680885702371597,0.0023084064014256,0.0004897204926237,0.0007370110834017,0.0006258524954319,0.0002563322195783,0.0419528149068355,14.51772403717041,0.0143150771036744,0.0041064373217523,0.0058320425450801,0.5793386697769165,0.0,12.0,-7.54559326171875,-5.1953344345092765,3.8342926502227774,100.23150634765624,1.0,9.0,640.0,480.0,0.0,270.9247131347656,176.89767456054688,1.0,424.871337890625,340.0873107910156,2.0,299.91619873046875,207.18600463867188,3.0,400.0021362304688,212.5859375,4.0,352.978515625,255.62474060058597,5.0,343.7757568359375,340.0873107910156,,,,,,,,,,,,,,,,,,,,,,,,,,,,,,,,,,,,,,,,,,,,,,,
28576,189382.1783,,,,,,Frage 3,,,,,,,,,,,,,,,,,,,,,,,,,,,,,,,,,,,,,,,,,,,,,,,,,,,,,,,,,,,,,,,,,,,,,1.0,797.0,425.0,780.0,416.0,-1.0,-1.0,189426.349,645.8562622070312,645.1964721679688,0.6220438480377197,0.4336220622062683,0.4744887351989746,0.4188844263553619,0.0,0.0,1.0,788.5,420.5,788.5,420.5,645.5263671875,17.6600467746116,1103.59739157143,419.0,1.0,793.600411130475,417.34991022784,189303.02045,189394.70125,91.6807999999728,0.248641446607434,,,,,,,,,,
28577,189390.5815,,,,,,Frage 3,,,,,,,,,,,,,,,,,,,,,,,,,,,,,,,,,,,,,,,,,,,,,,,,,,,,,,,,,,,,,,,,,,,,,1.0,811.0,413.0,771.0,416.0,-1.0,-1.0,189434.752,645.8603515625,645.22265625,0.6221216917037963,0.4336634874343872,0.4745248258113861,0.4188738465309143,0.0,0.0,1.0,791.0,414.5,791.0,414.5,645.54150390625,9.21293364587183,-1005.22576265459,419.0,1.0,793.600411130475,417.34991022784,189303.02045,189394.70125,91.6807999999728,0.248641446607434,,,,,,,,,,
28578,189398.821,,,,,,Frage 3,,,,,,,,,,,,,,,,,,,,,,,,,,,,,,,,,,,,,,,,,,,,,,,,,,,,,,,,,,,,,,,,,,,,,1.0,810.0,413.0,778.0,426.0,3.804855346679688,3.995803833007813,189442.992,645.9502563476562,645.290283203125,0.6220317482948303,0.4337125420570373,0.4744447171688079,0.4189235568046569,0.0,0.0,1.0,794.0,419.5,794.0,419.5,645.620269775391,66.0162911098026,6894.02966975642,,,,,,,,,1009.0,3.0,189394.70125,189403.0317,8.33045000000857,,66.0162911098026,6894.02966975642,,
28579,189407.2424,,,,,,Frage 3,,,,,,,,,,,,,,,,,,,,,,,,,,,,,,,,,,,,,,,,,,,,,,,,,,,,,,,,,,,,,,,,,,,,,1.0,831.0,416.0,823.0,378.0,-1.0,-1.0,189451.413,645.99462890625,645.2816772460938,0.6219141483306884,0.4337222874164581,0.4743426144123077,0.4190344214439392,0.0,0.0,1.0,827.0,397.0,827.0,397.0,645.638153076172,9.25432859242851,-6740.20501548769,,,,,,,,,,,,,,,,,,
28580,189412.8692,,,,,,Frage 3,1.0,10.0,0.1907982677221298,0.1918777972459793,0.0425639227032661,0.1832186728715896,0.0240899063646793,0.1280761808156967,0.0579906292259693,0.3287661075592041,0.0,0.0042859315872192,0.121571384370327,99.61624145507811,96.30731964111328,0.121571384370327,0.299140453338623,0.0346440039575099,0.0005390032893046,0.0,8.641980821266769e-05,0.4754931628704071,0.157710388302803,0.2181218415498733,0.0018785182619467,0.0004280522989574,0.0007864173385314,0.0006045682821422,0.0002341516810702,0.0376788489520549,16.457393646240234,0.0148559296503663,0.0042859315872192,0.0057849241420626,0.5054234862327575,0.0,12.0,-6.434851169586182,-5.694041728973389,3.7026574611663814,100.3571319580078,1.0,10.0,640.0,480.0,0.0,270.384521484375,176.1032257080078,1.0,424.7847900390625,340.194091796875,2.0,299.4167785644532,206.98910522460935,3.0,399.6661376953125,211.6387939453125,4.0,353.06561279296875,254.39138793945315,5.0,343.67108154296875,340.194091796875,,,,,,,,,,,,,,,,,,,,,,,,,,,,,,,,,,,,,,,,,,,,,,,
28581,189415.5424,,,,,,Frage 3,,,,,,,,,,,,,,,,,,,,,,,,,,,,,,,,,,,,,,,,,,,,,,,,,,,,,,,,,,,,,,,,,,,,,1.0,800.0,404.0,780.0,427.0,-1.0,-1.0,189459.714,646.1354370117188,645.3710327148438,0.6219584941864013,0.4337939023971557,0.4743406772613525,0.4190951585769653,0.0,0.0,1.0,790.0,415.5,790.0,415.5,645.753234863281,54.5745548139108,5460.26821944421,,,,,,,,,1010.0,4.0,189411.3924,189478.00295,66.6105499999831,4.78169182121295,136.953897754512,6543.91805918872,-7663.91974015881,187.125016348902
28582,189423.8165,,,,,,Frage 3,,,,,,,,,,,,,,,,,,,,,,,,,,,,,,,,,,,,,,,,,,,,,,,,,,,,,,,,,,,,,,,,,,,,,1.0,824.0,415.0,777.0,418.0,3.80780029296875,3.98828125,189467.987,646.3153076171875,645.5084838867188,0.6219759583473204,0.4338473975658416,0.4742636680603027,0.4192045927047729,0.0,0.0,1.0,800.5,416.5,800.5,416.5,645.911895751953,43.5334513487919,-1334.41745508815,,,,,,,,,1010.0,4.0,189411.3924,189478.00295,66.6105499999831,4.78169182121295,136.953897754512,6543.91805918872,-7663.91974015881,187.125016348902
28583,189432.2067,,,,,,Frage 3,,,,,,,,,,,,,,,,,,,,,,,,,,,,,,,,,,,,,,,,,,,,,,,,,,,,,,,,,,,,,,,,,,,,,1.0,762.0,389.0,778.0,407.0,-1.0,-1.0,189476.377,646.4157104492188,645.5853271484375,0.6217474937438964,0.4339941143989563,0.4741441309452056,0.4193513095378875,0.0,0.0,1.0,770.0,398.0,770.0,398.0,646.000518798828,56.110386985279,1499.00307936067,,,,,,,,,1010.0,4.0,189411.3924,189478.00295,66.6105499999831,4.78169182121295,136.953897754512,6543.91805918872,-7663.91974015881,187.125016348902
28584,189440.4814,,,,,,Frage 3,,,,,,,,,,,,,,,,,,,,,,,,,,,,,,,,,,,,,,,,,,,,,,,,,,,,,,,,,,,,,,,,,,,,,1.0,763.0,393.0,778.0,407.0,-1.0,-1.0,189484.653,646.5402221679688,645.7538452148438,0.6220150589942932,0.4340731799602508,0.4743801951408386,0.4194478392601013,0.0,0.0,1.0,770.5,400.0,770.5,400.0,646.147033691406,57.4300883600636,159.486310656316,,,,,,,,,1010.0,4.0,189411.3924,189478.00295,66.6105499999831,4.78169182121295,136.953897754512,6543.91805918872,-7663.91974015881,187.125016348902
28585,189448.846,,,,,,Frage 3,,,,,,,,,,,,,,,,,,,,,,,,,,,,,,,,,,,,,,,,,,,,,,,,,,,,,,,,,,,,,,,,,,,,,1.0,731.0,383.0,739.0,416.0,3.76446533203125,3.9779052734375,189493.017,646.6737060546875,645.9514770507812,0.622294008731842,0.4341355562210083,0.4746659994125366,0.4196243286132812,0.0,0.0,1.0,735.0,399.5,735.0,399.5,646.312591552734,112.167345357959,6543.91805918872,,,,,,,,,1010.0,4.0,189411.3924,189478.00295,66.6105499999831,4.78169182121295,136.953897754512,6543.91805918872,-7663.91974015881,187.125016348902
28586,189457.1684,,,,,,Frage 3,,,,,,,,,,,,,,,,,,,,,,,,,,,,,,,,,,,,,,,,,,,,,,,,,,,,,,,,,,,,,,,,,,,,,1.0,718.0,398.0,686.0,413.0,-1.0,-1.0,189501.339,646.701904296875,646.0549926757812,0.6222864985466003,0.4342790246009826,0.4748527109622955,0.4197120368480682,0.0,0.0,1.0,702.0,405.5,702.0,405.5,646.378448486328,116.010909486473,461.833621132387,,,,,,,,,1010.0,4.0,189411.3924,189478.00295,66.6105499999831,4.78169182121295,136.953897754512,6543.91805918872,-7663.91974015881,187.125016348902
28587,189461.225,,,,,,Frage 3,1.0,11.0,0.195690244436264,0.1915767639875412,0.0439795143902301,0.188033252954483,0.0240927767008543,0.1279945969581604,0.0584588684141635,0.3287661075592041,0.0,0.004382693208754,0.1163911819458007,99.60862731933594,97.10315704345705,0.1163911819458007,0.3542037308216095,0.0365561209619045,0.000438372924691,0.0,5.8563375205267214e-05,0.5609676837921141,0.1697558313608169,0.2586574852466583,0.0015587614616379,0.0003430828219279,0.0007866205996833,0.0004806379438377,0.0002215828135376,0.0389661230146884,17.482370376586914,0.0164283458143472,0.004382693208754,0.0052209980785846,0.4792960286140441,0.0,12.0,-8.168628692626953,-4.439235687255859,4.337759017944336,100.76895141601564,1.0,11.0,640.0,480.0,0.0,270.4822998046875,176.64501953125,1.0,424.82177734375,340.2167358398437,2.0,299.8168334960937,206.7930908203125,3.0,400.433349609375,212.3337554931641,4.0,352.1853332519532,255.9154815673828,5.0,342.7059631347656,340.2167358398437,,,,,,,,,,,,,,,,,,,,,,,,,,,,,,,,,,,,,,,,,,,,,,,
28588,189465.4946,,,,,,Frage 3,,,,,,,,,,,,,,,,,,,,,,,,,,,,,,,,,,,,,,,,,,,,,,,,,,,,,,,,,,,,,,,,,,,,,1.0,666.0,394.0,663.0,383.0,-1.0,-1.0,189509.664,646.63671875,646.606201171875,0.6225112080574035,0.4343439042568206,0.475065529346466,0.4197879135608673,0.0,0.0,1.0,664.5,388.5,664.5,388.5,646.621459960938,136.953897754512,2515.31169897588,,,,,,,,,1010.0,4.0,189411.3924,189478.00295,66.6105499999831,4.78169182121295,136.953897754512,6543.91805918872,-7663.91974015881,187.125016348902
28589,189473.8386,,,,,,Frage 3,,,,,,,,,,,,,,,,,,,,,,,,,,,,,,,,,,,,,,,,,,,,,,,,,,,,,,,,,,,,,,,,,,,,,1.0,637.0,394.0,599.0,394.0,3.703369140625,3.92041015625,189518.009,646.6536254882812,646.7327880859375,0.6226416826248168,0.4342957139015197,0.47502401471138,0.4197441935539245,0.0,0.0,1.0,618.0,394.0,618.0,394.0,646.693206787109,73.0061514427592,-7663.91974015881,,,,,,,,,1010.0,4.0,189411.3924,189478.00295,66.6105499999831,4.78169182121295,136.953897754512,6543.91805918872,-7663.91974015881,187.125016348902
28590,189482.1673,,,,,,Frage 3,,,,,,,,,,,,,,,,,,,,,,,,,,,,,,,,,,,,,,,,,,,,,,,,,,,,,,,,,,,,,,,,,,,,,1.0,-1.0,-1.0,-1.0,-1.0,-1.0,-1.0,189526.338,-1.0,-1.0,-1.0,-1.0,-1.0,-1.0,4.0,4.0,1.0,,,619.5,393.0,646.689559936524,5.85003415088285,-8063.21722378924,420.0,2.0,613.582431380465,397.763853771366,189478.00295,189552.9969,74.9939500000037,0.332123304189695,,,,,,,,,,
28591,189490.4972,,,,,,Frage 3,,,,,,,,,,,,,,,,,,,,,,,,,,,,,,,,,,,,,,,,,,,,,,,,,,,,,,,,,,,,,,,,,,,,,1.0,644.0,401.0,598.0,383.0,-1.0,-1.0,189534.666,646.6043090820312,646.7675170898438,0.6225371956825256,0.4344625174999237,0.4749742448329925,0.419908583164215,0.0,0.0,1.0,621.0,392.0,621.0,392.0,646.685913085938,12.307506590886,775.216081825012,420.0,2.0,613.582431380465,397.763853771366,189478.00295,189552.9969,74.9939500000037,0.332123304189695,,,,,,,,,,
28592,189492.7457,,,,,,Frage 3,1.0,12.0,0.195815160870552,0.1915855407714843,0.0439294017851352,0.1882630288600921,0.0240905042737722,0.1280330717563629,0.0585673674941062,0.3287661075592041,0.0,0.0042839334346354,0.1252560466527938,99.60836791992189,96.9036865234375,0.1252560466527938,0.357996791601181,0.0350818336009979,0.0004050199349876,0.0,5.678024899680168e-05,0.579885184764862,0.1698055416345596,0.2804201245307922,0.0013857365120202,0.0003513001429382,0.0007875033188611,0.0004066039691679,0.0002114765520673,0.0383245013654232,17.48816680908203,0.0173714999109506,0.0042839334346354,0.0043906336650252,0.4516588449478149,0.0,12.0,-7.824716567993165,-4.782470703125,3.9307379722595215,100.62934112548828,1.0,12.0,640.0,480.0,0.0,270.7663879394532,176.67501831054688,1.0,424.6868896484375,339.7606506347656,2.0,299.63653564453125,206.86215209960935,3.0,400.114501953125,212.37962341308597,4.0,352.5012512207032,255.53875732421875,5.0,343.4288635253906,339.7606506347656,,,,,,,,,,,,,,,,,,,,,,,,,,,,,,,,,,,,,,,,,,,,,,,
28593,189498.844,,,,,,Frage 3,,,,,,,,,,,,,,,,,,,,,,,,,,,,,,,,,,,,,,,,,,,,,,,,,,,,,,,,,,,,,,,,,,,,,1.0,637.0,403.0,600.0,398.0,3.6826019287109375,3.905441284179688,189543.015,646.6622314453125,646.86279296875,0.6225582361221313,0.4344639182090759,0.4749155342578887,0.4199230670928955,0.0,0.0,1.0,618.5,400.5,618.5,400.5,646.762512207031,31.2429977852385,2268.5928972006,420.0,2.0,613.582431380465,397.763853771366,189478.00295,189552.9969,74.9939500000037,0.332123304189695,,,,,,,,,,
28594,189507.1438,,,,,,Frage 3,,,,,,,,,,,,,,,,,,,,,,,,,,,,,,,,,,,,,,,,,,,,,,,,,,,,,,,,,,,,,,,,,,,,,1.0,616.0,406.0,598.0,351.0,-1.0,-1.0,189551.314,646.6303100585938,646.855224609375,0.6223845481872557,0.4345883727073669,0.4748179614543914,0.4200363755226135,0.0,0.0,1.0,607.0,378.5,607.0,378.5,646.742767333984,40.0672035648388,1063.18294171219,420.0,2.0,613.582431380465,397.763853771366,189478.00295,189552.9969,74.9939500000037,0.332123304189695,,,,,,,,,,
28595,189515.5126,,,,,,Frage 3,,,,,,,,,,,,,,,,,,,,,,,,,,,,,,,,,,,,,,,,,,,,,,,,,,,,,,,,,,,,,,,,,,,,,1.0,594.0,402.0,594.0,408.0,-1.0,-1.0,189559.683,646.6179809570312,646.892578125,0.6224877834320068,0.4345781207084655,0.4749027490615844,0.4200271964073181,0.0,0.0,1.0,594.0,405.0,594.0,405.0,646.755279541016,46.5047566228365,769.232513383089,420.0,2.0,613.582431380465,397.763853771366,189478.00295,189552.9969,74.9939500000037,0.332123304189695,,,,,,,,,,
28596,189523.8359,,,,,,Frage 3,,,,,,,,,,,,,,,,,,,,,,,,,,,,,,,,,,,,,,,,,,,,,,,,,,,,,,,,,,,,,,,,,,,,,1.0,594.0,402.0,596.0,407.0,3.654754638671875,3.892242431640625,189568.007,646.577880859375,646.9313354492188,0.6226087808609008,0.4344911277294158,0.4748509526252746,0.4200563430786132,0.0,0.0,1.0,595.0,404.5,595.0,404.5,646.754608154297,18.540963518889,-3359.70025156926,420.0,2.0,613.582431380465,397.763853771366,189478.00295,189552.9969,74.9939500000037,0.332123304189695,,,,,,,,,,
28597,189524.804,,,,,,Frage 3,1.0,13.0,0.2041171342134475,0.1914846152067184,0.046561412513256,0.1952361166477203,0.0240946616977453,0.1279239803552627,0.0588892214000225,0.3287661075592041,0.0,0.0042864796705543,0.1310012191534042,99.59176635742189,96.03983306884764,0.1310012191534042,0.3872542679309845,0.0381159968674182,0.0003367770113982,0.0,3.87417858291883e-05,0.6526501774787902,0.1562502533197403,0.3235640525817871,0.0013074273010715,0.0003103713679593,0.0008373009623028,0.0003997512103524,0.0002074105577776,0.0312408730387687,19.132762908935547,0.0197482127696275,0.0042864796705543,0.0049571972340345,0.512700617313385,0.0,12.0,-8.065918922424316,-6.0576157569885245,3.824551105499268,99.8857879638672,1.0,13.0,640.0,480.0,0.0,270.12860107421875,176.3473663330078,1.0,424.52252197265625,340.1670837402344,2.0,299.4728698730469,206.91354370117188,3.0,399.25482177734375,211.46687316894528,4.0,353.0810852050781,255.62979125976565,5.0,343.2489929199219,340.1670837402344,,,,,,,,,,,,,,,,,,,,,,,,,,,,,,,,,,,,,,,,,,,,,,,
28598,189532.3276,,,,,,Frage 3,,,,,,,,,,,,,,,,,,,,,,,,,,,,,,,,,,,,,,,,,,,,,,,,,,,,,,,,,,,,,,,,,,,,,1.0,605.0,389.0,596.0,402.0,-1.0,-1.0,189576.312,646.470458984375,646.8579711914064,0.6223490834236145,0.4346140623092651,0.4747281670570373,0.4200854897499084,0.0,0.0,1.0,600.5,395.5,600.5,395.5,646.664215087891,44.1522363451086,3016.0359911758,420.0,2.0,613.582431380465,397.763853771366,189478.00295,189552.9969,74.9939500000037,0.332123304189695,,,,,,,,,,
28599,189540.4869,,,,,,Frage 3,,,,,,,,,,,,,,,,,,,,,,,,,,,,,,,,,,,,,,,,,,,,,,,,,,,,,,,,,,,,,,,,,,,,,1.0,647.0,396.0,595.0,396.0,-1.0,-1.0,189584.658,646.4022216796875,646.8251953125,0.6224853992462158,0.4345581531524658,0.4748328626155853,0.4200508594512939,0.0,0.0,1.0,621.0,396.0,621.0,396.0,646.613708496094,31.4190554917112,-1560.57270273165,420.0,2.0,613.582431380465,397.763853771366,189478.00295,189552.9969,74.9939500000037,0.332123304189695,,,,,,,,,,
28600,189548.8577,,,,,,Frage 3,,,,,,,,,,,,,,,,,,,,,,,,,,,,,,,,,,,,,,,,,,,,,,,,,,,,,,,,,,,,,,,,,,,,,1.0,648.0,384.0,590.0,419.0,3.629791259765625,3.832672119140625,189593.028,646.3776245117188,646.772705078125,0.6225543022155761,0.4343645572662353,0.4747781455516815,0.4198604226112365,0.0,0.0,1.0,619.0,401.5,619.0,401.5,646.575164794922,29.4091466698541,-240.109526192968,420.0,2.0,613.582431380465,397.763853771366,189478.00295,189552.9969,74.9939500000037,0.332123304189695,,,,,,,,,,
28601,189557.1361,,,,,,Frage 3,,,,,,,,,,,,,,,,,,,,,,,,,,,,,,,,,,,,,,,,,,,,,,,,,,,,,,,,,,,,,,,,,,,,,1.0,648.0,384.0,558.0,414.0,-1.0,-1.0,189601.307,646.2544555664064,646.6016235351562,0.6224316358566284,0.4341809153556823,0.4749011993408203,0.4197368919849395,0.0,0.0,1.0,603.0,399.0,603.0,399.0,646.428039550781,134.287330424711,12668.8954091042,,,,,,,,,1011.0,5.0,189552.9969,189627.9764,74.9794999999867,10.8592475787923,338.062966583669,13035.6718882259,-13751.0585995762,236.390630701663
28602,189557.5554,,,,,,Frage 3,1.0,14.0,0.2076356410980224,0.1916896104812622,0.0478829406201839,0.1973991245031356,0.0240944549441337,0.1279522478580474,0.0587817206978797,0.3332135379314422,0.0,0.0042326697148382,0.1317431777715683,99.58473205566406,97.05606079101561,0.1317431777715683,0.3477349877357482,0.0380754321813583,0.0003544027276802,0.0,5.565186802414246e-05,0.6160005927085876,0.1472894698381424,0.3648171722888946,0.0012250216677784,0.0004061335057485,0.0010113300522789,0.0004287353949621,0.000212859318708,0.0300717260688543,19.841007232666016,0.0236383378505706,0.0042326697148382,0.0055341003462672,0.5936161875724792,0.0,12.0,-6.321022987365723,-4.52229881286621,3.952194929122925,100.03362274169922,1.0,14.0,640.0,480.0,0.0,270.5171203613281,176.61074829101565,1.0,424.76318359375,340.63134765625,2.0,299.8409423828125,207.3212127685547,3.0,399.751953125,212.2724609375,4.0,352.1811828613281,254.7100830078125,5.0,343.3275756835937,340.63134765625,,,,,,,,,,,,,,,,,,,,,,,,,,,,,,,,,,,,,,,,,,,,,,,
28603,189565.4968,,,,,,Frage 3,,,,,,,,,,,,,,,,,,,,,,,,,,,,,,,,,,,,,,,,,,,,,,,,,,,,,,,,,,,,,,,,,,,,,1.0,562.0,340.0,-1.0,-1.0,-1.0,-1.0,189609.668,646.1581420898438,-1.0,0.6226276159286499,0.4336310625076293,-1.0,-1.0,0.0,4.0,1.0,562.0,340.0,562.0,340.0,646.158142089844,201.059990502554,7986.49157103133,,,,,,,,,1011.0,5.0,189552.9969,189627.9764,74.9794999999867,10.8592475787923,338.062966583669,13035.6718882259,-13751.0585995762,236.390630701663
28604,189573.8007,,,,,,Frage 3,,,,,,,,,,,,,,,,,,,,,,,,,,,,,,,,,,,,,,,,,,,,,,,,,,,,,,,,,,,,,,,,,,,,,1.0,523.0,271.0,505.0,347.0,3.5442047119140625,3.819290161132813,189617.971,645.2611083984375,645.3826904296875,0.623004138469696,0.4329596161842346,0.4757170379161834,0.4189667999744415,0.0,0.0,1.0,514.0,309.0,514.0,309.0,645.321899414063,229.08083889653,3374.42025963459,,,,,,,,,1011.0,5.0,189552.9969,189627.9764,74.9794999999867,10.8592475787923,338.062966583669,13035.6718882259,-13751.0585995762,236.390630701663
28605,189582.161,,,,,,Frage 3,,,,,,,,,,,,,,,,,,,,,,,,,,,,,,,,,,,,,,,,,,,,,,,,,,,,,,,,,,,,,,,,,,,,,1.0,523.0,271.0,434.0,170.0,-1.0,-1.0,189626.332,644.8895263671875,644.7470092773438,0.6224888563156127,0.4331194162368774,0.4757809937000274,0.4188559651374816,0.0,0.0,1.0,478.5,220.5,478.5,220.5,644.818267822266,338.062966583669,13035.6718882259,,,,,,,,,1011.0,5.0,189552.9969,189627.9764,74.9794999999867,10.8592475787923,338.062966583669,13035.6718882259,-13751.0585995762,236.390630701663
28606,189588.7663,,,,,,Frage 3,1.0,15.0,0.2065616697072982,0.1918645501136779,0.0477754771709442,0.1956007629632949,0.0240914225578308,0.1278834640979766,0.0585066080093383,0.3287661075592041,0.0,0.004046038724482,0.1219220086932182,99.58688354492189,97.28609466552734,0.1219220086932182,0.3029344975948333,0.0362130403518676,0.0003270854940637,0.0,3.0912106012692675e-05,0.5603142976760864,0.1297570914030075,0.3701775968074798,0.0011973954970017,0.0004173580382484,0.0010571943130344,0.0004520809161476,0.0001962572423508,0.0313083454966545,19.61250877380371,0.0260170809924602,0.004046038724482,0.0057730739936232,0.6926685571670532,0.0,12.0,-7.524618625640869,-4.103677272796631,3.8585910797119136,100.27529907226564,1.0,15.0,640.0,480.0,0.0,270.45489501953125,176.64041137695312,1.0,424.7388305664063,340.42755126953125,2.0,299.60919189453125,207.2554931640625,3.0,399.77252197265625,211.9928131103516,4.0,351.807373046875,255.4537048339844,5.0,343.40887451171875,340.42755126953125,,,,,,,,,,,,,,,,,,,,,,,,,,,,,,,,,,,,,,,,,,,,,,,
28607,189590.4967,,,,,,Frage 3,,,,,,,,,,,,,,,,,,,,,,,,,,,,,,,,,,,,,,,,,,,,,,,,,,,,,,,,,,,,,,,,,,,,,1.0,384.0,93.0,407.0,155.0,-1.0,-1.0,189634.666,644.685302734375,644.5337524414064,0.6227859258651733,0.4328640103340148,0.4760397970676422,0.4186823666095733,0.0,0.0,1.0,395.5,124.0,395.5,124.0,644.609527587891,248.728650358094,-10717.0742979735,,,,,,,,,1011.0,5.0,189552.9969,189627.9764,74.9794999999867,10.8592475787923,338.062966583669,13035.6718882259,-13751.0585995762,236.390630701663
28608,189598.7996,,,,,,Frage 3,,,,,,,,,,,,,,,,,,,,,,,,,,,,,,,,,,,,,,,,,,,,,,,,,,,,,,,,,,,,,,,,,,,,,1.0,384.0,76.0,376.0,103.0,3.572479248046875,3.788238525390625,189642.971,644.7371215820312,644.412109375,0.62277752161026,0.4329037964344024,0.475908875465393,0.4185877740383148,0.0,0.0,1.0,380.0,89.5,380.0,89.5,644.574615478516,134.554985911539,-13751.0585995762,,,,,,,,,1011.0,5.0,189552.9969,189627.9764,74.9794999999867,10.8592475787923,338.062966583669,13035.6718882259,-13751.0585995762,236.390630701663
28609,189607.1594,,,,,,Frage 3,,,,,,,,,,,,,,,,,,,,,,,,,,,,,,,,,,,,,,,,,,,,,,,,,,,,,,,,,,,,,,,,,,,,,1.0,373.0,50.0,338.0,36.0,-1.0,-1.0,189651.329,644.4873046875,644.3124389648438,0.622616171836853,0.4330323636531829,0.4756694436073303,0.418770283460617,0.0,0.0,1.0,355.5,43.0,355.5,43.0,644.399871826172,65.3674520899584,-8276.21878771434,,,,,,,,,1011.0,5.0,189552.9969,189627.9764,74.9794999999867,10.8592475787923,338.062966583669,13035.6718882259,-13751.0585995762,236.390630701663
28610,189615.4627,,,,,,Frage 3,,,,,,,,,,,,,,,,,,,,,,,,,,,,,,,,,,,,,,,,,,,,,,,,,,,,,,,,,,,,,,,,,,,,,1.0,365.0,53.0,356.0,47.0,-1.0,-1.0,189659.633,644.2567138671875,644.3189697265625,0.6229065656661987,0.4328754544258117,0.4758323729038238,0.4186125993728637,0.0,0.0,1.0,360.5,50.0,360.5,50.0,644.287841796875,59.6187805713692,-692.3357603109,,,,,,,,,1011.0,5.0,189552.9969,189627.9764,74.9794999999867,10.8592475787923,338.062966583669,13035.6718882259,-13751.0585995762,236.390630701663
28611,189621.6397,,,,,,Frage 3,1.0,16.0,0.2140073180198669,0.191844031214714,0.0499098151922225,0.201936736702919,0.0240848995745182,0.127802550792694,0.0588795989751815,0.3608690202236175,0.0,0.0036906760651618,0.1184509545564651,99.57199096679688,96.84393310546876,0.1184509545564651,0.3053246736526489,0.032139666378498,0.0003130823024548,0.0,1.4888807527313476e-05,0.6711920499801635,0.1219602823257446,0.417313665151596,0.0011067225132137,0.0004377993172965,0.0010675383964553,0.0004786340286955,0.000206901851925,0.0292097125202417,21.00354385375977,0.0291759800165891,0.0036906760651618,0.0058926804922521,0.633857011795044,0.0,12.0,-7.223073482513427,-4.881134033203125,3.9779398441314697,100.5556182861328,1.0,16.0,640.0,480.0,0.0,270.5950927734375,176.66275024414065,1.0,424.9048767089844,340.3505249023437,2.0,299.7078857421875,207.5122985839844,3.0,400.1600341796875,212.0727386474609,4.0,352.6060791015625,255.3349609375,5.0,343.38201904296875,340.3505249023437,,,,,,,,,,,,,,,,,,,,,,,,,,,,,,,,,,,,,,,,,,,,,,,
28612,189623.7958,,,,,,Frage 3,,,,,,,,,,,,,,,,,,,,,,,,,,,,,,,,,,,,,,,,,,,,,,,,,,,,,,,,,,,,,,,,,,,,,1.0,416.0,91.0,354.0,51.0,3.5602264404296875,3.7775726318359375,189667.967,643.976318359375,644.2603759765625,0.6230209469795227,0.4328196942806243,0.4757309257984161,0.4185885190963745,0.0,0.0,1.0,385.0,71.0,385.0,71.0,644.118347167969,42.2573980214027,-2083.42424187752,,,,,,,,,1011.0,5.0,189552.9969,189627.9764,74.9794999999867,10.8592475787923,338.062966583669,13035.6718882259,-13751.0585995762,236.390630701663
28613,189632.157,,,,,,Frage 3,,,,,,,,,,,,,,,,,,,,,,,,,,,,,,,,,,,,,,,,,,,,,,,,,,,,,,,,,,,,,,,,,,,,,1.0,391.0,86.0,358.0,64.0,-1.0,-1.0,189676.328,642.648681640625,643.9686279296875,0.622776210308075,0.4329822361469268,0.4755983650684356,0.4187490344047546,0.0,0.0,1.0,374.5,75.0,374.5,75.0,643.308654785156,15.8373033198769,-3159.84484302275,,,,,,,,,,,,,,,,,,
28614,189640.501,,,,,,Frage 3,,,,,,,,,,,,,,,,,,,,,,,,,,,,,,,,,,,,,,,,,,,,,,,,,,,,,,,,,,,,,,,,,,,,,1.0,403.0,67.0,346.0,72.0,-1.0,-1.0,189684.672,640.3475952148438,643.757080078125,0.623206079006195,0.4327967166900634,0.4758566617965698,0.4185500144958496,0.0,0.0,1.0,374.5,69.5,374.5,69.5,642.052337646484,1.73724470235257,-1689.84403374323,,,,,,,,,,,,,,,,,,
28615,189648.7919,,,,,,Frage 3,,,,,,,,,,,,,,,,,,,,,,,,,,,,,,,,,,,,,,,,,,,,,,,,,,,,,,,,,,,,,,,,,,,,,1.0,408.0,79.0,343.0,70.0,3.495452880859375,3.733078002929688,189692.963,638.1995849609375,642.4395141601562,0.6233916282653807,0.4327234923839569,0.4758504927158355,0.4185951054096221,0.0,0.0,1.0,375.5,74.5,375.5,74.5,640.319549560547,67.6401401221138,7948.82285633501,,,,,,,,,1012.0,6.0,189644.64645,189669.64,24.9935500000138,0.870930837051826,67.6401401221138,7948.82285633501,-2493.92649591382,58.0918930643469
28616,189652.6967,,,,,,Frage 3,1.0,17.0,0.2238681763410568,0.1919299662113189,0.0531409122049808,0.2095303535461425,0.0240792743861675,0.1277308166027069,0.0591069757938385,0.4094084799289703,0.0,0.0033546688500791,0.1194648668169975,99.5522689819336,97.11251068115233,0.1194648668169975,0.2906047999858856,0.0286879818886518,0.0002645230852067,0.0,7.156765059335157e-05,0.7287604808807373,0.1052269786596298,0.4837593734264373,0.000968626292888,0.0002989627246279,0.0012241469230502,0.0004544843686744,0.0001917358313221,0.0294574946165084,22.7918643951416,0.0332909412682056,0.0033546688500791,0.0061767008155584,0.6869933605194091,0.0,12.0,-7.60063886642456,-4.4225897789001465,4.324580669403076,99.07804107666016,1.0,17.0,640.0,480.0,0.0,270.4379272460937,176.7556610107422,1.0,424.6220703125,340.3559875488281,2.0,300.4745483398437,207.2623291015625,3.0,399.4300537109375,212.1883544921875,4.0,351.974365234375,255.584228515625,5.0,342.6854248046875,340.3559875488281,,,,,,,,,,,,,,,,,,,,,,,,,,,,,,,,,,,,,,,,,,,,,,,
28617,189657.1563,,,,,,Frage 3,,,,,,,,,,,,,,,,,,,,,,,,,,,,,,,,,,,,,,,,,,,,,,,,,,,,,,,,,,,,,,,,,,,,,1.0,415.0,90.0,-1.0,-1.0,-1.0,-1.0,189701.327,637.9262084960938,-1.0,0.6231665611267089,0.4328409433364868,-1.0,-1.0,0.0,4.0,1.0,415.0,90.0,415.0,90.0,637.926208496094,46.7799413397139,-2493.92649591382,,,,,,,,,1012.0,6.0,189644.64645,189669.64,24.9935500000138,0.870930837051826,67.6401401221138,7948.82285633501,-2493.92649591382,58.0918930643469
28618,189665.4591,,,,,,Frage 3,,,,,,,,,,,,,,,,,,,,,,,,,,,,,,,,,,,,,,,,,,,,,,,,,,,,,,,,,,,,,,,,,,,,,1.0,435.0,128.0,349.0,74.0,-1.0,-1.0,189709.63,637.5736083984375,641.894775390625,0.6234471797943115,0.4327240288257598,0.4760128855705261,0.4185563921928405,0.0,0.0,1.0,392.0,101.0,392.0,101.0,639.734191894531,40.6545076011386,-737.755183621391,,,,,,,,,1012.0,6.0,189644.64645,189669.64,24.9935500000138,0.870930837051826,67.6401401221138,7948.82285633501,-2493.92649591382,58.0918930643469
28619,189673.8209,,,,,,Frage 3,,,,,,,,,,,,,,,,,,,,,,,,,,,,,,,,,,,,,,,,,,,,,,,,,,,,,,,,,,,,,,,,,,,,,1.0,427.0,123.0,354.0,75.0,3.4887237548828125,3.71820068359375,189717.991,637.10791015625,641.4155883789064,0.6234919428825378,0.4326279461383819,0.4759362339973449,0.4185853600502014,0.0,0.0,1.0,390.5,99.0,390.5,99.0,639.261749267578,20.3318900395716,-2430.41182061342,,,,,,,,,,,,,,,,,,
28620,189682.1504,,,,,,Frage 3,,,,,,,,,,,,,,,,,,,,,,,,,,,,,,,,,,,,,,,,,,,,,,,,,,,,,,,,,,,,,,,,,,,,,1.0,427.0,123.0,347.0,54.0,-1.0,-1.0,189726.321,636.6009521484375,640.8370971679688,0.6233415603637695,0.4327970743179321,0.4758408367633819,0.4186785817146301,0.0,0.0,1.0,387.0,88.5,387.0,88.5,638.719024658203,18.4990902777663,-220.037188522788,,,,,,,,,,,,,,,,,,
28621,189684.9237,,,,,,Frage 3,1.0,18.0,0.2448167204856872,0.1921333074569702,0.0602598786354064,0.2254277467727661,0.0240765884518623,0.1277393251657486,0.0594870783388614,0.5269652605056762,0.0,0.0032984907738864,0.1160271018743515,99.5103759765625,97.37075042724608,0.1160271018743515,0.2422118633985519,0.0268201176077127,0.0002457070513628,0.0,2.229556412203237e-05,0.8150641322135925,0.0945486649870872,0.6104611158370971,0.0008179909200407,0.0001678632834227,0.0013274715747684,0.000424611440394,0.0001800954632926,0.0328044295310974,26.39069175720215,0.0380477458238601,0.0032984907738864,0.0055445563048124,0.7952396869659423,0.0,12.0,-8.10108470916748,-3.940872192382813,4.201385498046875,99.6680145263672,1.0,18.0,640.0,480.0,0.0,270.45623779296875,176.2543182373047,1.0,425.2456665039063,340.2452392578125,2.0,300.4117126464844,207.18887329101565,3.0,399.98583984375,211.5139923095703,4.0,351.9309387207032,255.6479949951172,5.0,343.1552429199219,340.2452392578125,,,,,,,,,,,,,,,,,,,,,,,,,,,,,,,,,,,,,,,,,,,,,,,
28622,189690.4562,,,,,,Frage 3,,,,,,,,,,,,,,,,,,,,,,,,,,,,,,,,,,,,,,,,,,,,,,,,,,,,,,,,,,,,,,,,,,,,,1.0,429.0,115.0,344.0,60.0,-1.0,-1.0,189734.626,636.1098022460938,640.2830810546875,0.6235561370849609,0.4325835108757019,0.4760445952415466,0.4185269773006439,0.0,0.0,1.0,386.5,87.5,386.5,87.5,638.196441650391,13.76327652445,-570.181530175525,,,,,,,,,,,,,,,,,,
28623,189698.8152,,,,,,Frage 3,,,,,,,,,,,,,,,,,,,,,,,,,,,,,,,,,,,,,,,,,,,,,,,,,,,,,,,,,,,,,,,,,,,,,1.0,412.0,110.0,344.0,64.0,3.47723388671875,3.7101898193359375,189742.986,635.6956176757812,639.6985473632812,0.6237097978591918,0.4324907660484314,0.4759952425956726,0.418593019247055,0.0,0.0,1.0,378.0,87.0,378.0,87.0,637.697082519531,20.1139375049382,759.73932054894,,,,,,,,,,,,,,,,,,
28624,189707.1196,,,,,,Frage 3,,,,,,,,,,,,,,,,,,,,,,,,,,,,,,,,,,,,,,,,,,,,,,,,,,,,,,,,,,,,,,,,,,,,,1.0,406.0,122.0,348.0,70.0,-1.0,-1.0,189751.291,635.217041015625,639.0462646484375,0.623418390750885,0.4326485395431518,0.4759328663349151,0.4186532795429229,0.0,0.0,1.0,377.0,96.0,377.0,96.0,637.131652832031,57.3637053995178,4485.54596293631,,,,,,,,,1013.0,7.0,189702.9674,189711.28685,8.31944999998086,,57.3637053995178,4485.54596293631,,
28625,189715.4541,,,,,,Frage 3,,,,,,,,,,,,,,,,,,,,,,,,,,,,,,,,,,,,,,,,,,,,,,,,,,,,,,,,,,,,,,,,,,,,,1.0,458.0,140.0,356.0,84.0,-1.0,-1.0,189759.625,634.6508178710938,638.501220703125,0.6237032413482666,0.4324678182601928,0.4760966598987579,0.4184924066066741,0.0,0.0,1.0,407.0,112.0,407.0,112.0,636.576019287109,17.2577584747026,-4812.03994538708,,,,,,,,,,,,,,,,,,
