Row,Timestamp,EventSource,SlideEvent,StimType,Duration,CollectionPhase,SourceStimuliName,EventSource.1,SampleNumber,Anger,Contempt,Disgust,Fear,Joy,Sadness,Surprise,Engagement,Valence,Sentimentality,Confusion,Neutral,Attention,Brow Furrow,Brow Raise,Cheek Raise,Chin Raise,Dimpler,Eye Closure,Eye Widen,Inner Brow Raise,Jaw Drop,Lip Corner Depressor,Lip Press,Lip Pucker,Lip Stretch,Lip Suck,Lid Tighten,Mouth Open,Nose Wrinkle,Smile,Smirk,Upper Lip Raise,Blink,BlinkRate,Pitch,Yaw,Roll,Interocular Distance,EventSource.2,SampleNumber.1,width,height,feature id_1,feature-x_1,feature-y_1,feature id_2,feature-x_2,feature-y_2,feature id_3,feature-x_3,feature-y_3,feature id_4,feature-x_4,feature-y_4,feature id_5,feature-x_5,feature-y_5,feature id_6,feature-x_6,feature-y_6,EventSource.3,CPU Sys,Memory Sys,CPU Proc,Memory Proc,EventSource.4,ET_GazeLeftx,ET_GazeLefty,ET_GazeRightx,ET_GazeRighty,ET_PupilLeft,ET_PupilRight,ET_TimeSignal,ET_DistanceLeft,ET_DistanceRight,ET_CameraLeftX,ET_CameraLeftY,ET_CameraRightX,ET_CameraRightY,ET_ValidityLeft,ET_ValidityRight,EventSource.5,Gaze X,Gaze Y,Interpolated Gaze X,Interpolated Gaze Y,Interpolated Distance,Gaze Velocity,Gaze Acceleration,Fixation Index,Fixation Index by Stimulus,Fixation X,Fixation Y,Fixation Start,Fixation End,Fixation Duration,Fixation Dispersion,Saccade Index,Saccade Index by Stimulus,Saccade Start,Saccade End,Saccade Duration,Saccade Amplitude,Saccade Peak Velocity,Saccade Peak Acceleration,Saccade Peak Deceleration,Saccade Direction
11902,78670.8789,1.0,StartSlide,TestImage,120000.0,StimuliDisplay,Frage 2,,,,,,,,,,,,,,,,,,,,,,,,,,,,,,,,,,,,,,,,,,,,,,,,,,,,,,,,,,,,,,,,,,,,,,,,,,,,,,,,,,,,,,,,,,,,,,,,,,,,,,,,,,,,,,
11903,78673.8713,,,,,,Frage 2,1.0,-1.0,0.1286917775869369,0.1554004400968551,0.016362452879548,0.3048104047775268,0.0630337372422218,0.509276270866394,0.1431495249271392,0.4216570854187011,0.0,7.304574966430664,13.618188858032228,98.9814453125,89.76385498046875,13.618188858032228,0.3190606534481048,2.629957914352417,0.540135383605957,0.0,0.1938565820455551,0.0243741981685161,22.420978546142575,0.093111552298069,0.3245377242565155,0.1043999940156936,0.2866490185260772,0.821695327758789,0.1297836005687713,3.1549060344696045,1.0759152173995972,2.077943086624145,7.304574966430664,0.0,1.4992748498916626,0.0,,14.199564933776855,-11.143715858459473,-8.148886680603027,52.819732666015625,1.0,-1.0,640.0,480.0,0.0,102.08209228515624,281.8527526855469,1.0,192.23672485351565,376.5648498535156,2.0,116.83465576171876,304.0539855957032,3.0,169.606689453125,306.2982482910156,4.0,151.95135498046875,320.80322265625,5.0,155.03689575195312,376.5648498535156,,,,,,,,,,,,,,,,,,,,,,,,,,,,,,,,,,,,,,,,,,,,,,,
11904,78675.5903,,,,,,Frage 2,,,,,,,,,,,,,,,,,,,,,,,,,,,,,,,,,,,,,,,,,,,,,,,,,,,,,,,,,,,,,,,,,,,,,1.0,-1.0,-1.0,-1.0,-1.0,-1.0,-1.0,78836.91599999998,-1.0,-1.0,-1.0,-1.0,-1.0,-1.0,4.0,4.0,1.0,,,,,,,,,,,,,,,,,,,,,,,,,
11905,78683.9045,,,,,,Frage 2,,,,,,,,,,,,,,,,,,,,,,,,,,,,,,,,,,,,,,,,,,,,,,,,,,,,,,,,,,,,,,,,,,,,,1.0,-1.0,-1.0,-1.0,-1.0,-1.0,-1.0,78845.231,-1.0,-1.0,-1.0,-1.0,-1.0,-1.0,4.0,4.0,1.0,,,,,,,,,,,,,,,,,,,,,,,,,
11906,78692.2015,,,,,,Frage 2,,,,,,,,,,,,,,,,,,,,,,,,,,,,,,,,,,,,,,,,,,,,,,,,,,,,,,,,,,,,,,,,,,,,,1.0,-1.0,-1.0,-1.0,-1.0,-1.0,-1.0,78853.527,-1.0,-1.0,-1.0,-1.0,-1.0,-1.0,4.0,4.0,1.0,,,,,,,,,,,,,,,,,,,,,,,,,
11907,78700.5574,,,,,,Frage 2,,,,,,,,,,,,,,,,,,,,,,,,,,,,,,,,,,,,,,,,,,,,,,,,,,,,,,,,,,,,,,,,,,,,,1.0,-1.0,-1.0,-1.0,-1.0,-1.0,-1.0,78861.88200000001,-1.0,-1.0,-1.0,-1.0,-1.0,-1.0,4.0,4.0,1.0,,,,,,,,,,,,,,,,,,,,,,,,,
11908,78705.7854,,,,,,Frage 2,1.0,-1.0,,,,,,,,,,,,,,,,,,,,,,,,,,,,,,,,,,,,,,,,1.0,-1.0,640.0,480.0,,,,,,,,,,,,,,,,,,,,,,,,,,,,,,,,,,,,,,,,,,,,,,,,,,,,,,,,,,,,,,,,,
11909,78708.8541,,,,,,Frage 2,,,,,,,,,,,,,,,,,,,,,,,,,,,,,,,,,,,,,,,,,,,,,,,,,,,,,,,,,,,,,,,,,,,,,1.0,-1.0,-1.0,-1.0,-1.0,-1.0,-1.0,78870.17999999998,-1.0,-1.0,-1.0,-1.0,-1.0,-1.0,4.0,4.0,1.0,,,,,,,,,,,,,,,,,,,,,,,,,
11910,78710.7728,1.0,StartMedia,TestImage,120000.0,StimuliDisplay,Frage 2,,,,,,,,,,,,,,,,,,,,,,,,,,,,,,,,,,,,,,,,,,,,,,,,,,,,,,,,,,,,,,,,,,,,,,,,,,,,,,,,,,,,,,,,,,,,,,,,,,,,,,,,,,,,,,
11911,78717.2165,,,,,,Frage 2,,,,,,,,,,,,,,,,,,,,,,,,,,,,,,,,,,,,,,,,,,,,,,,,,,,,,,,,,,,,,,,,,,,,,1.0,-1.0,-1.0,-1.0,-1.0,-1.0,-1.0,78878.54199999999,-1.0,-1.0,-1.0,-1.0,-1.0,-1.0,4.0,4.0,1.0,,,,,,,,,,,,,,,,,,,,,,,,,
11912,78725.592,,,,,,Frage 2,,,,,,,,,,,,,,,,,,,,,,,,,,,,,,,,,,,,,,,,,,,,,,,,,,,,,,,,,,,,,,,,,,,,,1.0,-1.0,-1.0,-1.0,-1.0,-1.0,-1.0,78886.918,-1.0,-1.0,-1.0,-1.0,-1.0,-1.0,4.0,4.0,1.0,,,,,,,,,,,,,,,,,,,,,,,,,
11913,78733.904,,,,,,Frage 2,,,,,,,,,,,,,,,,,,,,,,,,,,,,,,,,,,,,,,,,,,,,,,,,,,,,,,,,,,,,,,,,,,,,,1.0,-1.0,-1.0,-1.0,-1.0,-1.0,-1.0,78895.23000000001,-1.0,-1.0,-1.0,-1.0,-1.0,-1.0,4.0,4.0,1.0,,,,,,,,,,,,,,,,,,,,,,,,,
11914,78742.1973,,,,,,Frage 2,,,,,,,,,,,,,,,,,,,,,,,,,,,,,,,,,,,,,,,,,,,,,,,,,,,,,,,,,,,,,,,,,,,,,1.0,-1.0,-1.0,-1.0,-1.0,-1.0,-1.0,78903.52299999999,-1.0,-1.0,-1.0,-1.0,-1.0,-1.0,4.0,4.0,1.0,,,,,,,,,,,,,,,,,,,,,,,,,
11915,78743.3817,,,,,,Frage 2,1.0,0.0,,,,,,,,,,,,,,,,,,,,,,,,,,,,,,,,,,,,,,,,1.0,0.0,640.0,480.0,,,,,,,,,,,,,,,,,,,,,,,,,,,,,,,,,,,,,,,,,,,,,,,,,,,,,,,,,,,,,,,,,
11916,78750.5464,,,,,,Frage 2,,,,,,,,,,,,,,,,,,,,,,,,,,,,,,,,,,,,,,,,,,,,,,,,,,,,,,,,,,,,,,,,,,,,,1.0,-1.0,-1.0,-1.0,-1.0,-1.0,-1.0,78911.872,-1.0,-1.0,-1.0,-1.0,-1.0,-1.0,4.0,4.0,1.0,,,,,,,,,,,,,,,,,,,,,,,,,
11917,78758.8777,,,,,,Frage 2,,,,,,,,,,,,,,,,,,,,,,,,,,,,,,,,,,,,,,,,,,,,,,,,,,,,,,,,,,,,,,,,,,,,,1.0,-1.0,-1.0,-1.0,-1.0,-1.0,-1.0,78920.20300000002,-1.0,-1.0,-1.0,-1.0,-1.0,-1.0,4.0,4.0,1.0,,,,,,,,,,,,,,,,,,,,,,,,,
11918,78767.1971,,,,,,Frage 2,,,,,,,,,,,,,,,,,,,,,,,,,,,,,,,,,,,,,,,,,,,,,,,,,,,,,,,,,,,,,,,,,,,,,1.0,-1.0,-1.0,-1.0,-1.0,-1.0,-1.0,78928.52299999999,-1.0,-1.0,-1.0,-1.0,-1.0,-1.0,4.0,4.0,1.0,,,,,,,,,,,,,,,,,,,,,,,,,
11919,78771.4792,,,,,,Frage 2,1.0,1.0,,,,,,,,,,,,,,,,,,,,,,,,,,,,,,,,,,,,,,,,1.0,1.0,640.0,480.0,,,,,,,,,,,,,,,,,,,,,,,,,,,,,,,,,,,,,,,,,,,,,,,,,,,,,,,,,,,,,,,,,
11920,78775.6035,,,,,,Frage 2,,,,,,,,,,,,,,,,,,,,,,,,,,,,,,,,,,,,,,,,,,,,,,,,,,,,,,,,,,,,,,,,,,,,,1.0,-1.0,-1.0,-1.0,-1.0,-1.0,-1.0,78936.929,-1.0,-1.0,-1.0,-1.0,-1.0,-1.0,4.0,4.0,1.0,,,,,,,,,,,,,,,,,,,,,,,,,
11921,78783.8594,,,,,,Frage 2,,,,,,,,,,,,,,,,,,,,,,,,,,,,,,,,,,,,,,,,,,,,,,,,,,,,,,,,,,,,,,,,,,,,,1.0,-1.0,-1.0,-1.0,-1.0,-1.0,-1.0,78945.185,-1.0,-1.0,-1.0,-1.0,-1.0,-1.0,4.0,4.0,1.0,,,,,,,,,,,,,,,,,,,,,,,,,
11922,78792.1871,,,,,,Frage 2,,,,,,,,,,,,,,,,,,,,,,,,,,,,,,,,,,,,,,,,,,,,,,,,,,,,,,,,,,,,,,,,,,,,,1.0,-1.0,-1.0,-1.0,-1.0,-1.0,-1.0,78953.513,-1.0,-1.0,-1.0,-1.0,-1.0,-1.0,4.0,4.0,1.0,,,,,,,,,,,,,,,,,,,,,,,,,
11923,78800.5243,,,,,,Frage 2,,,,,,,,,,,,,,,,,,,,,,,,,,,,,,,,,,,,,,,,,,,,,,,,,,,,,,,,,,,,,,,,,,,,,1.0,-1.0,-1.0,-1.0,-1.0,-1.0,-1.0,78961.85,-1.0,-1.0,-1.0,-1.0,-1.0,-1.0,4.0,4.0,1.0,,,,,,,,,,,,,,,,,,,,,,,,,
11924,78801.4691,,,,,,Frage 2,1.0,2.0,,,,,,,,,,,,,,,,,,,,,,,,,,,,,,,,,,,,,,,,1.0,2.0,640.0,480.0,,,,,,,,,,,,,,,,,,,,,,,,,,,,,,,,,,,,,,,,,,,,,,,,,,,,,,,,,,,,,,,,,
11925,78808.8808,,,,,,Frage 2,,,,,,,,,,,,,,,,,,,,,,,,,,,,,,,,,,,,,,,,,,,,,,,,,,,,,,,,,,,,,,,,,,,,,1.0,-1.0,-1.0,-1.0,-1.0,-1.0,-1.0,78970.20699999998,-1.0,-1.0,-1.0,-1.0,-1.0,-1.0,4.0,4.0,1.0,,,,,,,,,,,,,,,,,,,,,,,,,
11926,78817.2085,,,,,,Frage 2,,,,,,,,,,,,,,,,,,,,,,,,,,,,,,,,,,,,,,,,,,,,,,,,,,,,,,,,,,,,,,,,,,,,,1.0,-1.0,-1.0,-1.0,-1.0,-1.0,-1.0,78978.53399999999,-1.0,-1.0,-1.0,-1.0,-1.0,-1.0,4.0,4.0,1.0,,,,,,,,,,,,,,,,,,,,,,,,,
11927,78825.5353,,,,,,Frage 2,,,,,,,,,,,,,,,,,,,,,,,,,,,,,,,,,,,,,,,,,,,,,,,,,,,,,,,,,,,,,,,,,,,,,1.0,-1.0,-1.0,-1.0,-1.0,-1.0,-1.0,78986.85999999999,-1.0,-1.0,-1.0,-1.0,-1.0,-1.0,4.0,4.0,1.0,,,,,,,,,,,,,,,,,,,,,,,,,
11928,78833.4028,,,,,,Frage 2,1.0,3.0,,,,,,,,,,,,,,,,,,,,,,,,,,,,,,,,,,,,,,,,1.0,3.0,640.0,480.0,,,,,,,,,,,,,,,,,,,,,,,,,,,,,,,,,,,,,,,,,,,,,,,,,,,,,,,,,,,,,,,,,
11929,78833.8755,,,,,,Frage 2,,,,,,,,,,,,,,,,,,,,,,,,,,,,,,,,,,,,,,,,,,,,,,,,,,,,,,,,,,,,,,,,,,,,,1.0,-1.0,-1.0,-1.0,-1.0,-1.0,-1.0,78995.20199999999,-1.0,-1.0,-1.0,-1.0,-1.0,-1.0,4.0,4.0,1.0,,,,,,,,,,,,,,,,,,,,,,,,,
11930,78842.2181,,,,,,Frage 2,,,,,,,,,,,,,,,,,,,,,,,,,,,,,,,,,,,,,,,,,,,,,,,,,,,,,,,,,,,,,,,,,,,,,1.0,-1.0,-1.0,-1.0,-1.0,-1.0,-1.0,79003.524,-1.0,-1.0,-1.0,-1.0,-1.0,-1.0,4.0,4.0,1.0,,,,,,,,,,,,,,,,,,,,,,,,,
11931,78850.5546,,,,,,Frage 2,,,,,,,,,,,,,,,,,,,,,,,,,,,,,,,,,,,,,,,,,,,,,,,,,,,,,,,,,,,,,,,,,,,,,1.0,-1.0,-1.0,-1.0,-1.0,-1.0,-1.0,79011.88099999998,-1.0,-1.0,-1.0,-1.0,-1.0,-1.0,4.0,4.0,1.0,,,,,,,,,,,,,,,,,,,,,,,,,
11932,78858.9043,,,,,,Frage 2,,,,,,,,,,,,,,,,,,,,,,,,,,,,,,,,,,,,,,,,,,,,,,,,,,,,,,,,,,,,,,,,,,,,,1.0,-1.0,-1.0,-1.0,-1.0,-1.0,-1.0,79020.23000000001,-1.0,-1.0,-1.0,-1.0,-1.0,-1.0,4.0,4.0,1.0,,,,,,,,,,,,,,,,,,,,,,,,,
11933,78865.3542,,,,,,Frage 2,1.0,4.0,,,,,,,,,,,,,,,,,,,,,,,,,,,,,,,,,,,,,,,,1.0,4.0,640.0,480.0,,,,,,,,,,,,,,,,,,,,,,,,,,,,,,,,,,,,,,,,,,,,,,,,,,,,,,,,,,,,,,,,,
11934,78867.2005,,,,,,Frage 2,,,,,,,,,,,,,,,,,,,,,,,,,,,,,,,,,,,,,,,,,,,,,,,,,,,,,,,,,,,,,,,,,,,,,1.0,-1.0,-1.0,-1.0,-1.0,-1.0,-1.0,79028.52600000001,-1.0,-1.0,-1.0,-1.0,-1.0,-1.0,4.0,4.0,1.0,,,,,,,,,,,,,,,,,,,,,,,,,
11935,78875.5036,,,,,,Frage 2,,,,,,,,,,,,,,,,,,,,,,,,,,,,,,,,,,,,,,,,,,,,,,,,,,,,,,,,,,,,,,,,,,,,,1.0,-1.0,-1.0,-1.0,-1.0,-1.0,-1.0,79036.82999999999,-1.0,-1.0,-1.0,-1.0,-1.0,-1.0,4.0,4.0,1.0,,,,,,,,,,,,,,,,,,,,,,,,,
11936,78883.8374,,,,,,Frage 2,,,,,,,,,,,,,,,,,,,,,,,,,,,,,,,,,,,,,,,,,,,,,,,,,,,,,,,,,,,,,,,,,,,,,1.0,-1.0,-1.0,-1.0,-1.0,-1.0,-1.0,79045.163,-1.0,-1.0,-1.0,-1.0,-1.0,-1.0,4.0,4.0,1.0,,,,,,,,,,,,,,,,,,,,,,,,,
11937,78892.1689,,,,,,Frage 2,,,,,,,,,,,,,,,,,,,,,,,,,,,,,,,,,,,,,,,,,,,,,,,,,,,,,,,,,,,,,,,,,,,,,1.0,-1.0,-1.0,-1.0,-1.0,-1.0,-1.0,79053.49499999998,-1.0,-1.0,-1.0,-1.0,-1.0,-1.0,4.0,4.0,1.0,,,,,,,,,,,,,,,,,,,,,,,,,
11938,78900.4997,,,,,,Frage 2,,,,,,,,,,,,,,,,,,,,,,,,,,,,,,,,,,,,,,,,,,,,,,,,,,,,,,,,,,,,,,,,,,,,,1.0,-1.0,-1.0,-1.0,-1.0,-1.0,-1.0,79061.826,-1.0,-1.0,-1.0,-1.0,-1.0,-1.0,4.0,4.0,1.0,,,,,,,,,,,,,,,,,,,,,,,,,
11939,78908.8647,,,,,,Frage 2,,,,,,,,,,,,,,,,,,,,,,,,,,,,,,,,,,,,,,,,,,,,,,,,,,,,,,,,,,,,,,,,,,,,,1.0,-1.0,-1.0,-1.0,-1.0,-1.0,-1.0,79070.19,-1.0,-1.0,-1.0,-1.0,-1.0,-1.0,4.0,4.0,1.0,,,,,,,,,,,,,,,,,,,,,,,,,
11940,78917.1655,,,,,,Frage 2,,,,,,,,,,,,,,,,,,,,,,,,,,,,,,,,,,,,,,,,,,,,,,,,,,,,,,,,,,,,,,,,,,,,,1.0,-1.0,-1.0,-1.0,-1.0,-1.0,-1.0,79078.492,-1.0,-1.0,-1.0,-1.0,-1.0,-1.0,4.0,4.0,1.0,,,,,,,,,,,,,,,,,,,,,,,,,
11941,78917.1813,,,,,,Frage 2,1.0,5.0,,,,,,,,,,,,,,,,,,,,,,,,,,,,,,,,,,,,,,,,1.0,5.0,640.0,480.0,,,,,,,,,,,,,,,,,,,,,,,,,,,,,,,,,,,,,,,,,,,,,,,,,,,,,,,,,,,,,,,,,
11942,78925.5372,,,,,,Frage 2,,,,,,,,,,,,,,,,,,,,,,,,,,,,,,,,,,,,,,,,,,,,,,,,,,,,,,,,,,,,,,,,,,,,,1.0,-1.0,-1.0,-1.0,-1.0,-1.0,-1.0,79086.86199999998,-1.0,-1.0,-1.0,-1.0,-1.0,-1.0,4.0,4.0,1.0,,,,,,,,,,,,,,,,,,,,,,,,,
11943,78933.8301,,,,,,Frage 2,,,,,,,,,,,,,,,,,,,,,,,,,,,,,,,,,,,,,,,,,,,,,,,,,,,,,,,,,,,,,,,,,,,,,1.0,-1.0,-1.0,-1.0,-1.0,-1.0,-1.0,79095.156,-1.0,-1.0,-1.0,-1.0,-1.0,-1.0,4.0,4.0,1.0,,,,,,,,,,,,,,,,,,,,,,,,,
11944,78942.1765,,,,,,Frage 2,,,,,,,,,,,,,,,,,,,,,,,,,,,,,,,,,,,,,,,,,,,,,,,,,,,,,,,,,,,,,,,,,,,,,1.0,-1.0,-1.0,-1.0,-1.0,-1.0,-1.0,79103.502,-1.0,-1.0,-1.0,-1.0,-1.0,-1.0,4.0,4.0,1.0,,,,,,,,,,,,,,,,,,,,,,,,,
11945,78945.7514,,,,,,Frage 2,1.0,6.0,,,,,,,,,,,,,,,,,,,,,,,,,,,,,,,,,,,,,,,,1.0,6.0,640.0,480.0,,,,,,,,,,,,,,,,,,,,,,,,,,,,,,,,,,,,,,,,,,,,,,,,,,,,,,,,,,,,,,,,,
11946,78950.5209,,,,,,Frage 2,,,,,,,,,,,,,,,,,,,,,,,,,,,,,,,,,,,,,,,,,,,,,,,,,,,,,,,,,,,,,,,,,,,,,1.0,-1.0,-1.0,-1.0,-1.0,-1.0,-1.0,79111.84700000001,-1.0,-1.0,-1.0,-1.0,-1.0,-1.0,4.0,4.0,1.0,,,,,,,,,,,,,,,,,,,,,,,,,
11947,78958.8264,,,,,,Frage 2,,,,,,,,,,,,,,,,,,,,,,,,,,,,,,,,,,,,,,,,,,,,,,,,,,,,,,,,,,,,,,,,,,,,,1.0,-1.0,-1.0,-1.0,-1.0,-1.0,-1.0,79120.152,-1.0,-1.0,-1.0,-1.0,-1.0,-1.0,4.0,4.0,1.0,,,,,,,,,,,,,,,,,,,,,,,,,
11948,78967.2007,,,,,,Frage 2,,,,,,,,,,,,,,,,,,,,,,,,,,,,,,,,,,,,,,,,,,,,,,,,,,,,,,,,,,,,,,,,,,,,,1.0,-1.0,-1.0,-1.0,-1.0,-1.0,-1.0,79128.52600000001,-1.0,-1.0,-1.0,-1.0,-1.0,-1.0,4.0,4.0,1.0,,,,,,,,,,,,,,,,,,,,,,,,,
11949,78975.4931,,,,,,Frage 2,,,,,,,,,,,,,,,,,,,,,,,,,,,,,,,,,,,,,,,,,,,,,,,,,,,,,,,,,,,,,,,,,,,,,1.0,-1.0,-1.0,-1.0,-1.0,-1.0,-1.0,79136.819,-1.0,-1.0,-1.0,-1.0,-1.0,-1.0,4.0,4.0,1.0,,,,,,,,,,,,,,,,,,,,,,,,,
11950,78977.6659,,,,,,Frage 2,1.0,7.0,,,,,,,,,,,,,,,,,,,,,,,,,,,,,,,,,,,,,,,,1.0,7.0,640.0,480.0,,,,,,,,,,,,,,,,,,,,,,,,,,,,,,,,,,,,,,,,,,,,,,,,,,,,,,,,,,,,,,,,,
11951,78983.8245,,,,,,Frage 2,,,,,,,,,,,,,,,,,,,,,,,,,,,,,,,,,,,,,,,,,,,,,,,,,,,,,,,,,,,,,,,,,,,,,1.0,-1.0,-1.0,-1.0,-1.0,-1.0,-1.0,79145.14999999998,-1.0,-1.0,-1.0,-1.0,-1.0,-1.0,4.0,4.0,1.0,,,,,,,,,,,,,,,,,,,,,,,,,
11952,78992.19,,,,,,Frage 2,,,,,,,,,,,,,,,,,,,,,,,,,,,,,,,,,,,,,,,,,,,,,,,,,,,,,,,,,,,,,,,,,,,,,1.0,-1.0,-1.0,307.0,33.0,-1.0,-1.0,79153.516,-1.0,394.3970336914063,-1.0,-1.0,0.543755054473877,0.4570373892784118,4.0,0.0,1.0,307.0,33.0,307.0,33.0,394.397033691406,,,,,,,,,,,,,,,,,,,,
11953,79000.523,,,,,,Frage 2,,,,,,,,,,,,,,,,,,,,,,,,,,,,,,,,,,,,,,,,,,,,,,,,,,,,,,,,,,,,,,,,,,,,,1.0,-1.0,-1.0,-1.0,-1.0,-1.0,-1.0,79161.84899999999,-1.0,-1.0,-1.0,-1.0,-1.0,-1.0,4.0,4.0,1.0,,,313.0,41.6666666666667,394.391764322917,41.1995041035844,,,,,,,,,,123.0,1.0,78996.3565,79013.0174,16.6609000000026,0.476733005367476,41.4918136157339,35.1046635141466,,55.304846468766
11954,79008.8498,,,,,,Frage 2,,,,,,,,,,,,,,,,,,,,,,,,,,,,,,,,,,,,,,,,,,,,,,,,,,,,,,,,,,,,,,,,,,,,,1.0,-1.0,-1.0,-1.0,-1.0,-1.0,-1.0,79170.176,-1.0,-1.0,-1.0,-1.0,-1.0,-1.0,4.0,4.0,1.0,,,319.0,50.3333333333333,394.386494954427,41.4918136157339,35.1046635141466,,,,,,,,,123.0,1.0,78996.3565,79013.0174,16.6609000000026,0.476733005367476,41.4918136157339,35.1046635141466,,55.304846468766
11955,79009.5841,,,,,,Frage 2,1.0,8.0,,,,,,,,,,,,,,,,,,,,,,,,,,,,,,,,,,,,,,,,1.0,8.0,640.0,480.0,,,,,,,,,,,,,,,,,,,,,,,,,,,,,,,,,,,,,,,,,,,,,,,,,,,,,,,,,,,,,,,,,
11956,79017.185,,,,,,Frage 2,,,,,,,,,,,,,,,,,,,,,,,,,,,,,,,,,,,,,,,,,,,,,,,,,,,,,,,,,,,,,,,,,,,,,1.0,-1.0,-1.0,325.0,59.0,-1.0,-1.0,79178.511,-1.0,394.3812255859375,-1.0,-1.0,0.5447088479995728,0.455269306898117,4.0,0.0,1.0,325.0,59.0,325.0,59.0,394.381225585938,22.105611412485,-2325.82327997477,,,,,,,,,,,,,,,,,,
11957,79025.5162,,,,,,Frage 2,,,,,,,,,,,,,,,,,,,,,,,,,,,,,,,,,,,,,,,,,,,,,,,,,,,,,,,,,,,,,,,,,,,,,1.0,-1.0,-1.0,-1.0,-1.0,-1.0,-1.0,79186.842,-1.0,-1.0,-1.0,-1.0,-1.0,-1.0,4.0,4.0,1.0,,,328.0,57.3333333333333,394.374623616536,15.4441151186378,-799.584248829321,,,,,,,,,,,,,,,,,,
11958,79033.82,,,,,,Frage 2,,,,,,,,,,,,,,,,,,,,,,,,,,,,,,,,,,,,,,,,,,,,,,,,,,,,,,,,,,,,,,,,,,,,,1.0,-1.0,-1.0,-1.0,-1.0,-1.0,-1.0,79195.146,-1.0,-1.0,-1.0,-1.0,-1.0,-1.0,4.0,4.0,1.0,,,331.0,55.6666666666667,394.368021647135,15.4571795772492,1.57331084700979,,,,,,,,,,,,,,,,,,
11959,79042.1244,,,,,,Frage 2,1.0,9.0,,,,,,,,,,,,,,,,,,,,,,,,,,,,,,,,,,,,,,,,1.0,9.0,640.0,480.0,,,,,,,,,,,,,,,,,,,,,,,,,,,,,,,,,,,,,,,,,,,,,,,,,,,,,,,,,,,,,,,,,
11960,79042.1535,,,,,,Frage 2,,,,,,,,,,,,,,,,,,,,,,,,,,,,,,,,,,,,,,,,,,,,,,,,,,,,,,,,,,,,,,,,,,,,,1.0,-1.0,-1.0,334.0,54.0,-1.0,-1.0,79203.47899999998,-1.0,394.3614196777344,-1.0,-1.0,0.5456947684288024,0.4531627893447876,4.0,0.0,1.0,334.0,54.0,334.0,54.0,394.361419677734,,,,,,,,,,,,,,,,,,,,
11961,79050.4843,,,,,,Frage 2,,,,,,,,,,,,,,,,,,,,,,,,,,,,,,,,,,,,,,,,,,,,,,,,,,,,,,,,,,,,,,,,,,,,,1.0,-1.0,-1.0,-1.0,-1.0,-1.0,-1.0,79211.81,-1.0,-1.0,-1.0,-1.0,-1.0,-1.0,4.0,4.0,1.0,,,,,,,,,,,,,,,,,,,,,,,,,
11962,79058.8157,,,,,,Frage 2,,,,,,,,,,,,,,,,,,,,,,,,,,,,,,,,,,,,,,,,,,,,,,,,,,,,,,,,,,,,,,,,,,,,,1.0,-1.0,-1.0,-1.0,-1.0,-1.0,-1.0,79220.14199999998,-1.0,-1.0,-1.0,-1.0,-1.0,-1.0,4.0,4.0,1.0,,,,,,,,,,,,,,,,,,,,,,,,,
11963,79067.1529,,,,,,Frage 2,,,,,,,,,,,,,,,,,,,,,,,,,,,,,,,,,,,,,,,,,,,,,,,,,,,,,,,,,,,,,,,,,,,,,1.0,-1.0,-1.0,-1.0,-1.0,-1.0,-1.0,79228.47899999998,-1.0,-1.0,-1.0,-1.0,-1.0,-1.0,4.0,4.0,1.0,,,,,,,,,,,,,,,,,,,,,,,,,
11964,79074.0391,,,,,,Frage 2,1.0,10.0,,,,,,,,,,,,,,,,,,,,,,,,,,,,,,,,,,,,,,,,1.0,10.0,640.0,480.0,,,,,,,,,,,,,,,,,,,,,,,,,,,,,,,,,,,,,,,,,,,,,,,,,,,,,,,,,,,,,,,,,
11965,79075.4827,,,,,,Frage 2,,,,,,,,,,,,,,,,,,,,,,,,,,,,,,,,,,,,,,,,,,,,,,,,,,,,,,,,,,,,,,,,,,,,,1.0,-1.0,-1.0,-1.0,-1.0,-1.0,-1.0,79236.809,-1.0,-1.0,-1.0,-1.0,-1.0,-1.0,4.0,4.0,1.0,,,,,,,,,,,,,,,,,,,,,,,,,
11966,79083.8146,,,,,,Frage 2,,,,,,,,,,,,,,,,,,,,,,,,,,,,,,,,,,,,,,,,,,,,,,,,,,,,,,,,,,,,,,,,,,,,,1.0,-1.0,-1.0,-1.0,-1.0,-1.0,-1.0,79245.13999999998,-1.0,-1.0,-1.0,-1.0,-1.0,-1.0,4.0,4.0,1.0,,,,,,,,,,,,,,,,,,,,,,,,,
11967,79092.1497,,,,,,Frage 2,,,,,,,,,,,,,,,,,,,,,,,,,,,,,,,,,,,,,,,,,,,,,,,,,,,,,,,,,,,,,,,,,,,,,1.0,-1.0,-1.0,-1.0,-1.0,-1.0,-1.0,79253.475,-1.0,-1.0,-1.0,-1.0,-1.0,-1.0,4.0,4.0,1.0,,,,,,,,,,,,,,,,,,,,,,,,,
11968,79100.5051,,,,,,Frage 2,,,,,,,,,,,,,,,,,,,,,,,,,,,,,,,,,,,,,,,,,,,,,,,,,,,,,,,,,,,,,,,,,,,,,1.0,-1.0,-1.0,-1.0,-1.0,-1.0,-1.0,79261.83199999998,-1.0,-1.0,-1.0,-1.0,-1.0,-1.0,4.0,4.0,1.0,,,,,,,,,,,,,,,,,,,,,,,,,
11969,79105.9537,,,,,,Frage 2,1.0,11.0,,,,,,,,,,,,,,,,,,,,,,,,,,,,,,,,,,,,,,,,1.0,11.0,640.0,480.0,,,,,,,,,,,,,,,,,,,,,,,,,,,,,,,,,,,,,,,,,,,,,,,,,,,,,,,,,,,,,,,,,
11970,79108.8117,,,,,,Frage 2,,,,,,,,,,,,,,,,,,,,,,,,,,,,,,,,,,,,,,,,,,,,,,,,,,,,,,,,,,,,,,,,,,,,,1.0,-1.0,-1.0,-1.0,-1.0,-1.0,-1.0,79270.137,-1.0,-1.0,-1.0,-1.0,-1.0,-1.0,4.0,4.0,1.0,,,,,,,,,,,,,,,,,,,,,,,,,
11971,79117.1448,,,,,,Frage 2,,,,,,,,,,,,,,,,,,,,,,,,,,,,,,,,,,,,,,,,,,,,,,,,,,,,,,,,,,,,,,,,,,,,,1.0,-1.0,-1.0,-1.0,-1.0,-1.0,-1.0,79278.47099999999,-1.0,-1.0,-1.0,-1.0,-1.0,-1.0,4.0,4.0,1.0,,,,,,,,,,,,,,,,,,,,,,,,,
11972,79125.4753,,,,,,Frage 2,,,,,,,,,,,,,,,,,,,,,,,,,,,,,,,,,,,,,,,,,,,,,,,,,,,,,,,,,,,,,,,,,,,,,1.0,-1.0,-1.0,-1.0,-1.0,-1.0,-1.0,79286.801,-1.0,-1.0,-1.0,-1.0,-1.0,-1.0,4.0,4.0,1.0,,,,,,,,,,,,,,,,,,,,,,,,,
11973,79133.8353,,,,,,Frage 2,,,,,,,,,,,,,,,,,,,,,,,,,,,,,,,,,,,,,,,,,,,,,,,,,,,,,,,,,,,,,,,,,,,,,1.0,-1.0,-1.0,-1.0,-1.0,-1.0,-1.0,79295.16099999998,-1.0,-1.0,-1.0,-1.0,-1.0,-1.0,4.0,4.0,1.0,,,,,,,,,,,,,,,,,,,,,,,,,
11974,79137.9003,,,,,,Frage 2,1.0,12.0,,,,,,,,,,,,,,,,,,,,,,,,,,,,,,,,,,,,,,,,1.0,12.0,640.0,480.0,,,,,,,,,,,,,,,,,,,,,,,,,,,,,,,,,,,,,,,,,,,,,,,,,,,,,,,,,,,,,,,,,
11975,79142.171,,,,,,Frage 2,,,,,,,,,,,,,,,,,,,,,,,,,,,,,,,,,,,,,,,,,,,,,,,,,,,,,,,,,,,,,,,,,,,,,1.0,-1.0,-1.0,-1.0,-1.0,-1.0,-1.0,79303.497,-1.0,-1.0,-1.0,-1.0,-1.0,-1.0,4.0,4.0,1.0,,,,,,,,,,,,,,,,,,,,,,,,,
11976,79148.8714,,,,,,Frage 2,,,,,,,,,,,,,,,,,,,,,,,,,,,,,,,,,,,,,,,,,,,,,,,,,,,,,,,,,,,,,,,,1.0,14.7576389312744,35.8568701170857,8.575439453125,907.17578125,,,,,,,,,,,,,,,,,,,,,,,,,,,,,,,,,,,,,,,,,,
11977,79150.4925,,,,,,Frage 2,,,,,,,,,,,,,,,,,,,,,,,,,,,,,,,,,,,,,,,,,,,,,,,,,,,,,,,,,,,,,,,,,,,,,1.0,-1.0,-1.0,-1.0,-1.0,-1.0,-1.0,79311.818,-1.0,-1.0,-1.0,-1.0,-1.0,-1.0,4.0,4.0,1.0,,,,,,,,,,,,,,,,,,,,,,,,,
11978,79158.8034,,,,,,Frage 2,,,,,,,,,,,,,,,,,,,,,,,,,,,,,,,,,,,,,,,,,,,,,,,,,,,,,,,,,,,,,,,,,,,,,1.0,-1.0,-1.0,-1.0,-1.0,-1.0,-1.0,79320.13,-1.0,-1.0,-1.0,-1.0,-1.0,-1.0,4.0,4.0,1.0,,,,,,,,,,,,,,,,,,,,,,,,,
11979,79167.1459,,,,,,Frage 2,,,,,,,,,,,,,,,,,,,,,,,,,,,,,,,,,,,,,,,,,,,,,,,,,,,,,,,,,,,,,,,,,,,,,1.0,-1.0,-1.0,291.0,116.0,-1.0,-1.0,79328.47200000001,-1.0,394.2759399414063,-1.0,-1.0,0.5485517382621765,0.445009708404541,4.0,0.0,1.0,291.0,116.0,291.0,116.0,394.275939941406,,,,,,,,,,,,,,,,,,,,
11980,79169.782,,,,,,Frage 2,1.0,13.0,,,,,,,,,,,,,,,,,,,,,,,,,,,,,,,,,,,,,,,,1.0,13.0,640.0,480.0,,,,,,,,,,,,,,,,,,,,,,,,,,,,,,,,,,,,,,,,,,,,,,,,,,,,,,,,,,,,,,,,,
11981,79175.4984,,,,,,Frage 2,,,,,,,,,,,,,,,,,,,,,,,,,,,,,,,,,,,,,,,,,,,,,,,,,,,,,,,,,,,,,,,,,,,,,1.0,-1.0,-1.0,-1.0,-1.0,-1.0,-1.0,79336.82399999998,-1.0,-1.0,-1.0,-1.0,-1.0,-1.0,4.0,4.0,1.0,,,,,,,,,,,,,,,,,,,,,,,,,
11982,79183.8317,,,,,,Frage 2,,,,,,,,,,,,,,,,,,,,,,,,,,,,,,,,,,,,,,,,,,,,,,,,,,,,,,,,,,,,,,,,,,,,,1.0,-1.0,-1.0,-1.0,-1.0,-1.0,-1.0,79345.157,-1.0,-1.0,-1.0,-1.0,-1.0,-1.0,4.0,4.0,1.0,,,,,,,,,,,,,,,,,,,,,,,,,
11983,79192.1599,,,,,,Frage 2,,,,,,,,,,,,,,,,,,,,,,,,,,,,,,,,,,,,,,,,,,,,,,,,,,,,,,,,,,,,,,,,,,,,,1.0,-1.0,-1.0,-1.0,-1.0,-1.0,-1.0,79353.486,-1.0,-1.0,-1.0,-1.0,-1.0,-1.0,4.0,4.0,1.0,,,,,,,,,,,,,,,,,,,,,,,,,
11984,79200.487,,,,,,Frage 2,,,,,,,,,,,,,,,,,,,,,,,,,,,,,,,,,,,,,,,,,,,,,,,,,,,,,,,,,,,,,,,,,,,,,1.0,-1.0,-1.0,-1.0,-1.0,-1.0,-1.0,79361.81400000001,-1.0,-1.0,-1.0,-1.0,-1.0,-1.0,4.0,4.0,1.0,,,,,,,,,,,,,,,,,,,,,,,,,
11985,79201.6958,,,,,,Frage 2,1.0,14.0,,,,,,,,,,,,,,,,,,,,,,,,,,,,,,,,,,,,,,,,1.0,14.0,640.0,480.0,,,,,,,,,,,,,,,,,,,,,,,,,,,,,,,,,,,,,,,,,,,,,,,,,,,,,,,,,,,,,,,,,
11986,79208.821,,,,,,Frage 2,,,,,,,,,,,,,,,,,,,,,,,,,,,,,,,,,,,,,,,,,,,,,,,,,,,,,,,,,,,,,,,,,,,,,1.0,-1.0,-1.0,-1.0,-1.0,-1.0,-1.0,79370.14699999998,-1.0,-1.0,-1.0,-1.0,-1.0,-1.0,4.0,4.0,1.0,,,,,,,,,,,,,,,,,,,,,,,,,
11987,79217.1345,,,,,,Frage 2,,,,,,,,,,,,,,,,,,,,,,,,,,,,,,,,,,,,,,,,,,,,,,,,,,,,,,,,,,,,,,,,,,,,,1.0,-1.0,-1.0,-1.0,-1.0,-1.0,-1.0,79378.46100000001,-1.0,-1.0,-1.0,-1.0,-1.0,-1.0,4.0,4.0,1.0,,,,,,,,,,,,,,,,,,,,,,,,,
11988,79225.4649,,,,,,Frage 2,,,,,,,,,,,,,,,,,,,,,,,,,,,,,,,,,,,,,,,,,,,,,,,,,,,,,,,,,,,,,,,,,,,,,1.0,-1.0,-1.0,-1.0,-1.0,-1.0,-1.0,79386.79099999998,-1.0,-1.0,-1.0,-1.0,-1.0,-1.0,4.0,4.0,1.0,,,,,,,,,,,,,,,,,,,,,,,,,
11989,79233.6194,,,,,,Frage 2,1.0,15.0,,,,,,,,,,,,,,,,,,,,,,,,,,,,,,,,,,,,,,,,1.0,15.0,640.0,480.0,,,,,,,,,,,,,,,,,,,,,,,,,,,,,,,,,,,,,,,,,,,,,,,,,,,,,,,,,,,,,,,,,
11990,79233.824,,,,,,Frage 2,,,,,,,,,,,,,,,,,,,,,,,,,,,,,,,,,,,,,,,,,,,,,,,,,,,,,,,,,,,,,,,,,,,,,1.0,-1.0,-1.0,-1.0,-1.0,-1.0,-1.0,79395.14999999998,-1.0,-1.0,-1.0,-1.0,-1.0,-1.0,4.0,4.0,1.0,,,,,,,,,,,,,,,,,,,,,,,,,
11991,79242.1344,,,,,,Frage 2,,,,,,,,,,,,,,,,,,,,,,,,,,,,,,,,,,,,,,,,,,,,,,,,,,,,,,,,,,,,,,,,,,,,,1.0,-1.0,-1.0,-1.0,-1.0,-1.0,-1.0,79403.46100000001,-1.0,-1.0,-1.0,-1.0,-1.0,-1.0,4.0,4.0,1.0,,,,,,,,,,,,,,,,,,,,,,,,,
11992,79250.4642,,,,,,Frage 2,,,,,,,,,,,,,,,,,,,,,,,,,,,,,,,,,,,,,,,,,,,,,,,,,,,,,,,,,,,,,,,,,,,,,1.0,-1.0,-1.0,-1.0,-1.0,-1.0,-1.0,79411.79,-1.0,-1.0,-1.0,-1.0,-1.0,-1.0,4.0,4.0,1.0,,,,,,,,,,,,,,,,,,,,,,,,,
11993,79258.7939,,,,,,Frage 2,,,,,,,,,,,,,,,,,,,,,,,,,,,,,,,,,,,,,,,,,,,,,,,,,,,,,,,,,,,,,,,,,,,,,1.0,-1.0,-1.0,-1.0,-1.0,-1.0,-1.0,79420.11999999998,-1.0,-1.0,-1.0,-1.0,-1.0,-1.0,4.0,4.0,1.0,,,,,,,,,,,,,,,,,,,,,,,,,
11994,79267.1269,,,,,,Frage 2,,,,,,,,,,,,,,,,,,,,,,,,,,,,,,,,,,,,,,,,,,,,,,,,,,,,,,,,,,,,,,,,,,,,,1.0,-1.0,-1.0,-1.0,-1.0,-1.0,-1.0,79428.45300000002,-1.0,-1.0,-1.0,-1.0,-1.0,-1.0,4.0,4.0,1.0,,,,,,,,,,,,,,,,,,,,,,,,,
11995,79275.4588,,,,,,Frage 2,,,,,,,,,,,,,,,,,,,,,,,,,,,,,,,,,,,,,,,,,,,,,,,,,,,,,,,,,,,,,,,,,,,,,1.0,-1.0,-1.0,-1.0,-1.0,-1.0,-1.0,79436.785,-1.0,-1.0,-1.0,-1.0,-1.0,-1.0,4.0,4.0,1.0,,,,,,,,,,,,,,,,,,,,,,,,,
11996,79281.5532,,,,,,Frage 2,1.0,16.0,,,,,,,,,,,,,,,,,,,,,,,,,,,,,,,,,,,,,,,,1.0,16.0,640.0,480.0,,,,,,,,,,,,,,,,,,,,,,,,,,,,,,,,,,,,,,,,,,,,,,,,,,,,,,,,,,,,,,,,,
11997,79283.7922,,,,,,Frage 2,,,,,,,,,,,,,,,,,,,,,,,,,,,,,,,,,,,,,,,,,,,,,,,,,,,,,,,,,,,,,,,,,,,,,1.0,-1.0,-1.0,-1.0,-1.0,-1.0,-1.0,79445.117,-1.0,-1.0,-1.0,-1.0,-1.0,-1.0,4.0,4.0,1.0,,,,,,,,,,,,,,,,,,,,,,,,,
11998,79292.1864,,,,,,Frage 2,,,,,,,,,,,,,,,,,,,,,,,,,,,,,,,,,,,,,,,,,,,,,,,,,,,,,,,,,,,,,,,,,,,,,1.0,-1.0,-1.0,-1.0,-1.0,-1.0,-1.0,79453.512,-1.0,-1.0,-1.0,-1.0,-1.0,-1.0,4.0,4.0,1.0,,,,,,,,,,,,,,,,,,,,,,,,,
11999,79300.4977,,,,,,Frage 2,,,,,,,,,,,,,,,,,,,,,,,,,,,,,,,,,,,,,,,,,,,,,,,,,,,,,,,,,,,,,,,,,,,,,1.0,-1.0,-1.0,-1.0,-1.0,-1.0,-1.0,79461.82399999998,-1.0,-1.0,-1.0,-1.0,-1.0,-1.0,4.0,4.0,1.0,,,,,,,,,,,,,,,,,,,,,,,,,
12000,79308.8086,,,,,,Frage 2,,,,,,,,,,,,,,,,,,,,,,,,,,,,,,,,,,,,,,,,,,,,,,,,,,,,,,,,,,,,,,,,,,,,,1.0,-1.0,-1.0,-1.0,-1.0,-1.0,-1.0,79470.13500000001,-1.0,-1.0,-1.0,-1.0,-1.0,-1.0,4.0,4.0,1.0,,,,,,,,,,,,,,,,,,,,,,,,,
12001,79313.5004,,,,,,Frage 2,1.0,17.0,,,,,,,,,,,,,,,,,,,,,,,,,,,,,,,,,,,,,,,,1.0,17.0,640.0,480.0,,,,,,,,,,,,,,,,,,,,,,,,,,,,,,,,,,,,,,,,,,,,,,,,,,,,,,,,,,,,,,,,,
12002,79317.1363,,,,,,Frage 2,,,,,,,,,,,,,,,,,,,,,,,,,,,,,,,,,,,,,,,,,,,,,,,,,,,,,,,,,,,,,,,,,,,,,1.0,-1.0,-1.0,-1.0,-1.0,-1.0,-1.0,79478.462,-1.0,-1.0,-1.0,-1.0,-1.0,-1.0,4.0,4.0,1.0,,,,,,,,,,,,,,,,,,,,,,,,,
12003,79325.4689,,,,,,Frage 2,,,,,,,,,,,,,,,,,,,,,,,,,,,,,,,,,,,,,,,,,,,,,,,,,,,,,,,,,,,,,,,,,,,,,1.0,-1.0,-1.0,-1.0,-1.0,-1.0,-1.0,79486.79500000001,-1.0,-1.0,-1.0,-1.0,-1.0,-1.0,4.0,4.0,1.0,,,,,,,,,,,,,,,,,,,,,,,,,
12004,79333.7878,,,,,,Frage 2,,,,,,,,,,,,,,,,,,,,,,,,,,,,,,,,,,,,,,,,,,,,,,,,,,,,,,,,,,,,,,,,,,,,,1.0,-1.0,-1.0,-1.0,-1.0,-1.0,-1.0,79495.114,-1.0,-1.0,-1.0,-1.0,-1.0,-1.0,4.0,4.0,1.0,,,,,,,,,,,,,,,,,,,,,,,,,
12005,79342.1223,,,,,,Frage 2,,,,,,,,,,,,,,,,,,,,,,,,,,,,,,,,,,,,,,,,,,,,,,,,,,,,,,,,,,,,,,,,,,,,,1.0,-1.0,-1.0,493.0,224.0,-1.0,-1.0,79503.448,-1.0,394.2248229980469,-1.0,-1.0,0.5426506996154785,0.4402324855327606,4.0,0.0,1.0,493.0,224.0,493.0,224.0,394.224822998047,,,,,,,,,,,,,,,,,,,,
12006,79345.4214,,,,,,Frage 2,1.0,18.0,,,,,,,,,,,,,,,,,,,,,,,,,,,,,,,,,,,,,,,,1.0,18.0,640.0,480.0,,,,,,,,,,,,,,,,,,,,,,,,,,,,,,,,,,,,,,,,,,,,,,,,,,,,,,,,,,,,,,,,,
12007,79350.4513,,,,,,Frage 2,,,,,,,,,,,,,,,,,,,,,,,,,,,,,,,,,,,,,,,,,,,,,,,,,,,,,,,,,,,,,,,,,,,,,1.0,-1.0,-1.0,-1.0,-1.0,-1.0,-1.0,79511.77799999999,-1.0,-1.0,-1.0,-1.0,-1.0,-1.0,4.0,4.0,1.0,,,489.666666666667,222.666666666667,394.226348876953,16.3097100536968,,,,,,,,,,,,,,,,,,,
12008,79358.7855,,,,,,Frage 2,,,,,,,,,,,,,,,,,,,,,,,,,,,,,,,,,,,,,,,,,,,,,,,,,,,,,,,,,,,,,,,,,,,,,1.0,-1.0,-1.0,-1.0,-1.0,-1.0,-1.0,79520.111,-1.0,-1.0,-1.0,-1.0,-1.0,-1.0,4.0,4.0,1.0,,,486.333333333333,221.333333333333,394.227874755859,16.2714023700635,-4.59644400582107,,,,,,,,,,,,,,,,,,
12009,79367.1191,,,,,,Frage 2,,,,,,,,,,,,,,,,,,,,,,,,,,,,,,,,,,,,,,,,,,,,,,,,,,,,,,,,,,,,,,,,,,,,,1.0,-1.0,-1.0,483.0,220.0,-1.0,-1.0,79528.44599999998,-1.0,394.2294006347656,-1.0,-1.0,0.5420485138893127,0.4406210780143737,4.0,0.0,1.0,483.0,220.0,483.0,220.0,394.229400634766,,,,,,,,,,,,,,,,,,,,
12010,79375.4782,,,,,,Frage 2,,,,,,,,,,,,,,,,,,,,,,,,,,,,,,,,,,,,,,,,,,,,,,,,,,,,,,,,,,,,,,,,,,,,,1.0,-1.0,-1.0,-1.0,-1.0,-1.0,-1.0,79536.804,-1.0,-1.0,-1.0,-1.0,-1.0,-1.0,4.0,4.0,1.0,,,,,,,,,,,,,,,,,,,,,,,,,
12011,79378.2938,,,,,,Frage 2,1.0,19.0,,,,,,,,,,,,,,,,,,,,,,,,,,,,,,,,,,,,,,,,1.0,19.0,640.0,480.0,,,,,,,,,,,,,,,,,,,,,,,,,,,,,,,,,,,,,,,,,,,,,,,,,,,,,,,,,,,,,,,,,
12012,79383.7829,,,,,,Frage 2,,,,,,,,,,,,,,,,,,,,,,,,,,,,,,,,,,,,,,,,,,,,,,,,,,,,,,,,,,,,,,,,,,,,,1.0,-1.0,-1.0,-1.0,-1.0,-1.0,-1.0,79545.108,-1.0,-1.0,-1.0,-1.0,-1.0,-1.0,4.0,4.0,1.0,,,,,,,,,,,,,,,,,,,,,,,,,
12013,79392.1268,,,,,,Frage 2,,,,,,,,,,,,,,,,,,,,,,,,,,,,,,,,,,,,,,,,,,,,,,,,,,,,,,,,,,,,,,,,,,,,,1.0,-1.0,-1.0,-1.0,-1.0,-1.0,-1.0,79553.45300000002,-1.0,-1.0,-1.0,-1.0,-1.0,-1.0,4.0,4.0,1.0,,,,,,,,,,,,,,,,,,,,,,,,,
12014,79400.4712,,,,,,Frage 2,,,,,,,,,,,,,,,,,,,,,,,,,,,,,,,,,,,,,,,,,,,,,,,,,,,,,,,,,,,,,,,,,,,,,1.0,-1.0,-1.0,-1.0,-1.0,-1.0,-1.0,79561.79699999998,-1.0,-1.0,-1.0,-1.0,-1.0,-1.0,4.0,4.0,1.0,,,,,,,,,,,,,,,,,,,,,,,,,
12015,79408.7727,,,,,,Frage 2,,,,,,,,,,,,,,,,,,,,,,,,,,,,,,,,,,,,,,,,,,,,,,,,,,,,,,,,,,,,,,,,,,,,,1.0,-1.0,-1.0,-1.0,-1.0,-1.0,-1.0,79570.09899999999,-1.0,-1.0,-1.0,-1.0,-1.0,-1.0,4.0,4.0,1.0,,,,,,,,,,,,,,,,,,,,,,,,,
12016,79410.0645,,,,,,Frage 2,1.0,20.0,,,,,,,,,,,,,,,,,,,,,,,,,,,,,,,,,,,,,,,,1.0,20.0,640.0,480.0,,,,,,,,,,,,,,,,,,,,,,,,,,,,,,,,,,,,,,,,,,,,,,,,,,,,,,,,,,,,,,,,,
12017,79416.7754,,,,,,Frage 2,,,,,,,,,,,,,,,,,,,,,,,,,,,,,,,,,,,,,,,,,,,,,,,,,,,,,,,,,,,,,,,,,,,,,1.0,-1.0,-1.0,-1.0,-1.0,-1.0,-1.0,79578.10099999998,-1.0,-1.0,-1.0,-1.0,-1.0,-1.0,4.0,4.0,1.0,,,,,,,,,,,,,,,,,,,,,,,,,
12018,79425.1073,,,,,,Frage 2,,,,,,,,,,,,,,,,,,,,,,,,,,,,,,,,,,,,,,,,,,,,,,,,,,,,,,,,,,,,,,,,,,,,,1.0,-1.0,-1.0,-1.0,-1.0,-1.0,-1.0,79586.434,-1.0,-1.0,-1.0,-1.0,-1.0,-1.0,4.0,4.0,1.0,,,,,,,,,,,,,,,,,,,,,,,,,
12019,79433.4411,,,,,,Frage 2,,,,,,,,,,,,,,,,,,,,,,,,,,,,,,,,,,,,,,,,,,,,,,,,,,,,,,,,,,,,,,,,,,,,,1.0,-1.0,-1.0,-1.0,-1.0,-1.0,-1.0,79594.76699999998,-1.0,-1.0,-1.0,-1.0,-1.0,-1.0,4.0,4.0,1.0,,,,,,,,,,,,,,,,,,,,,,,,,
12020,79441.7732,,,,,,Frage 2,,,,,,,,,,,,,,,,,,,,,,,,,,,,,,,,,,,,,,,,,,,,,,,,,,,,,,,,,,,,,,,,,,,,,1.0,-1.0,-1.0,-1.0,-1.0,-1.0,-1.0,79603.1,-1.0,-1.0,-1.0,-1.0,-1.0,-1.0,4.0,4.0,1.0,,,,,,,,,,,,,,,,,,,,,,,,,
12021,79441.9803,,,,,,Frage 2,1.0,21.0,,,,,,,,,,,,,,,,,,,,,,,,,,,,,,,,,,,,,,,,1.0,21.0,640.0,480.0,,,,,,,,,,,,,,,,,,,,,,,,,,,,,,,,,,,,,,,,,,,,,,,,,,,,,,,,,,,,,,,,,
12022,79448.7749,,,,,,Frage 2,,,,,,,,,,,,,,,,,,,,,,,,,,,,,,,,,,,,,,,,,,,,,,,,,,,,,,,,,,,,,,,,,,,,,1.0,-1.0,-1.0,-1.0,-1.0,-1.0,-1.0,79610.10099999998,-1.0,-1.0,-1.0,-1.0,-1.0,-1.0,4.0,4.0,1.0,,,,,,,,,,,,,,,,,,,,,,,,,
12023,79457.103,,,,,,Frage 2,,,,,,,,,,,,,,,,,,,,,,,,,,,,,,,,,,,,,,,,,,,,,,,,,,,,,,,,,,,,,,,,,,,,,1.0,-1.0,-1.0,-1.0,-1.0,-1.0,-1.0,79618.429,-1.0,-1.0,-1.0,-1.0,-1.0,-1.0,4.0,4.0,1.0,,,,,,,,,,,,,,,,,,,,,,,,,
12024,79465.4306,,,,,,Frage 2,,,,,,,,,,,,,,,,,,,,,,,,,,,,,,,,,,,,,,,,,,,,,,,,,,,,,,,,,,,,,,,,,,,,,1.0,-1.0,-1.0,-1.0,-1.0,-1.0,-1.0,79626.75700000001,-1.0,-1.0,-1.0,-1.0,-1.0,-1.0,4.0,4.0,1.0,,,,,,,,,,,,,,,,,,,,,,,,,
12025,79473.5042,,,,,,Frage 2,,,,,,,,,,,,,,,,,,,,,,,,,,,,,,,,,,,,,,,,,,,,,,,,,,,,,,,,,,,,,,,,,,,,,1.0,-1.0,-1.0,-1.0,-1.0,-1.0,-1.0,79634.82999999999,-1.0,-1.0,-1.0,-1.0,-1.0,-1.0,4.0,4.0,1.0,,,,,,,,,,,,,,,,,,,,,,,,,
12026,79473.7449,,,,,,Frage 2,1.0,22.0,,,,,,,,,,,,,,,,,,,,,,,,,,,,,,,,,,,,,,,,1.0,22.0,640.0,480.0,,,,,,,,,,,,,,,,,,,,,,,,,,,,,,,,,,,,,,,,,,,,,,,,,,,,,,,,,,,,,,,,,
12027,79481.8364,,,,,,Frage 2,,,,,,,,,,,,,,,,,,,,,,,,,,,,,,,,,,,,,,,,,,,,,,,,,,,,,,,,,,,,,,,,,,,,,1.0,-1.0,-1.0,-1.0,-1.0,-1.0,-1.0,79643.163,-1.0,-1.0,-1.0,-1.0,-1.0,-1.0,4.0,4.0,1.0,,,,,,,,,,,,,,,,,,,,,,,,,
12028,79489.6505,,,,,,Frage 2,,,,,,,,,,,,,,,,,,,,,,,,,,,,,,,,,,,,,,,,,,,,,,,,,,,,,,,,,,,,,,,,,,,,,1.0,-1.0,-1.0,-1.0,-1.0,-1.0,-1.0,79650.97599999998,-1.0,-1.0,-1.0,-1.0,-1.0,-1.0,4.0,4.0,1.0,,,,,,,,,,,,,,,,,,,,,,,,,
12029,79497.1856,,,,,,Frage 2,,,,,,,,,,,,,,,,,,,,,,,,,,,,,,,,,,,,,,,,,,,,,,,,,,,,,,,,,,,,,,,,,,,,,1.0,-1.0,-1.0,-1.0,-1.0,-1.0,-1.0,79658.512,-1.0,-1.0,-1.0,-1.0,-1.0,-1.0,4.0,4.0,1.0,,,,,,,,,,,,,,,,,,,,,,,,,
12030,79505.1923,,,,,,Frage 2,,,,,,,,,,,,,,,,,,,,,,,,,,,,,,,,,,,,,,,,,,,,,,,,,,,,,,,,,,,,,,,,,,,,,1.0,773.0,367.0,488.0,255.0,-1.0,-1.0,79666.51800000001,395.9564514160156,394.2861022949218,0.7204399704933167,0.4494949281215667,0.5376237630844116,0.4458344578742981,0.0,0.0,1.0,630.5,311.0,630.5,311.0,395.121276855469,,,,,,,,,,,,,,,,,,,,
12031,79505.4102,,,,,,Frage 2,1.0,23.0,,,,,,,,,,,,,,,,,,,,,,,,,,,,,,,,,,,,,,,,1.0,23.0,640.0,480.0,,,,,,,,,,,,,,,,,,,,,,,,,,,,,,,,,,,,,,,,,,,,,,,,,,,,,,,,,,,,,,,,,
12032,79513.5244,,,,,,Frage 2,,,,,,,,,,,,,,,,,,,,,,,,,,,,,,,,,,,,,,,,,,,,,,,,,,,,,,,,,,,,,,,,,,,,,1.0,-1.0,-1.0,-1.0,-1.0,-1.0,-1.0,79674.85,-1.0,-1.0,-1.0,-1.0,-1.0,-1.0,4.0,4.0,1.0,,,632.2,315.0,394.951342773438,21.7117172055187,,,,,,,,,,,,,,,,,,,
12033,79521.8885,,,,,,Frage 2,,,,,,,,,,,,,,,,,,,,,,,,,,,,,,,,,,,,,,,,,,,,,,,,,,,,,,,,,,,,,,,,,,,,,1.0,-1.0,-1.0,-1.0,-1.0,-1.0,-1.0,79683.21499999998,-1.0,-1.0,-1.0,-1.0,-1.0,-1.0,4.0,4.0,1.0,,,633.9,319.0,394.781408691406,21.7754977526762,7.62551226760655,,,,,,,,,,,,,,,,,,
12034,79530.2051,,,,,,Frage 2,,,,,,,,,,,,,,,,,,,,,,,,,,,,,,,,,,,,,,,,,,,,,,,,,,,,,,,,,,,,,,,,,,,,,1.0,-1.0,-1.0,-1.0,-1.0,-1.0,-1.0,79691.531,-1.0,-1.0,-1.0,-1.0,-1.0,-1.0,4.0,4.0,1.0,,,635.6,323.0,394.611474609375,21.882927404854,12.9174965944899,,,,,,,,,,,,,,,,,,
12035,79537.927,,,,,,Frage 2,1.0,24.0,,,,,,,,,,,,,,,,,,,,,,,,,,,,,,,,,,,,,,,,1.0,24.0,640.0,480.0,,,,,,,,,,,,,,,,,,,,,,,,,,,,,,,,,,,,,,,,,,,,,,,,,,,,,,,,,,,,,,,,,
12036,79538.5204,,,,,,Frage 2,,,,,,,,,,,,,,,,,,,,,,,,,,,,,,,,,,,,,,,,,,,,,,,,,,,,,,,,,,,,,,,,,,,,,1.0,-1.0,-1.0,-1.0,-1.0,-1.0,-1.0,79699.84700000001,-1.0,-1.0,-1.0,-1.0,-1.0,-1.0,4.0,4.0,1.0,,,637.3,327.0,394.441540527344,21.9089057748345,3.12416509091545,,,,,,,,,,,,,,,,,,
12037,79546.8501,,,,,,Frage 2,,,,,,,,,,,,,,,,,,,,,,,,,,,,,,,,,,,,,,,,,,,,,,,,,,,,,,,,,,,,,,,,,,,,,1.0,-1.0,-1.0,639.0,331.0,-1.0,-1.0,79708.176,-1.0,394.2716064453125,-1.0,-1.0,0.5370720624923706,0.4480769336223602,4.0,0.0,1.0,639.0,331.0,639.0,331.0,394.271606445313,434.135244932389,49488.7377885702,,,,,,,,,124.0,2.0,79542.68525,79626.0375,83.3522500000108,11.5391446900628,434.135244932389,49488.7377885702,-40641.539420799,271.030388536988
12038,79555.1886,,,,,,Frage 2,,,,,,,,,,,,,,,,,,,,,,,,,,,,,,,,,,,,,,,,,,,,,,,,,,,,,,,,,,,,,,,,,,,,,1.0,888.0,382.0,703.0,391.0,-1.0,-1.0,79716.51499999998,396.1555786132813,394.3130493164063,0.7153856754302979,0.4520281553268432,0.5348449349403381,0.4487279057502746,0.0,0.0,1.0,795.5,386.5,795.5,386.5,395.234313964844,275.359128986417,-19041.3282899813,,,,,,,,,124.0,2.0,79542.68525,79626.0375,83.3522500000108,11.5391446900628,434.135244932389,49488.7377885702,-40641.539420799,271.030388536988
12039,79563.5185,,,,,,Frage 2,,,,,,,,,,,,,,,,,,,,,,,,,,,,,,,,,,,,,,,,,,,,,,,,,,,,,,,,,,,,,,,,,,,,,1.0,-1.0,-1.0,-1.0,-1.0,-1.0,-1.0,79724.84400000001,-1.0,-1.0,-1.0,-1.0,-1.0,-1.0,4.0,4.0,1.0,,,740.25,369.75,404.268966674805,293.090178912592,2128.60297556392,,,,,,,,,124.0,2.0,79542.68525,79626.0375,83.3522500000108,11.5391446900628,434.135244932389,49488.7377885702,-40641.539420799,271.030388536988
12040,79570.1265,,,,,,Frage 2,1.0,25.0,,,,,,,,,,,,,,,,,,,,,,,,,,,,,,,,,,,,,,,,1.0,25.0,640.0,480.0,,,,,,,,,,,,,,,,,,,,,,,,,,,,,,,,,,,,,,,,,,,,,,,,,,,,,,,,,,,,,,,,,
12041,79571.8488,,,,,,Frage 2,,,,,,,,,,,,,,,,,,,,,,,,,,,,,,,,,,,,,,,,,,,,,,,,,,,,,,,,,,,,,,,,,,,,,1.0,-1.0,-1.0,685.0,353.0,-1.0,-1.0,79733.175,-1.0,413.3036193847656,-1.0,-1.0,0.5338664650917053,0.4496409893035888,4.0,0.0,1.0,685.0,353.0,685.0,353.0,413.303619384766,388.19273922526,11416.4628299883,,,,,,,,,124.0,2.0,79542.68525,79626.0375,83.3522500000108,11.5391446900628,434.135244932389,49488.7377885702,-40641.539420799,271.030388536988
12042,79580.2142,,,,,,Frage 2,,,,,,,,,,,,,,,,,,,,,,,,,,,,,,,,,,,,,,,,,,,,,,,,,,,,,,,,,,,,,,,,,,,,,1.0,907.0,235.0,691.0,217.0,-1.0,-1.0,79741.54099999998,434.70989990234375,432.9987182617188,0.7107411623001098,0.4534173607826232,0.5309901237487793,0.4503716826438903,0.0,0.0,1.0,799.0,226.0,799.0,226.0,433.854309082031,397.903356797516,1160.80732209603,,,,,,,,,124.0,2.0,79542.68525,79626.0375,83.3522500000108,11.5391446900628,434.135244932389,49488.7377885702,-40641.539420799,271.030388536988
12043,79588.5454,,,,,,Frage 2,,,,,,,,,,,,,,,,,,,,,,,,,,,,,,,,,,,,,,,,,,,,,,,,,,,,,,,,,,,,,,,,,,,,,1.0,-1.0,-1.0,-1.0,-1.0,-1.0,-1.0,79749.86999999998,-1.0,-1.0,-1.0,-1.0,-1.0,-1.0,4.0,4.0,1.0,,,787.0,221.25,441.470848083496,59.310563574934,-40641.539420799,,,,,,,,,124.0,2.0,79542.68525,79626.0375,83.3522500000108,11.5391446900628,434.135244932389,49488.7377885702,-40641.539420799,271.030388536988
12044,79596.9387,,,,,,Frage 2,,,,,,,,,,,,,,,,,,,,,,,,,,,,,,,,,,,,,,,,,,,,,,,,,,,,,,,,,,,,,,,,,,,,,1.0,908.0,328.0,642.0,105.0,-1.0,-1.0,79758.26499999998,449.8982543945313,448.27651977539057,0.7083551883697509,0.453814148902893,0.5291650295257568,0.4515239000320434,0.0,0.0,1.0,775.0,216.5,775.0,216.5,449.087387084961,112.424732967485,6328.16286711732,,,,,,,,,124.0,2.0,79542.68525,79626.0375,83.3522500000108,11.5391446900628,434.135244932389,49488.7377885702,-40641.539420799,271.030388536988
12045,79602.0747,,,,,,Frage 2,1.0,26.0,,,,,,,,,,,,,,,,,,,,,,,,,,,,,,,,,,,,,,,,1.0,26.0,640.0,480.0,,,,,,,,,,,,,,,,,,,,,,,,,,,,,,,,,,,,,,,,,,,,,,,,,,,,,,,,,,,,,,,,,
12046,79605.2112,,,,,,Frage 2,,,,,,,,,,,,,,,,,,,,,,,,,,,,,,,,,,,,,,,,,,,,,,,,,,,,,,,,,,,,,,,,,,,,,1.0,910.0,282.0,648.0,61.0,-1.0,-1.0,79766.53700000001,451.4998474121094,449.9225463867188,0.7077854871749877,0.4551015496253967,0.528941810131073,0.4523175060749054,0.0,0.0,1.0,779.0,171.5,779.0,171.5,450.711196899414,267.409537216028,18734.9415833694,,,,,,,,,124.0,2.0,79542.68525,79626.0375,83.3522500000108,11.5391446900628,434.135244932389,49488.7377885702,-40641.539420799,271.030388536988
12047,79613.5109,,,,,,Frage 2,,,,,,,,,,,,,,,,,,,,,,,,,,,,,,,,,,,,,,,,,,,,,,,,,,,,,,,,,,,,,,,,,,,,,1.0,-1.0,-1.0,-1.0,-1.0,-1.0,-1.0,79774.83600000001,-1.0,-1.0,-1.0,-1.0,-1.0,-1.0,4.0,4.0,1.0,,,711.5,112.25,450.653678894043,384.069800165228,14055.9614141908,,,,,,,,,124.0,2.0,79542.68525,79626.0375,83.3522500000108,11.5391446900628,434.135244932389,49488.7377885702,-40641.539420799,271.030388536988
12048,79621.8732,,,,,,Frage 2,,,,,,,,,,,,,,,,,,,,,,,,,,,,,,,,,,,,,,,,,,,,,,,,,,,,,,,,,,,,,,,,,,,,,1.0,-1.0,-1.0,644.0,53.0,-1.0,-1.0,79783.20000000001,-1.0,450.59616088867193,-1.0,-1.0,0.5280105471611022,0.4535812139511108,4.0,0.0,1.0,644.0,53.0,644.0,53.0,450.596160888672,181.300558862368,-24248.0228289666,,,,,,,,,124.0,2.0,79542.68525,79626.0375,83.3522500000108,11.5391446900628,434.135244932389,49488.7377885702,-40641.539420799,271.030388536988
12049,79630.2018,,,,,,Frage 2,,,,,,,,,,,,,,,,,,,,,,,,,,,,,,,,,,,,,,,,,,,,,,,,,,,,,,,,,,,,,,,,,,,,,1.0,-1.0,-1.0,-1.0,-1.0,-1.0,-1.0,79791.52799999999,-1.0,-1.0,-1.0,-1.0,-1.0,-1.0,4.0,4.0,1.0,,,644.666666666667,57.6666666666667,450.772674560547,19.6084532880096,-19414.0798663023,,,,,,,,,,,,,,,,,,
12050,79638.5291,,,,,,Frage 2,,,,,,,,,,,,,,,,,,,,,,,,,,,,,,,,,,,,,,,,,,,,,,,,,,,,,,,,,,,,,,,,,,,,,1.0,-1.0,-1.0,-1.0,-1.0,-1.0,-1.0,79799.856,-1.0,-1.0,-1.0,-1.0,-1.0,-1.0,4.0,4.0,1.0,,,645.333333333333,62.3333333333333,450.949188232422,19.6473520372914,4.67123188569691,,,,,,,,,,,,,,,,,,
12051,79646.8534,,,,,,Frage 2,,,,,,,,,,,,,,,,,,,,,,,,,,,,,,,,,,,,,,,,,,,,,,,,,,,,,,,,,,,,,,,,,,,,,1.0,-1.0,-1.0,646.0,67.0,-1.0,-1.0,79808.179,-1.0,451.1257019042969,-1.0,-1.0,0.5269397497177124,0.4555453956127166,4.0,0.0,1.0,646.0,67.0,646.0,67.0,451.125701904297,332.955020101903,37637.7194556094,,,,,,,,,125.0,3.0,79642.69125,79809.34465,166.653399999996,9.82433937075477,596.054950173434,37637.7194556094,-62878.963466248,19.1226099344237
12052,79649.9475,,,,,,Frage 2,1.0,27.0,,,,,,,,,,,,,,,,,,,,,,,,,,,,,,,,,,,,,,,,1.0,27.0,640.0,480.0,,,,,,,,,,,,,,,,,,,,,,,,,,,,,,,,,,,,,,,,,,,,,,,,,,,,,,,,,,,,,,,,,
12053,79655.1967,,,,,,Frage 2,,,,,,,,,,,,,,,,,,,,,,,,,,,,,,,,,,,,,,,,,,,,,,,,,,,,,,,,,,,,,,,,,,,,,1.0,931.0,167.0,645.0,74.0,-1.0,-1.0,79816.51999999999,452.6898193359375,451.0384521484375,0.7037356495857238,0.4582273364067077,0.5266589522361755,0.456195592880249,0.0,0.0,1.0,788.0,120.5,788.0,120.5,451.864135742188,169.04782988151,-19645.36696757,,,,,,,,,125.0,3.0,79642.69125,79809.34465,166.653399999996,9.82433937075477,596.054950173434,37637.7194556094,-62878.963466248,19.1226099344237
12054,79663.5212,,,,,,Frage 2,,,,,,,,,,,,,,,,,,,,,,,,,,,,,,,,,,,,,,,,,,,,,,,,,,,,,,,,,,,,,,,,,,,,,1.0,-1.0,-1.0,-1.0,-1.0,-1.0,-1.0,79824.848,-1.0,-1.0,-1.0,-1.0,-1.0,-1.0,4.0,4.0,1.0,,,718.5,99.25,450.717620849609,317.177514918969,17794.4242942418,,,,,,,,,125.0,3.0,79642.69125,79809.34465,166.653399999996,9.82433937075477,596.054950173434,37637.7194556094,-62878.963466248,19.1226099344237
12055,79671.841,,,,,,Frage 2,,,,,,,,,,,,,,,,,,,,,,,,,,,,,,,,,,,,,,,,,,,,,,,,,,,,,,,,,,,,,,,,,,,,,1.0,-1.0,-1.0,649.0,78.0,-1.0,-1.0,79833.16699999999,-1.0,449.5711059570313,-1.0,-1.0,0.5257912874221801,0.4576349854469299,4.0,0.0,1.0,649.0,78.0,649.0,78.0,449.571105957031,162.041670405839,-18646.5833930115,,,,,,,,,125.0,3.0,79642.69125,79809.34465,166.653399999996,9.82433937075477,596.054950173434,37637.7194556094,-62878.963466248,19.1226099344237
12056,79680.2208,,,,,,Frage 2,,,,,,,,,,,,,,,,,,,,,,,,,,,,,,,,,,,,,,,,,,,,,,,,,,,,,,,,,,,,,,,,,,,,,1.0,919.0,181.0,646.0,93.0,-1.0,-1.0,79841.546,451.3134460449218,449.5816345214844,0.7015706300735473,0.4599502980709075,0.5252586007118225,0.4583831131458282,0.0,0.0,1.0,782.5,137.0,782.5,137.0,450.447540283203,166.580720722889,541.665710047072,,,,,,,,,125.0,3.0,79642.69125,79809.34465,166.653399999996,9.82433937075477,596.054950173434,37637.7194556094,-62878.963466248,19.1226099344237
12057,79681.8287,,,,,,Frage 2,1.0,28.0,,,,,,,,,,,,,,,,,,,,,,,,,,,,,,,,,,,,,,,,1.0,28.0,640.0,480.0,,,,,,,,,,,,,,,,,,,,,,,,,,,,,,,,,,,,,,,,,,,,,,,,,,,,,,,,,,,,,,,,,
12058,79688.5196,,,,,,Frage 2,,,,,,,,,,,,,,,,,,,,,,,,,,,,,,,,,,,,,,,,,,,,,,,,,,,,,,,,,,,,,,,,,,,,,1.0,-1.0,-1.0,-1.0,-1.0,-1.0,-1.0,79849.84400000001,-1.0,-1.0,-1.0,-1.0,-1.0,-1.0,4.0,4.0,1.0,,,716.25,118.0,450.034484863281,301.610538152867,16271.0051368766,,,,,,,,,125.0,3.0,79642.69125,79809.34465,166.653399999996,9.82433937075477,596.054950173434,37637.7194556094,-62878.963466248,19.1226099344237
12059,79696.917,,,,,,Frage 2,,,,,,,,,,,,,,,,,,,,,,,,,,,,,,,,,,,,,,,,,,,,,,,,,,,,,,,,,,,,,,,,,,,,,1.0,-1.0,-1.0,650.0,99.0,-1.0,-1.0,79858.242,-1.0,449.6214294433594,-1.0,-1.0,0.524247407913208,0.4599746465682983,4.0,0.0,1.0,650.0,99.0,650.0,99.0,449.621429443359,162.519312719363,-16563.6060487147,,,,,,,,,125.0,3.0,79642.69125,79809.34465,166.653399999996,9.82433937075477,596.054950173434,37637.7194556094,-62878.963466248,19.1226099344237
12060,79705.173,,,,,,Frage 2,,,,,,,,,,,,,,,,,,,,,,,,,,,,,,,,,,,,,,,,,,,,,,,,,,,,,,,,,,,,,,,,,,,,,1.0,924.0,177.0,652.0,85.0,-1.0,-1.0,79866.49900000001,451.65774536132807,449.9607238769531,0.6992048621177673,0.4617685675621032,0.5236404538154602,0.4607319235801696,0.0,0.0,1.0,788.0,131.0,788.0,131.0,450.809234619141,336.169628913364,21033.2262832036,,,,,,,,,125.0,3.0,79642.69125,79809.34465,166.653399999996,9.82433937075477,596.054950173434,37637.7194556094,-62878.963466248,19.1226099344237
12061,79713.5316,,,,,,Frage 2,,,,,,,,,,,,,,,,,,,,,,,,,,,,,,,,,,,,,,,,,,,,,,,,,,,,,,,,,,,,,,,,,,,,,1.0,-1.0,-1.0,-1.0,-1.0,-1.0,-1.0,79874.857,-1.0,-1.0,-1.0,-1.0,-1.0,-1.0,4.0,4.0,1.0,,,794.5,149.75,450.553398132324,86.7219464074612,-29843.2372054769,,,,,,,,,125.0,3.0,79642.69125,79809.34465,166.653399999996,9.82433937075477,596.054950173434,37637.7194556094,-62878.963466248,19.1226099344237
12062,79713.7429,,,,,,Frage 2,1.0,29.0,,,,,,,,,,,,,,,,,,,,,,,,,,,,,,,,,,,,,,,,1.0,29.0,640.0,480.0,,,,,,,,,,,,,,,,,,,,,,,,,,,,,,,,,,,,,,,,,,,,,,,,,,,,,,,,,,,,,,,,,
12063,79721.8626,,,,,,Frage 2,,,,,,,,,,,,,,,,,,,,,,,,,,,,,,,,,,,,,,,,,,,,,,,,,,,,,,,,,,,,,,,,,,,,,1.0,922.0,253.0,680.0,84.0,-1.0,-1.0,79883.18799999998,451.1965637207031,449.3985595703125,0.6970327496528625,0.4625977277755737,0.5222163796424865,0.4622844457626342,0.0,0.0,1.0,801.0,168.5,801.0,168.5,450.297561645508,116.656934003085,3593.20460876914,,,,,,,,,125.0,3.0,79642.69125,79809.34465,166.653399999996,9.82433937075477,596.054950173434,37637.7194556094,-62878.963466248,19.1226099344237
12064,79730.1917,,,,,,Frage 2,,,,,,,,,,,,,,,,,,,,,,,,,,,,,,,,,,,,,,,,,,,,,,,,,,,,,,,,,,,,,,,,,,,,,1.0,951.0,251.0,712.0,123.0,-1.0,-1.0,79891.516,452.26220703125,450.4909057617188,0.6961419582366943,0.4634090662002563,0.5212678909301757,0.4629304707050323,0.0,0.0,1.0,831.5,187.0,831.5,187.0,451.376556396484,102.11215543229,-1746.26052884346,,,,,,,,,125.0,3.0,79642.69125,79809.34465,166.653399999996,9.82433937075477,596.054950173434,37637.7194556094,-62878.963466248,19.1226099344237
12065,79738.498,,,,,,Frage 2,,,,,,,,,,,,,,,,,,,,,,,,,,,,,,,,,,,,,,,,,,,,,,,,,,,,,,,,,,,,,,,,,,,,,1.0,-1.0,-1.0,-1.0,-1.0,-1.0,-1.0,79899.82399999998,-1.0,-1.0,-1.0,-1.0,-1.0,-1.0,4.0,4.0,1.0,,,843.5,183.75,453.150260925293,56.8521206146137,-5448.88034595619,,,,,,,,,125.0,3.0,79642.69125,79809.34465,166.653399999996,9.82433937075477,596.054950173434,37637.7194556094,-62878.963466248,19.1226099344237
12066,79746.1796,,,,,,Frage 2,1.0,30.0,0.1315798610448837,0.1922851502895355,0.0253037400543689,0.1315381973981857,0.0242667440325021,0.1269806921482086,0.0561144649982452,0.3287661075592041,0.0,0.0690483003854751,0.0035867970436811,99.6154327392578,98.13375854492189,0.0005177111597731,0.1051958575844764,0.0808924958109855,0.0675394684076309,0.080444723367691,4.060227183799725e-06,0.0435105338692665,0.003319320268929,0.2086800336837768,0.0035867970436811,0.0270338151603937,0.0002204490447184,0.0136814527213573,0.0690483003854751,0.0001637759560253,1.5205769538879397,0.0040022982284426,0.0463238358497619,0.038303580135107,0.0014930291799828,0.0,,-13.443137168884276,-2.1879723072052,4.530853271484375,125.47064208984376,1.0,30.0,640.0,480.0,0.0,285.634765625,291.7056884765625,1.0,468.3262939453125,482.98529052734375,2.0,317.6459045410156,326.48504638671875,3.0,442.9158325195313,333.5792541503906,4.0,380.390869140625,389.15625,5.0,370.3798828125,482.98529052734375,,,,,,,,,,,,,,,,,,,,,,,,,,,,,,,,,,,,,,,,,,,,,,,
12067,79746.8615,,,,,,Frage 2,,,,,,,,,,,,,,,,,,,,,,,,,,,,,,,,,,,,,,,,,,,,,,,,,,,,,,,,,,,,,,,,,,,,,1.0,968.0,248.0,743.0,113.0,-1.0,-1.0,79908.187,455.7692565917969,454.0786743164063,0.6942709684371948,0.464243084192276,0.5197717547416687,0.4642780423164367,0.0,0.0,1.0,855.5,180.5,855.5,180.5,454.923965454102,79.9162372992448,2757.71108801969,,,,,,,,,125.0,3.0,79642.69125,79809.34465,166.653399999996,9.82433937075477,596.054950173434,37637.7194556094,-62878.963466248,19.1226099344237
12068,79755.219,,,,,,Frage 2,,,,,,,,,,,,,,,,,,,,,,,,,,,,,,,,,,,,,,,,,,,,,,,,,,,,,,,,,,,,,,,,,,,,,1.0,987.0,241.0,766.0,102.0,-1.0,-1.0,79916.52199999998,456.74722290039057,455.0880126953125,0.6935094594955444,0.4649160206317901,0.5190746784210205,0.4649630188941955,0.0,0.0,1.0,876.5,171.5,876.5,171.5,455.917617797852,142.616514543501,7502.27666697806,,,,,,,,,125.0,3.0,79642.69125,79809.34465,166.653399999996,9.82433937075477,596.054950173434,37637.7194556094,-62878.963466248,19.1226099344237
12069,79763.5383,,,,,,Frage 2,,,,,,,,,,,,,,,,,,,,,,,,,,,,,,,,,,,,,,,,,,,,,,,,,,,,,,,,,,,,,,,,,,,,,1.0,-1.0,-1.0,-1.0,-1.0,-1.0,-1.0,79924.86499999999,-1.0,-1.0,-1.0,-1.0,-1.0,-1.0,4.0,4.0,1.0,,,822.25,124.25,456.139091491699,313.898277098378,20588.482511127,,,,,,,,,125.0,3.0,79642.69125,79809.34465,166.653399999996,9.82433937075477,596.054950173434,37637.7194556094,-62878.963466248,19.1226099344237
12070,79771.8536,,,,,,Frage 2,,,,,,,,,,,,,,,,,,,,,,,,,,,,,,,,,,,,,,,,,,,,,,,,,,,,,,,,,,,,,,,,,,,,,1.0,-1.0,-1.0,768.0,77.0,-1.0,-1.0,79933.179,-1.0,456.3605651855469,-1.0,-1.0,0.5179053544998168,0.4663503766059875,4.0,0.0,1.0,768.0,77.0,768.0,77.0,456.360565185547,455.045907099023,16974.448306208,,,,,,,,,125.0,3.0,79642.69125,79809.34465,166.653399999996,9.82433937075477,596.054950173434,37637.7194556094,-62878.963466248,19.1226099344237
12071,79777.9206,,,,,,Frage 2,1.0,31.0,0.1402203738689422,0.1922087669372558,0.0275990255177021,0.139152705669403,0.024198792874813,0.1269033700227737,0.0573993176221847,0.3287661075592041,0.0,0.024549514055252,0.0013500549830496,99.61558532714845,97.9599151611328,0.0004005560476798,0.1186670586466789,0.0696802884340286,0.0243946332484483,0.0779940336942672,5.786383781014592e-07,0.1109360978007316,0.002879268489778,0.6718682646751403,0.0013500549830496,0.0100631918758153,8.313044236274435e-05,0.0083979694172739,0.024549514055252,0.0001119677399401,4.152143955230713,0.0031297572422772,0.0269031971693038,0.0240445919334888,0.0006793270003981,0.0,,-12.970158576965332,-2.6421632766723637,4.517196178436279,122.86234283447266,1.0,31.0,640.0,480.0,0.0,283.3754272460937,284.6322021484375,1.0,464.6502685546875,474.1685485839844,2.0,315.8458251953125,320.5057373046875,3.0,438.6080932617188,325.46356201171875,4.0,377.7979431152344,380.9406127929688,5.0,367.584716796875,474.1685485839844,,,,,,,,,,,,,,,,,,,,,,,,,,,,,,,,,,,,,,,,,,,,,,,
12072,79780.1651,,,,,,Frage 2,,,,,,,,,,,,,,,,,,,,,,,,,,,,,,,,,,,,,,,,,,,,,,,,,,,,,,,,,,,,,,,,,,,,,1.0,989.0,239.0,-1.0,-1.0,-1.0,-1.0,79941.49100000001,458.42376708984375,-1.0,0.691252291202545,0.4666502475738525,-1.0,-1.0,0.0,4.0,1.0,989.0,239.0,989.0,239.0,458.423767089844,596.054950173434,16965.5348702973,,,,,,,,,125.0,3.0,79642.69125,79809.34465,166.653399999996,9.82433937075477,596.054950173434,37637.7194556094,-62878.963466248,19.1226099344237
12073,79788.5214,,,,,,Frage 2,,,,,,,,,,,,,,,,,,,,,,,,,,,,,,,,,,,,,,,,,,,,,,,,,,,,,,,,,,,,,,,,,,,,,1.0,-1.0,-1.0,-1.0,-1.0,-1.0,-1.0,79949.84700000001,-1.0,-1.0,-1.0,-1.0,-1.0,-1.0,4.0,4.0,1.0,,,994.0,224.0,458.54460144043,70.6194677604601,-62878.963466248,,,,,,,,,125.0,3.0,79642.69125,79809.34465,166.653399999996,9.82433937075477,596.054950173434,37637.7194556094,-62878.963466248,19.1226099344237
12074,79796.826,,,,,,Frage 2,,,,,,,,,,,,,,,,,,,,,,,,,,,,,,,,,,,,,,,,,,,,,,,,,,,,,,,,,,,,,,,,,,,,,1.0,999.0,209.0,-1.0,-1.0,-1.0,-1.0,79958.14999999998,458.6654357910156,-1.0,0.6897906064987182,0.4678226709365844,-1.0,-1.0,0.0,4.0,1.0,999.0,209.0,999.0,209.0,458.665435791016,301.391899694585,27788.5066028512,,,,,,,,,125.0,3.0,79642.69125,79809.34465,166.653399999996,9.82433937075477,596.054950173434,37637.7194556094,-62878.963466248,19.1226099344237
12075,79805.1989,,,,,,Frage 2,,,,,,,,,,,,,,,,,,,,,,,,,,,,,,,,,,,,,,,,,,,,,,,,,,,,,,,,,,,,,,,,,,,,,1.0,998.0,217.0,767.0,81.0,-1.0,-1.0,79966.52499999998,459.48095703125,457.5668029785156,0.6894325613975524,0.4684922695159912,0.5161242485046386,0.4692602753639221,0.0,0.0,1.0,882.5,149.0,882.5,149.0,458.523880004883,293.943198974205,-889.62016987882,,,,,,,,,125.0,3.0,79642.69125,79809.34465,166.653399999996,9.82433937075477,596.054950173434,37637.7194556094,-62878.963466248,19.1226099344237
12076,79809.8354,,,,,,Frage 2,1.0,32.0,0.1458950638771057,0.1919305026531219,0.0291401464492082,0.1444692313671112,0.0241788197308778,0.1267580389976501,0.0580770559608936,0.3287661075592041,0.0,0.0183771941810846,0.0009338914533145,99.61613464355469,98.05792999267578,0.0003714656922966,0.1778550744056701,0.0624194145202636,0.0148314302787184,0.0474710613489151,8.003252816024543e-08,0.1801641881465911,0.0024694581516087,0.8257383704185485,0.0009338914533145,0.0056423260830342,7.217341044452041e-05,0.0051634879782795,0.0183771941810846,8.827695273794234e-05,5.78885793685913,0.0028286036103963,0.0231843758374452,0.0216949768364429,0.0006404582527466,0.0,,-13.7764892578125,-2.3909873962402344,4.525702953338623,121.76016998291016,1.0,32.0,640.0,480.0,0.0,284.7022705078125,283.3091735839844,1.0,461.4046020507813,467.7922668457031,2.0,315.4366455078125,317.69049072265625,3.0,437.062744140625,323.40283203125,4.0,376.560791015625,377.75579833984375,5.0,366.6609191894531,467.7922668457031,,,,,,,,,,,,,,,,,,,,,,,,,,,,,,,,,,,,,,,,,,,,,,,
12077,79813.4904,,,,,,Frage 2,,,,,,,,,,,,,,,,,,,,,,,,,,,,,,,,,,,,,,,,,,,,,,,,,,,,,,,,,,,,,,,,,,,,,1.0,-1.0,-1.0,-1.0,-1.0,-1.0,-1.0,79974.81599999998,-1.0,-1.0,-1.0,-1.0,-1.0,-1.0,4.0,4.0,1.0,,,881.75,151.5,458.913993835449,11.4559733711583,-34069.4959420269,,,,,,,,,,,,,,,,,,
12078,79821.8479,,,,,,Frage 2,,,,,,,,,,,,,,,,,,,,,,,,,,,,,,,,,,,,,,,,,,,,,,,,,,,,,,,,,,,,,,,,,,,,,1.0,995.0,219.0,767.0,89.0,-1.0,-1.0,79983.17300000001,460.53421020507807,458.0740051269531,0.688154399394989,0.4695452153682708,0.5156318545341491,0.470557689666748,0.0,0.0,1.0,881.0,154.0,881.0,154.0,459.304107666016,56.8961814982597,5437.05750847872,,,,,,,,,126.0,4.0,79817.66915,79859.34485,41.6756999999925,0.957832600308468,269.899145325231,15500.5174796984,-15885.631797039,125.942111871382
12079,79830.1588,,,,,,Frage 2,,,,,,,,,,,,,,,,,,,,,,,,,,,,,,,,,,,,,,,,,,,,,,,,,,,,,,,,,,,,,,,,,,,,,1.0,970.0,248.0,767.0,99.0,-1.0,-1.0,79991.48499999999,460.8904724121094,458.3109130859375,0.6881831884384155,0.4700928926467895,0.515363872051239,0.4711696803569793,0.0,0.0,1.0,868.5,173.5,868.5,173.5,459.600692749024,143.407823999339,10409.4192567545,,,,,,,,,126.0,4.0,79817.66915,79859.34485,41.6756999999925,0.957832600308468,269.899145325231,15500.5174796984,-15885.631797039,125.942111871382
12080,79838.4885,,,,,,Frage 2,,,,,,,,,,,,,,,,,,,,,,,,,,,,,,,,,,,,,,,,,,,,,,,,,,,,,,,,,,,,,,,,,,,,,1.0,-1.0,-1.0,-1.0,-1.0,-1.0,-1.0,79999.81400000001,-1.0,-1.0,-1.0,-1.0,-1.0,-1.0,4.0,4.0,1.0,,,918.75,206.75,460.34839630127,269.899145325231,15185.5794717531,,,,,,,,,126.0,4.0,79817.66915,79859.34485,41.6756999999925,0.957832600308468,269.899145325231,15500.5174796984,-15885.631797039,125.942111871382
12081,79841.7517,,,,,,Frage 2,1.0,33.0,0.1555420309305191,0.1919866949319839,0.032002504914999,0.1525441110134124,0.0241771377623081,0.1267553269863128,0.0585882738232612,0.3287661075592041,0.0,0.0229555293917655,0.0012877876870334,99.61602783203124,97.86791229248048,0.0005501993582583,0.1738118678331375,0.0588649176061153,0.0123921893537044,0.0480421781539916,1.5707588545410545e-06,0.1382244527339935,0.0025319438427686,1.082114338874817,0.0012877876870334,0.0026219082064926,0.0001008643812383,0.0055262488313019,0.0229555293917655,9.703345858724788e-05,8.604223251342773,0.002772964304313,0.0243643447756767,0.024295151233673,0.0007521767984144,0.0,,-10.216604232788086,-2.867417573928833,4.6799960136413565,120.69159698486328,1.0,33.0,640.0,480.0,0.0,282.50732421875,279.7042236328125,1.0,461.9268493652344,468.216552734375,2.0,315.2427673339844,315.3168640136719,3.0,435.80120849609375,320.984619140625,4.0,376.1644287109375,373.137939453125,5.0,365.6072692871094,468.216552734375,,,,,,,,,,,,,,,,,,,,,,,,,,,,,,,,,,,,,,,,,,,,,,,
12082,79846.8459,,,,,,Frage 2,,,,,,,,,,,,,,,,,,,,,,,,,,,,,,,,,,,,,,,,,,,,,,,,,,,,,,,,,,,,,,,,,,,,,1.0,969.0,240.0,-1.0,-1.0,-1.0,-1.0,80008.17199999998,461.0960998535156,-1.0,0.6872352361679077,0.4710408151149749,-1.0,-1.0,0.0,4.0,1.0,969.0,240.0,969.0,240.0,461.096099853516,137.136566144761,-15885.631797039,,,,,,,,,126.0,4.0,79817.66915,79859.34485,41.6756999999925,0.957832600308468,269.899145325231,15500.5174796984,-15885.631797039,125.942111871382
12083,79855.1833,,,,,,Frage 2,,,,,,,,,,,,,,,,,,,,,,,,,,,,,,,,,,,,,,,,,,,,,,,,,,,,,,,,,,,,,,,,,,,,,1.0,970.0,246.0,763.0,102.0,-1.0,-1.0,80016.508,460.9920043945313,458.52389526367193,0.6872803568840026,0.4715751111507415,0.5149895548820494,0.4728746116161346,0.0,0.0,1.0,866.5,174.0,866.5,174.0,459.757949829102,266.37058058006,15500.5174796984,,,,,,,,,126.0,4.0,79817.66915,79859.34485,41.6756999999925,0.957832600308468,269.899145325231,15500.5174796984,-15885.631797039,125.942111871382
12084,79863.5064,,,,,,Frage 2,,,,,,,,,,,,,,,,,,,,,,,,,,,,,,,,,,,,,,,,,,,,,,,,,,,,,,,,,,,,,,,,,,,,,1.0,-1.0,-1.0,-1.0,-1.0,-1.0,-1.0,80024.83199999998,-1.0,-1.0,-1.0,-1.0,-1.0,-1.0,4.0,4.0,1.0,,,868.5,177.25,459.683723449707,16.7559904408856,-29990.5792480385,,,,,,,,,,,,,,,,,,
12085,79871.8393,,,,,,Frage 2,,,,,,,,,,,,,,,,,,,,,,,,,,,,,,,,,,,,,,,,,,,,,,,,,,,,,,,,,,,,,,,,,,,,,1.0,975.0,258.0,766.0,103.0,-1.0,-1.0,80033.165,460.61770629882807,458.6012878417969,0.6866538524627686,0.472379595041275,0.5149572491645813,0.4737772345542907,0.0,0.0,1.0,870.5,180.5,870.5,180.5,459.609497070313,6.97862884838304,-1173.34440500817,,,,,,,,,,,,,,,,,,
12086,79873.6661,,,,,,Frage 2,1.0,34.0,0.1886077672243118,0.1917684376239776,0.0421558432281017,0.1802092343568801,0.0241885725408792,0.1266782730817794,0.0613733902573585,0.3287661075592041,0.0,0.0278416406363248,0.0008461969555355,99.616455078125,98.2389373779297,0.0008075633086264,0.2007398754358291,0.0607312582433223,0.0092817675322294,0.0300342664122581,4.03123567593866e-06,0.1547139585018158,0.0027190775144845,2.1537833213806152,0.0008461969555355,0.0013327051419764,0.000215064472286,0.0052716233767569,0.0278416406363248,0.0001478984486311,16.878847122192383,0.0032623710576444,0.0276574492454528,0.02216755785048,0.0013764826580882,0.0,,-7.739264965057373,-1.8925918340682983,4.141165256500244,120.69056701660156,1.0,34.0,640.0,480.0,0.0,281.7726745605469,276.77105712890625,1.0,461.2892456054688,465.94338989257807,2.0,314.040771484375,313.7746276855469,3.0,434.6593627929688,317.9421081542969,4.0,374.4979248046875,368.4573364257813,5.0,365.8927612304688,465.94338989257807,,,,,,,,,,,,,,,,,,,,,,,,,,,,,,,,,,,,,,,,,,,,,,,
12087,79880.1765,,,,,,Frage 2,,,,,,,,,,,,,,,,,,,,,,,,,,,,,,,,,,,,,,,,,,,,,,,,,,,,,,,,,,,,,,,,,,,,,1.0,975.0,256.0,768.0,97.0,-1.0,-1.0,80041.502,460.667236328125,458.86184692382807,0.6866000890731812,0.4729524850845336,0.5146633982658386,0.4744459092617034,0.0,0.0,1.0,871.5,176.5,871.5,176.5,459.764541625977,133.962689096107,15231.02003644,,,,,,,,,127.0,5.0,79876.0079,80034.3151,158.30720000001,4.08335790751072,367.80663984764,20804.2355693226,-30212.0788695658,332.116659379552
12088,79888.4826,,,,,,Frage 2,,,,,,,,,,,,,,,,,,,,,,,,,,,,,,,,,,,,,,,,,,,,,,,,,,,,,,,,,,,,,,,,,,,,,1.0,-1.0,-1.0,-1.0,-1.0,-1.0,-1.0,80049.809,-1.0,-1.0,-1.0,-1.0,-1.0,-1.0,4.0,4.0,1.0,,,920.25,213.75,460.16886138916,275.214422582066,17005.7829168842,,,,,,,,,127.0,5.0,79876.0079,80034.3151,158.30720000001,4.08335790751072,367.80663984764,20804.2355693226,-30212.0788695658,332.116659379552
12089,79896.8432,,,,,,Frage 2,,,,,,,,,,,,,,,,,,,,,,,,,,,,,,,,,,,,,,,,,,,,,,,,,,,,,,,,,,,,,,,,,,,,,1.0,969.0,251.0,-1.0,-1.0,-1.0,-1.0,80058.16899999998,460.57318115234375,-1.0,0.6858366131782531,0.4737293720245361,-1.0,-1.0,0.0,4.0,1.0,969.0,251.0,969.0,251.0,460.573181152344,134.117092631176,-16876.4598175837,,,,,,,,,127.0,5.0,79876.0079,80034.3151,158.30720000001,4.08335790751072,367.80663984764,20804.2355693226,-30212.0788695658,332.116659379552
12090,79905.1533,,,,,,Frage 2,,,,,,,,,,,,,,,,,,,,,,,,,,,,,,,,,,,,,,,,,,,,,,,,,,,,,,,,,,,,,,,,,,,,,1.0,972.0,253.0,769.0,107.0,-1.0,-1.0,80066.47899999998,460.75045776367193,459.1882629394531,0.6860378980636596,0.4741779863834381,0.5145086050033569,0.4758324027061462,0.0,0.0,1.0,870.5,180.0,870.5,180.0,459.969360351563,124.783056960101,-1123.21580619633,,,,,,,,,127.0,5.0,79876.0079,80034.3151,158.30720000001,4.08335790751072,367.80663984764,20804.2355693226,-30212.0788695658,332.116659379552
12091,79905.6121,,,,,,Frage 2,1.0,35.0,0.2661109566688537,0.1916659623384475,0.068950317800045,0.2422020733356475,0.024191178381443,0.1266519725322723,0.0656785070896148,0.7634128332138062,0.0,0.0291283968836069,0.0009360787225887,99.4677734375,97.92632293701173,0.0009360787225887,0.209048256278038,0.060436051338911,0.0077666346915066,0.023466782644391,3.451337079241057e-06,0.1719347089529037,0.0031364292372018,3.755963325500488,0.0006022819434292,0.000688497791998,0.0004323956090956,0.0045067062601447,0.0291283968836069,0.0001570199383422,31.646467208862305,0.0040377089753746,0.0287751164287328,0.019840158522129,0.0030289581045508,0.0,,-6.740170001983643,-2.7255306243896484,4.11826229095459,122.48094177246094,1.0,35.0,640.0,480.0,0.0,282.8520202636719,276.3710632324219,1.0,458.04498291015625,460.5084533691406,2.0,312.07379150390625,312.85504150390625,3.0,434.4743347167969,317.292236328125,4.0,374.26947021484375,365.2144775390625,5.0,364.79736328125,460.5084533691406,,,,,,,,,,,,,,,,,,,,,,,,,,,,,,,,,,,,,,,,,,,,,,,
12092,79913.4991,,,,,,Frage 2,,,,,,,,,,,,,,,,,,,,,,,,,,,,,,,,,,,,,,,,,,,,,,,,,,,,,,,,,,,,,,,,,,,,,1.0,-1.0,-1.0,-1.0,-1.0,-1.0,-1.0,80074.82500000001,-1.0,-1.0,-1.0,-1.0,-1.0,-1.0,4.0,4.0,1.0,,,926.25,216.0,460.451019287109,298.41104617446,20804.2355693226,,,,,,,,,127.0,5.0,79876.0079,80034.3151,158.30720000001,4.08335790751072,367.80663984764,20804.2355693226,-30212.0788695658,332.116659379552
12093,79921.8165,,,,,,Frage 2,,,,,,,,,,,,,,,,,,,,,,,,,,,,,,,,,,,,,,,,,,,,,,,,,,,,,,,,,,,,,,,,,,,,,1.0,982.0,252.0,-1.0,-1.0,-1.0,-1.0,80083.14199999998,460.93267822265625,-1.0,0.6857584118843078,0.4750823378562927,-1.0,-1.0,0.0,4.0,1.0,982.0,252.0,982.0,252.0,460.932678222656,146.591631413114,-18253.2299470204,,,,,,,,,127.0,5.0,79876.0079,80034.3151,158.30720000001,4.08335790751072,367.80663984764,20804.2355693226,-30212.0788695658,332.116659379552
12094,79930.1507,,,,,,Frage 2,,,,,,,,,,,,,,,,,,,,,,,,,,,,,,,,,,,,,,,,,,,,,,,,,,,,,,,,,,,,,,,,,,,,,1.0,985.0,249.0,756.0,114.0,-1.0,-1.0,80091.47700000001,463.97552490234375,462.54595947265625,0.685692012310028,0.4755692183971405,0.5145137906074523,0.477317065000534,0.0,0.0,1.0,870.5,181.5,870.5,181.5,463.2607421875,299.324756037047,18326.0690436969,,,,,,,,,127.0,5.0,79876.0079,80034.3151,158.30720000001,4.08335790751072,367.80663984764,20804.2355693226,-30212.0788695658,332.116659379552
12095,79937.4961,,,,,,Frage 2,1.0,36.0,0.3296789526939392,0.1917347609996795,0.0938183069229125,0.2906266152858734,0.0241963006556034,0.126697152853012,0.0680168196558952,1.4783103466033936,0.0,0.0409335233271121,0.00118634395767,99.34063720703124,98.74436950683594,0.00118634395767,0.1867977678775787,0.0632360950112342,0.0071077807806432,0.0216487478464841,3.1300235150411027e-06,0.1395587474107742,0.002915252931416,4.650972366333008,0.0005715424194931,0.0007535244221799,0.0005699601024389,0.0042488663457334,0.0409335233271121,0.000149989296915,40.88762283325195,0.0048546050675213,0.0292433444410562,0.0182612277567386,0.0065873563289642,0.0,,-8.450054168701174,-0.1755007207393646,3.667666435241699,119.42054748535156,1.0,36.0,640.0,480.0,0.0,283.395751953125,276.2909240722656,1.0,457.3482666015625,459.4207153320313,2.0,313.0793762207032,312.0116577148437,3.0,432.43011474609375,316.0943908691406,4.0,371.6374816894531,365.5419921875,5.0,365.60650634765625,459.4207153320313,,,,,,,,,,,,,,,,,,,,,,,,,,,,,,,,,,,,,,,,,,,,,,,
