Row,Timestamp,EventSource,SlideEvent,StimType,Duration,CollectionPhase,SourceStimuliName,EventSource.1,SampleNumber,Anger,Contempt,Disgust,Fear,Joy,Sadness,Surprise,Engagement,Valence,Sentimentality,Confusion,Neutral,Attention,Brow Furrow,Brow Raise,Cheek Raise,Chin Raise,Dimpler,Eye Closure,Eye Widen,Inner Brow Raise,Jaw Drop,Lip Corner Depressor,Lip Press,Lip Pucker,Lip Stretch,Lip Suck,Lid Tighten,Mouth Open,Nose Wrinkle,Smile,Smirk,Upper Lip Raise,Blink,BlinkRate,Pitch,Yaw,Roll,Interocular Distance,EventSource.2,SampleNumber.1,width,height,feature id_1,feature-x_1,feature-y_1,feature id_2,feature-x_2,feature-y_2,feature id_3,feature-x_3,feature-y_3,feature id_4,feature-x_4,feature-y_4,feature id_5,feature-x_5,feature-y_5,feature id_6,feature-x_6,feature-y_6,EventSource.3,CPU Sys,Memory Sys,CPU Proc,Memory Proc,EventSource.4,ET_GazeLeftx,ET_GazeLefty,ET_GazeRightx,ET_GazeRighty,ET_PupilLeft,ET_PupilRight,ET_TimeSignal,ET_DistanceLeft,ET_DistanceRight,ET_CameraLeftX,ET_CameraLeftY,ET_CameraRightX,ET_CameraRightY,ET_ValidityLeft,ET_ValidityRight,EventSource.5,Gaze X,Gaze Y,Interpolated Gaze X,Interpolated Gaze Y,Interpolated Distance,Gaze Velocity,Gaze Acceleration,Fixation Index,Fixation Index by Stimulus,Fixation X,Fixation Y,Fixation Start,Fixation End,Fixation Duration,Fixation Dispersion,Saccade Index,Saccade Index by Stimulus,Saccade Start,Saccade End,Saccade Duration,Saccade Amplitude,Saccade Peak Velocity,Saccade Peak Acceleration,Saccade Peak Deceleration,Saccade Direction
1,43.4743,1.0,StartSlide,TestImage,90000.0,StimuliDisplay,Frage 1,,,,,,,,,,,,,,,,,,,,,,,,,,,,,,,,,,,,,,,,,,,,,,,,,,,,,,,,,,,,,,,,,,,,,,,,,,,,,,,,,,,,,,,,,,,,,,,,,,,,,,,,,,,,,,
2,47.0043,,,,,,Frage 1,,,,,,,,,,,,,,,,,,,,,,,,,,,,,,,,,,,,,,,,,,,,,,,,,,,,,,,,,,,,,,,,,,,,,1.0,-1.0,-1.0,332.0,1014.0,-1.0,-1.0,208.33000000000172,-1.0,445.2642211914063,-1.0,-1.0,0.543919026851654,0.5348998308181762,4.0,0.0,1.0,332.0,1014.0,332.0,1014.0,445.264221191406,176.842451489068,-31301.4178242351,,,,,,,,,1.0,,9.42675,109.41535,99.9886,6.06965648583709,438.753934991573,45081.4517891991,-44163.260464667,329.133190548863
3,55.2524,,,,,,Frage 1,,,,,,,,,,,,,,,,,,,,,,,,,,,,,,,,,,,,,,,,,,,,,,,,,,,,,,,,,,,,,,,,,,,,,1.0,660.0,812.0,342.0,1011.0,-1.0,-1.0,216.5779999999941,449.4269714355469,443.4494934082031,0.7223098278045654,0.5485612750053405,0.5438197255134583,0.5349504947662354,0.0,0.0,1.0,501.0,911.5,501.0,911.5,446.438232421875,401.842967342788,27279.0722534547,,,,,,,,,1.0,,9.42675,109.41535,99.9886,6.06965648583709,438.753934991573,45081.4517891991,-44163.260464667,329.133190548863
4,63.6207,,,,,,Frage 1,,,,,,,,,,,,,,,,,,,,,,,,,,,,,,,,,,,,,,,,,,,,,,,,,,,,,,,,,,,,,,,,,,,,,1.0,-1.0,-1.0,-1.0,-1.0,-1.0,-1.0,224.9470000000001,-1.0,-1.0,-1.0,-1.0,-1.0,-1.0,4.0,4.0,1.0,,,506.0,905.5,445.891586303711,32.2715547963148,-44163.260464667,,,,,,,,,1.0,,9.42675,109.41535,99.9886,6.06965648583709,438.753934991573,45081.4517891991,-44163.260464667,329.133190548863
5,66.546,,,,,,Frage 1,1.0,-1.0,0.169157937169075,0.2228688895702362,0.0381745807826519,0.1789007633924484,0.0521494373679161,0.1053217574954032,0.0622626170516014,7.155300617218018,0.0,5.548087596893311,0.0216153990477323,99.55426025390624,90.76811218261719,0.0216153990477323,2.8020706176757812,2.744220733642578,0.9165763854980468,37.84058380126953,91.46037292480467,0.0037591827567666,0.0045304363593459,0.0470445752143859,0.0194909367710351,5.8635239601135245,0.0008748832042329,5.494732379913329,58.63521957397461,0.002940199105069,18.138284683227536,0.1805880665779113,5.548087596893311,5.943598747253418,0.0755868926644325,0.0,66.0,-30.918558120727536,-10.571779251098633,2.197884321212769,113.8969955444336,1.0,-1.0,640.0,480.0,0.0,318.2937927246094,327.4394836425781,1.0,452.0338134765625,461.1795043945313,2.0,329.1189880371094,358.32110595703125,3.0,442.8685302734375,352.52740478515625,4.0,395.7726745605469,407.7584533691406,5.0,383.50384521484375,458.6310424804688,,,,,,,,,,,,,,,,,,,,,,,,,,,,,,,,,,,,,,,,,,,,,,,
6,71.9176,,,,,,Frage 1,,,,,,,,,,,,,,,,,,,,,,,,,,,,,,,,,,,,,,,,,,,,,,,,,,,,,,,,,,,,,,,,,,,,,1.0,681.0,788.0,341.0,1011.0,-1.0,-1.0,233.2430000000022,447.8894653320313,442.8004150390625,0.7215161323547363,0.548426330089569,0.542729377746582,0.5352264046669006,0.0,0.0,1.0,511.0,899.5,511.0,899.5,445.344940185547,32.9017400002252,75.9542966542178,,,,,,,,,1.0,,9.42675,109.41535,99.9886,6.06965648583709,438.753934991573,45081.4517891991,-44163.260464667,329.133190548863
7,80.2493,,,,,,Frage 1,,,,,,,,,,,,,,,,,,,,,,,,,,,,,,,,,,,,,,,,,,,,,,,,,,,,,,,,,,,,,,,,,,,,,1.0,675.0,778.0,344.0,1003.0,-1.0,-1.0,241.5749999999971,448.0171508789063,443.396728515625,0.7210476994514465,0.5484399199485778,0.5424009561538696,0.5350661277770996,0.0,0.0,1.0,509.5,890.5,509.5,890.5,445.706939697266,193.229555419932,19243.1094998268,,,,,,,,,1.0,,9.42675,109.41535,99.9886,6.06965648583709,438.753934991573,45081.4517891991,-44163.260464667,329.133190548863
8,88.583,,,,,,Frage 1,,,,,,,,,,,,,,,,,,,,,,,,,,,,,,,,,,,,,,,,,,,,,,,,,,,,,,,,,,,,,,,,,,,,,1.0,-1.0,-1.0,-1.0,-1.0,-1.0,-1.0,249.90899999999965,-1.0,-1.0,-1.0,-1.0,-1.0,-1.0,4.0,4.0,1.0,,,427.75,946.25,444.950744628906,390.37989746825,23657.0001377921,,,,,,,,,1.0,,9.42675,109.41535,99.9886,6.06965648583709,438.753934991573,45081.4517891991,-44163.260464667,329.133190548863
9,96.9131,,,,,,Frage 1,,,,,,,,,,,,,,,,,,,,,,,,,,,,,,,,,,,,,,,,,,,,,,,,,,,,,,,,,,,,,,,,,,,,,1.0,-1.0,-1.0,346.0,1002.0,-1.0,-1.0,258.2390000000014,-1.0,444.1945495605469,-1.0,-1.0,0.5412280559539794,0.5353332161903381,4.0,0.0,1.0,346.0,1002.0,346.0,1002.0,444.194549560547,197.605769547132,-23141.8743978005,,,,,,,,,1.0,,9.42675,109.41535,99.9886,6.06965648583709,438.753934991573,45081.4517891991,-44163.260464667,329.133190548863
10,97.3959,,,,,,Frage 1,1.0,-1.0,0.1525802910327911,0.3025063574314117,0.0338603630661964,0.1601955443620681,0.0576206371188163,0.1038423776626586,0.0605609156191349,5.6421098709106445,0.7210116386413574,6.44976043701172,0.0234304890036582,99.39498901367188,91.61872863769533,0.0200745593756437,2.1435163021087646,2.728963851928711,1.1793224811553955,38.256832122802734,33.021812438964844,0.0025997068732976,0.0055181654170155,0.0402832441031932,0.0234304890036582,4.680511474609375,0.0013244480360299,5.50484561920166,55.55039978027344,0.0052468026988208,15.200024604797363,0.1764364838600158,6.44976043701172,9.3084659576416,0.0655053257942199,1.0,72.0,-31.405424118041992,-10.041818618774414,1.829456090927124,113.76374053955078,1.0,-1.0,640.0,480.0,0.0,317.7926025390625,325.93463134765625,1.0,453.1063232421875,461.2483520507813,2.0,329.182373046875,357.51300048828125,3.0,442.7315673828125,350.5294494628906,4.0,395.51605224609375,407.4727478027344,5.0,384.4344787597656,458.8507995605469,,,,,,,,,,,,,,,,,,,,,,,,,,,,,,,,,,,,,,,,,,,,,,,
11,105.2464,,,,,,Frage 1,,,,,,,,,,,,,,,,,,,,,,,,,,,,,,,,,,,,,,,,,,,,,,,,,,,,,,,,,,,,,,,,,,,,,1.0,687.0,803.0,336.0,990.0,-1.0,-1.0,266.573000000004,447.9827880859375,444.5443420410156,0.7198637127876281,0.5482479333877563,0.5409624576568604,0.5351666212081909,0.0,0.0,1.0,511.5,896.5,511.5,896.5,446.263565063477,383.835745015529,22347.6864469534,,,,,,,,,1.0,,9.42675,109.41535,99.9886,6.06965648583709,438.753934991573,45081.4517891991,-44163.260464667,329.133190548863
12,113.5843,,,,,,Frage 1,,,,,,,,,,,,,,,,,,,,,,,,,,,,,,,,,,,,,,,,,,,,,,,,,,,,,,,,,,,,,,,,,,,,,1.0,-1.0,-1.0,-1.0,-1.0,-1.0,-1.0,274.9100000000035,-1.0,-1.0,-1.0,-1.0,-1.0,-1.0,4.0,4.0,1.0,,,509.5,895.5,446.355270385742,9.83054689867179,-44856.0426626437,,,,,,,,,,,,,,,,,,
13,121.9122,,,,,,Frage 1,,,,,,,,,,,,,,,,,,,,,,,,,,,,,,,,,,,,,,,,,,,,,,,,,,,,,,,,,,,,,,,,,,,,,1.0,688.0,795.0,327.0,994.0,-1.0,-1.0,283.23699999999366,447.9088134765625,444.9851379394531,0.7192625999450682,0.548272430896759,0.5398349165916442,0.5352841615676879,0.0,0.0,1.0,507.5,894.5,507.5,894.5,446.446975708008,46.7580036463446,4434.18589892684,,,,,,,,,2.0,,117.74825,134.42995,16.6817,0.821097248955617,52.6670691976646,4434.18589892684,,274.184916125118
14,130.2651,,,,,,Frage 1,,,,,,,,,,,,,,,,,,,,,,,,,,,,,,,,,,,,,,,,,,,,,,,,,,,,,,,,,,,,,,,,,,,,,1.0,692.0,754.0,326.0,994.0,-1.0,-1.0,291.59100000000035,447.9645080566406,445.1982116699218,0.7186205983161926,0.5480255484580993,0.5396339893341064,0.5350387096405029,0.0,0.0,1.0,509.0,874.0,509.0,874.0,446.581359863281,52.6670691976646,707.426827966333,,,,,,,,,2.0,,117.74825,134.42995,16.6817,0.821097248955617,52.6670691976646,4434.18589892684,,274.184916125118
15,137.2893,1.0,StartMedia,TestImage,90000.0,StimuliDisplay,Frage 1,,,,,,,,,,,,,,,,,,,,,,,,,,,,,,,,,,,,,,,,,,,,,,,,,,,,,,,,,,,,,,,,,,,,,,,,,,,,,,,,,,,,,,,,,,,,,,,,,,,,,,,,,,,,,,
16,138.5948,,,,,,Frage 1,,,,,,,,,,,,,,,,,,,,,,,,,,,,,,,,,,,,,,,,,,,,,,,,,,,,,,,,,,,,,,,,,,,,,1.0,-1.0,-1.0,-1.0,-1.0,-1.0,-1.0,299.91999999999825,-1.0,-1.0,-1.0,-1.0,-1.0,-1.0,4.0,4.0,1.0,,,511.0,870.25,446.642974853516,17.9544362086757,-4167.33291582996,,,,,,,,,,,,,,,,,,
17,145.7836,,,,,,Frage 1,1.0,0.0,0.13685804605484,0.3010234236717224,0.0302244089543819,0.1461593955755233,0.0656618028879165,0.1019616946578025,0.0597641728818416,5.219660758972168,2.178019762039185,7.399404048919677,0.0332962721586227,99.39794921875,91.0346908569336,0.0181558933109045,1.829630970954895,3.164383172988892,1.363566756248474,29.302356719970703,8.233884811401367,0.0020322015043348,0.006699800491333,0.0355243794620037,0.0332962721586227,3.2153913974761963,0.0018391325138509,5.772822856903076,54.09089279174805,0.0086967116221785,12.541947364807127,0.1822709441184997,7.399404048919677,9.859007835388184,0.0697565004229545,0.0,72.0,-30.473800659179688,-10.41061305999756,1.3687536716461182,113.11754608154295,1.0,0.0,640.0,480.0,0.0,317.9606628417969,326.0578918457032,1.0,452.8457946777344,460.9430236816406,2.0,329.0165100097656,356.77569580078125,3.0,441.9749450683594,350.77813720703125,4.0,395.7239379882813,406.9728698730469,5.0,385.21823120117193,459.47512817382807,,,,,,,,,,,,,,,,,,,,,,,,,,,,,,,,,,,,,,,,,,,,,,,
18,146.9219,,,,,,Frage 1,,,,,,,,,,,,,,,,,,,,,,,,,,,,,,,,,,,,,,,,,,,,,,,,,,,,,,,,,,,,,,,,,,,,,1.0,700.0,741.0,326.0,992.0,-1.0,-1.0,308.2479999999923,448.07369995117193,445.33547973632807,0.7179967164993286,0.5478620529174804,0.5385817289352417,0.5351396203041076,0.0,0.0,1.0,513.0,866.5,513.0,866.5,446.70458984375,7.54455580621939,-1250.12073860724,,,,,,,,,,,,,,,,,,
19,155.2764,,,,,,Frage 1,,,,,,,,,,,,,,,,,,,,,,,,,,,,,,,,,,,,,,,,,,,,,,,,,,,,,,,,,,,,,,,,,,,,,1.0,703.0,745.0,326.0,994.0,-1.0,-1.0,316.6019999999989,449.0462646484375,445.9797668457031,0.7172918319702148,0.5475806593894958,0.5383389592170715,0.5346764922142028,0.0,0.0,1.0,514.5,869.5,514.5,869.5,447.51301574707,355.528233425232,41652.2446129646,,,,,,,,,3.0,1.0,151.09915,234.53455,83.4354,18.4558387584734,461.981094187575,41652.2446129646,-24840.9697083805,296.565051177078
20,163.6062,,,,,,Frage 1,,,,,,,,,,,,,,,,,,,,,,,,,,,,,,,,,,,,,,,,,,,,,,,,,,,,,,,,,,,,,,,,,,,,,1.0,-1.0,-1.0,366.0,968.0,-1.0,4.009323120117188,324.9320000000007,-1.0,446.3023986816406,-1.0,-1.0,0.5377078652381897,0.5342878699302673,4.0,0.0,1.0,366.0,968.0,366.0,968.0,446.302398681641,148.607923948365,-24840.9697083805,,,,,,,,,3.0,1.0,151.09915,234.53455,83.4354,18.4558387584734,461.981094187575,41652.2446129646,-24840.9697083805,296.565051177078
21,171.9345,,,,,,Frage 1,,,,,,,,,,,,,,,,,,,,,,,,,,,,,,,,,,,,,,,,,,,,,,,,,,,,,,,,,,,,,,,,,,,,,1.0,-1.0,-1.0,452.0,906.0,-1.0,-1.0,333.2599999999948,-1.0,446.3316040039063,-1.0,-1.0,0.5364803671836853,0.5336586833000183,4.0,0.0,1.0,452.0,906.0,452.0,906.0,446.331604003906,207.773110486872,7104.11326903542,,,,,,,,,3.0,1.0,151.09915,234.53455,83.4354,18.4558387584734,461.981094187575,41652.2446129646,-24840.9697083805,296.565051177078
22,180.2595,,,,,,Frage 1,,,,,,,,,,,,,,,,,,,,,,,,,,,,,,,,,,,,,,,,,,,,,,,,,,,,,,,,,,,,,,,,,,,,,1.0,-1.0,-1.0,452.0,906.0,-1.0,-1.0,341.58400000000256,-1.0,446.4359436035156,-1.0,-1.0,0.5359423756599426,0.5326238870620728,4.0,0.0,1.0,452.0,906.0,452.0,906.0,446.435943603516,218.061813544974,1235.88024721941,,,,,,,,,3.0,1.0,151.09915,234.53455,83.4354,18.4558387584734,461.981094187575,41652.2446129646,-24840.9697083805,296.565051177078
23,188.576,,,,,,Frage 1,,,,,,,,,,,,,,,,,,,,,,,,,,,,,,,,,,,,,,,,,,,,,,,,,,,,,,,,,,,,,,,,,,,,,1.0,-1.0,-1.0,-1.0,-1.0,-1.0,-1.0,349.90200000000186,-1.0,-1.0,-1.0,-1.0,-1.0,-1.0,4.0,4.0,1.0,,,519.833333333333,826.0,447.539393107096,444.953763782432,27282.1439592928,,,,,,,,,3.0,1.0,151.09915,234.53455,83.4354,18.4558387584734,461.981094187575,41652.2446129646,-24840.9697083805,296.565051177078
24,196.9152,,,,,,Frage 1,,,,,,,,,,,,,,,,,,,,,,,,,,,,,,,,,,,,,,,,,,,,,,,,,,,,,,,,,,,,,,,,,,,,,1.0,-1.0,-1.0,-1.0,-1.0,-1.0,-1.0,358.24099999999453,-1.0,-1.0,-1.0,-1.0,-1.0,-1.0,4.0,4.0,1.0,,,587.666666666667,746.0,448.642842610677,461.981094187575,2041.84219171422,,,,,,,,,3.0,1.0,151.09915,234.53455,83.4354,18.4558387584734,461.981094187575,41652.2446129646,-24840.9697083805,296.565051177078
25,205.2525,,,,,,Frage 1,,,,,,,,,,,,,,,,,,,,,,,,,,,,,,,,,,,,,,,,,,,,,,,,,,,,,,,,,,,,,,,,,,,,,1.0,859.0,426.0,452.0,906.0,-1.0,-1.0,366.5789999999979,453.0087585449218,446.48382568359375,0.7117659449577332,0.544305682182312,0.5340609550476074,0.5317434668540953,0.0,0.0,1.0,655.5,666.0,655.5,666.0,449.746292114258,392.383080432375,-8347.78810348686,,,,,,,,,3.0,1.0,151.09915,234.53455,83.4354,18.4558387584734,461.981094187575,41652.2446129646,-24840.9697083805,296.565051177078
26,213.6068,,,,,,Frage 1,,,,,,,,,,,,,,,,,,,,,,,,,,,,,,,,,,,,,,,,,,,,,,,,,,,,,,,,,,,,,,,,,,,,,1.0,-1.0,-1.0,-1.0,-1.0,-1.0,-1.0,374.9320000000007,-1.0,-1.0,-1.0,-1.0,-1.0,-1.0,4.0,4.0,1.0,,,625.75,578.0,448.103752136231,430.5077788079,4563.48208413942,,,,,,,,,3.0,1.0,151.09915,234.53455,83.4354,18.4558387584734,461.981094187575,41652.2446129646,-24840.9697083805,296.565051177078
27,221.9388,,,,,,Frage 1,,,,,,,,,,,,,,,,,,,,,,,,,,,,,,,,,,,,,,,,,,,,,,,,,,,,,,,,,,,,,,,,,,,,,1.0,-1.0,-1.0,596.0,490.0,-1.0,-1.0,383.26300000000634,-1.0,446.4612121582031,-1.0,-1.0,0.5327998995780944,0.5315159559249877,4.0,0.0,1.0,596.0,490.0,596.0,490.0,446.461212158203,372.378110623162,-6976.67645040065,,,,,,,,,3.0,1.0,151.09915,234.53455,83.4354,18.4558387584734,461.981094187575,41652.2446129646,-24840.9697083805,296.565051177078
28,230.3164,,,,,,Frage 1,,,,,,,,,,,,,,,,,,,,,,,,,,,,,,,,,,,,,,,,,,,,,,,,,,,,,,,,,,,,,,,,,,,,,1.0,850.0,410.0,597.0,493.0,-1.0,-1.0,391.6070000000036,454.516357421875,446.491455078125,0.7107238173484802,0.5438669919967651,0.5324196815490722,0.5313362479209899,0.0,0.0,1.0,723.5,451.5,723.5,451.5,450.50390625,287.346101136518,-10149.924738188,,,,,,,,,3.0,1.0,151.09915,234.53455,83.4354,18.4558387584734,461.981094187575,41652.2446129646,-24840.9697083805,296.565051177078
29,238.7527,,,,,,Frage 1,,,,,,,,,,,,,,,,,,,,,,,,,,,,,,,,,,,,,,,,,,,,,,,,,,,,,,,,,,,,,,,,,,,,,1.0,-1.0,-1.0,-1.0,-1.0,-1.0,-1.0,400.0770000000048,-1.0,-1.0,-1.0,-1.0,-1.0,-1.0,4.0,4.0,1.0,,,717.5,453.0,450.707588195801,28.6113941354997,-30669.216007138,1.0,1.0,686.125384054536,470.374774217939,234.53455,301.09115,66.5566,2.24209623856359,,,,,,,,,,
30,246.9815,,,,,,Frage 1,,,,,,,,,,,,,,,,,,,,,,,,,,,,,,,,,,,,,,,,,,,,,,,,,,,,,,,,,,,,,,,,,,,,,1.0,826.0,410.0,597.0,499.0,-1.0,-1.0,408.3080000000045,455.36135864257807,446.461181640625,0.7082063555717468,0.5439524054527282,0.531162679195404,0.5309020280838012,0.0,0.0,1.0,711.5,454.5,711.5,454.5,450.911270141602,310.387314344978,34242.6502296178,1.0,1.0,686.125384054536,470.374774217939,234.53455,301.09115,66.5566,2.24209623856359,,,,,,,,,,
31,255.2313,,,,,,Frage 1,,,,,,,,,,,,,,,,,,,,,,,,,,,,,,,,,,,,,,,,,,,,,,,,,,,,,,,,,,,,,,,,,,,,,1.0,-1.0,-1.0,596.0,510.0,-1.0,-1.0,416.5570000000007,-1.0,446.60400390625,-1.0,-1.0,0.5307364463806152,0.5307236909866333,4.0,0.0,1.0,596.0,510.0,596.0,510.0,446.60400390625,295.961633094759,-1748.60981480998,1.0,1.0,686.125384054536,470.374774217939,234.53455,301.09115,66.5566,2.24209623856359,,,,,,,,,,
32,263.5675,,,,,,Frage 1,,,,,,,,,,,,,,,,,,,,,,,,,,,,,,,,,,,,,,,,,,,,,,,,,,,,,,,,,,,,,,,,,,,,,1.0,-1.0,-1.0,-1.0,-1.0,-1.0,-1.0,424.8940000000002,-1.0,-1.0,-1.0,-1.0,-1.0,-1.0,4.0,4.0,1.0,,,597.0,511.0,446.674987792969,6.45334416015238,-34729.0478796822,1.0,1.0,686.125384054536,470.374774217939,234.53455,301.09115,66.5566,2.24209623856359,,,,,,,,,,
33,271.8954,,,,,,Frage 1,,,,,,,,,,,,,,,,,,,,,,,,,,,,,,,,,,,,,,,,,,,,,,,,,,,,,,,,,,,,,,,,,,,,,1.0,-1.0,-1.0,598.0,512.0,-1.0,-1.0,433.22100000000495,-1.0,446.7459716796875,-1.0,-1.0,0.5293719768524169,0.5303379297256469,4.0,0.0,1.0,598.0,512.0,598.0,512.0,446.745971679688,286.193444856086,33590.7132285371,1.0,1.0,686.125384054536,470.374774217939,234.53455,301.09115,66.5566,2.24209623856359,,,,,,,,,,
34,273.0144,,,,,,Frage 1,1.0,1.0,,,,,,,,,,,,,,,,,,,,,,,,,,,,,,,,,,,,,,,,1.0,1.0,640.0,480.0,,,,,,,,,,,,,,,,,,,,,,,,,,,,,,,,,,,,,,,,,,,,,,,,,,,,,,,,,,,,,,,,,
35,275.013,,,,,,Frage 1,1.0,2.0,,,,,,,,,,,,,,,,,,,,,,,,,,,,,,,,,,,,,,,,1.0,2.0,640.0,480.0,,,,,,,,,,,,,,,,,,,,,,,,,,,,,,,,,,,,,,,,,,,,,,,,,,,,,,,,,,,,,,,,,
36,277.4926,,,,,,Frage 1,1.0,3.0,,,,,,,,,,,,,,,,,,,,,,,,,,,,,,,,,,,,,,,,1.0,3.0,640.0,480.0,,,,,,,,,,,,,,,,,,,,,,,,,,,,,,,,,,,,,,,,,,,,,,,,,,,,,,,,,,,,,,,,,
37,279.9992,,,,,,Frage 1,1.0,4.0,0.1252905279397964,0.3384952545166015,0.0271772965788841,0.134201094508171,0.0707053169608116,0.1014474779367446,0.0584380887448787,4.469377040863037,2.959028720855713,8.0931396484375,0.0441989861428737,99.32300567626952,93.24713134765624,0.0179163198918104,1.2924474477767944,3.1041510105133057,1.8232123851776123,30.689987182617188,1.4078750610351565,0.0012176291784271,0.0102776233106851,0.0311005786061286,0.0441989861428737,2.4647424221038814,0.0026387772522866,6.728524208068848,52.12183380126953,0.0169463735073804,9.650720596313475,0.1490308940410614,8.0931396484375,11.33010959625244,0.0617596358060836,0.0,72.0,-31.332204818725582,-8.873567581176758,1.4132574796676636,114.63285064697266,1.0,4.0,640.0,480.0,0.0,316.94244384765625,325.9259338378906,1.0,451.9112548828125,460.8947448730469,2.0,327.3324584960937,356.3236083984375,3.0,441.83306884765625,350.8189697265625,4.0,393.45068359375,407.4039611816406,5.0,384.1151123046875,459.0948181152344,,,,,,,,,,,,,,,,,,,,,,,,,,,,,,,,,,,,,,,,,,,,,,,
38,280.2574,,,,,,Frage 1,,,,,,,,,,,,,,,,,,,,,,,,,,,,,,,,,,,,,,,,,,,,,,,,,,,,,,,,,,,,,,,,,,,,,1.0,823.0,409.0,596.0,507.0,-1.0,-1.0,441.5829999999987,456.8903198242188,446.9774475097656,0.7075670957565307,0.5420646667480468,0.5289134979248046,0.5301464200019836,0.0,0.0,1.0,709.5,458.0,709.5,458.0,451.933883666992,289.050642689142,341.688332104257,1.0,1.0,686.125384054536,470.374774217939,234.53455,301.09115,66.5566,2.24209623856359,,,,,,,,,,
39,288.5969,,,,,,Frage 1,,,,,,,,,,,,,,,,,,,,,,,,,,,,,,,,,,,,,,,,,,,,,,,,,,,,,,,,,,,,,,,,,,,,,1.0,-1.0,-1.0,-1.0,-1.0,-1.0,-1.0,449.9229999999952,-1.0,-1.0,-1.0,-1.0,-1.0,-1.0,4.0,4.0,1.0,,,713.166666666667,458.5,452.061126708984,16.9803478298033,-32624.2934060002,1.0,1.0,686.125384054536,470.374774217939,234.53455,301.09115,66.5566,2.24209623856359,,,,,,,,,,
40,296.9304,,,,,,Frage 1,,,,,,,,,,,,,,,,,,,,,,,,,,,,,,,,,,,,,,,,,,,,,,,,,,,,,,,,,,,,,,,,,,,,,1.0,-1.0,-1.0,-1.0,-1.0,-1.0,-1.0,458.25100000000384,-1.0,-1.0,-1.0,-1.0,-1.0,-1.0,4.0,4.0,1.0,,,716.833333333333,459.0,452.188369750977,17.0089307021547,3.4298760846493,1.0,1.0,686.125384054536,470.374774217939,234.53455,301.09115,66.5566,2.24209623856359,,,,,,,,,,
41,305.2519,,,,,,Frage 1,,,,,,,,,,,,,,,,,,,,,,,,,,,,,,,,,,,,,,,,,,,,,,,,,,,,,,,,,,,,,,,,,,,,,1.0,846.0,405.0,595.0,514.0,-1.0,-1.0,466.57799999999406,457.4691467285156,447.1620788574218,0.7060153484344482,0.5409127473831176,0.5274232625961303,0.5291744470596313,0.0,0.0,1.0,720.5,459.5,720.5,459.5,452.315612792969,252.504798667607,28299.68971525,,,,,,,,,4.0,2.0,301.09115,509.3855,208.29435,12.4732231385172,740.297923729452,72152.710433085,-43764.2657949982,277.001267557495
42,313.6009,,,,,,Frage 1,,,,,,,,,,,,,,,,,,,,,,,,,,,,,,,,,,,,,,,,,,,,,,,,,,,,,,,,,,,,,,,,,,,,,1.0,-1.0,-1.0,-1.0,-1.0,-1.0,-1.0,474.926999999996,-1.0,-1.0,-1.0,-1.0,-1.0,-1.0,4.0,4.0,1.0,,,617.333333333333,408.333333333333,450.635080973307,512.381686628003,31126.7083435615,,,,,,,,,4.0,2.0,301.09115,509.3855,208.29435,12.4732231385172,740.297923729452,72152.710433085,-43764.2657949982,277.001267557495
43,321.9485,,,,,,Frage 1,,,,,,,,,,,,,,,,,,,,,,,,,,,,,,,,,,,,,,,,,,,,,,,,,,,,,,,,,,,,,,,,,,,,,1.0,-1.0,-1.0,-1.0,-1.0,-1.0,-1.0,483.2749999999942,-1.0,-1.0,-1.0,-1.0,-1.0,-1.0,4.0,4.0,1.0,,,514.166666666667,357.166666666667,448.954549153646,494.612636627696,-2128.64176533457,,,,,,,,,4.0,2.0,301.09115,509.3855,208.29435,12.4732231385172,740.297923729452,72152.710433085,-43764.2657949982,277.001267557495
44,330.2288,,,,,,Frage 1,,,,,,,,,,,,,,,,,,,,,,,,,,,,,,,,,,,,,,,,,,,,,,,,,,,,,,,,,,,,,,,,,,,,,1.0,-1.0,-1.0,411.0,306.0,-1.0,-1.0,491.55499999999296,-1.0,447.2740173339844,-1.0,-1.0,0.5267565846443176,0.5267463326454161,4.0,0.0,1.0,411.0,306.0,411.0,306.0,447.274017333984,214.007914248143,-33888.2313901133,,,,,,,,,4.0,2.0,301.09115,509.3855,208.29435,12.4732231385172,740.297923729452,72152.710433085,-43764.2657949982,277.001267557495
45,338.6105,,,,,,Frage 1,,,,,,,,,,,,,,,,,,,,,,,,,,,,,,,,,,,,,,,,,,,,,,,,,,,,,,,,,,,,,,,,,,,,,1.0,-1.0,-1.0,-1.0,-1.0,-1.0,-1.0,499.9360000000015,-1.0,-1.0,-1.0,-1.0,-1.0,-1.0,4.0,4.0,1.0,,,474.666666666667,267.0,449.092142740885,325.725703802448,13328.7745390918,,,,,,,,,4.0,2.0,301.09115,509.3855,208.29435,12.4732231385172,740.297923729452,72152.710433085,-43764.2657949982,277.001267557495
46,346.9406,,,,,,Frage 1,,,,,,,,,,,,,,,,,,,,,,,,,,,,,,,,,,,,,,,,,,,,,,,,,,,,,,,,,,,,,,,,,,,,,1.0,-1.0,-1.0,-1.0,-1.0,-1.0,-1.0,508.2639999999956,-1.0,-1.0,-1.0,-1.0,-1.0,-1.0,4.0,4.0,1.0,,,538.333333333333,228.0,450.910268147787,330.479153243786,570.635339472251,,,,,,,,,4.0,2.0,301.09115,509.3855,208.29435,12.4732231385172,740.297923729452,72152.710433085,-43764.2657949982,277.001267557495
47,355.2667,,,,,,Frage 1,,,,,,,,,,,,,,,,,,,,,,,,,,,,,,,,,,,,,,,,,,,,,,,,,,,,,,,,,,,,,,,,,,,,,1.0,754.0,185.0,450.0,193.0,-1.0,-1.0,516.5920000000042,458.1534423828125,447.3033447265625,0.7027767896652221,0.537457764148712,0.5247365236282348,0.5259335041046141,0.0,0.0,1.0,602.0,189.0,602.0,189.0,452.728393554688,78.8131609802208,-30226.1553744929,,,,,,,,,4.0,2.0,301.09115,509.3855,208.29435,12.4732231385172,740.297923729452,72152.710433085,-43764.2657949982,277.001267557495
48,363.5973,,,,,,Frage 1,,,,,,,,,,,,,,,,,,,,,,,,,,,,,,,,,,,,,,,,,,,,,,,,,,,,,,,,,,,,,,,,,,,,,1.0,-1.0,-1.0,-1.0,-1.0,-1.0,-1.0,524.9239999999991,-1.0,-1.0,-1.0,-1.0,-1.0,-1.0,4.0,4.0,1.0,,,519.5,195.5,450.000686645508,354.683967688693,33115.3586426514,,,,,,,,,4.0,2.0,301.09115,509.3855,208.29435,12.4732231385172,740.297923729452,72152.710433085,-43764.2657949982,277.001267557495
49,371.8853,,,,,,Frage 1,,,,,,,,,,,,,,,,,,,,,,,,,,,,,,,,,,,,,,,,,,,,,,,,,,,,,,,,,,,,,,,,,,,,,1.0,-1.0,-1.0,437.0,202.0,-1.0,-1.0,533.2109999999957,-1.0,447.27297973632807,-1.0,-1.0,0.5232718586921691,0.5257068872451782,4.0,0.0,1.0,437.0,202.0,437.0,202.0,447.272979736328,166.208072340619,-22740.8174889086,,,,,,,,,4.0,2.0,301.09115,509.3855,208.29435,12.4732231385172,740.297923729452,72152.710433085,-43764.2657949982,277.001267557495
50,380.2326,,,,,,Frage 1,,,,,,,,,,,,,,,,,,,,,,,,,,,,,,,,,,,,,,,,,,,,,,,,,,,,,,,,,,,,,,,,,,,,,1.0,750.0,194.0,442.0,217.0,-1.0,-1.0,541.5589999999937,458.9571228027344,447.93463134765625,0.7013999223709106,0.5362546443939209,0.5231380462646484,0.5248845815658569,0.0,0.0,1.0,596.0,205.5,596.0,205.5,453.445877075195,174.854203261256,1035.79971016218,,,,,,,,,4.0,2.0,301.09115,509.3855,208.29435,12.4732231385172,740.297923729452,72152.710433085,-43764.2657949982,277.001267557495
51,383.4,,,,,,Frage 1,1.0,5.0,,,,,,,,,,,,,,,,,,,,,,,,,,,,,,,,,,,,,,,,1.0,5.0,640.0,480.0,,,,,,,,,,,,,,,,,,,,,,,,,,,,,,,,,,,,,,,,,,,,,,,,,,,,,,,,,,,,,,,,,
52,385.3967,,,,,,Frage 1,1.0,6.0,,,,,,,,,,,,,,,,,,,,,,,,,,,,,,,,,,,,,,,,1.0,6.0,640.0,480.0,,,,,,,,,,,,,,,,,,,,,,,,,,,,,,,,,,,,,,,,,,,,,,,,,,,,,,,,,,,,,,,,,
53,388.3911,,,,,,Frage 1,1.0,7.0,0.1012722626328468,0.2265166938304901,0.020460657775402,0.1112835332751274,0.0708673521876335,0.0970294922590255,0.0576771199703216,1.241766095161438,3.5388274192810054,9.054289817810057,0.0469005554914474,99.54696655273438,95.52853393554688,0.0119253974407911,0.9855047464370728,1.2505382299423218,1.5742524862289429,25.380237579345703,0.0484893172979354,0.0030184565111994,0.0144289722666144,0.0173363387584686,0.1160736978054046,1.1828570365905762,0.0087477713823318,6.326214790344238,37.483501434326165,0.0065049692057073,2.570389032363892,0.0469005554914474,9.054289817810057,8.146560668945312,0.0133303282782435,0.0,72.0,-34.45358657836914,-6.691450595855713,1.5272523164749146,116.17366027832033,1.0,7.0,640.0,480.0,0.0,315.4877014160156,326.1353759765625,1.0,446.224853515625,456.87249755859375,2.0,323.0936279296875,354.44293212890625,3.0,439.2068786621094,350.6970520019532,4.0,387.9617309570313,406.9700012207031,5.0,380.268310546875,453.90573120117193,,,,,,,,,,,,,,,,,,,,,,,,,,,,,,,,,,,,,,,,,,,,,,,
54,388.5553,,,,,,Frage 1,,,,,,,,,,,,,,,,,,,,,,,,,,,,,,,,,,,,,,,,,,,,,,,,,,,,,,,,,,,,,,,,,,,,,1.0,-1.0,-1.0,-1.0,-1.0,-1.0,-1.0,549.8819999999978,-1.0,-1.0,-1.0,-1.0,-1.0,-1.0,4.0,4.0,1.0,,,520.5,217.25,450.285011291504,328.421680851073,18451.6416054666,,,,,,,,,4.0,2.0,301.09115,509.3855,208.29435,12.4732231385172,740.297923729452,72152.710433085,-43764.2657949982,277.001267557495
55,396.9272,,,,,,Frage 1,,,,,,,,,,,,,,,,,,,,,,,,,,,,,,,,,,,,,,,,,,,,,,,,,,,,,,,,,,,,,,,,,,,,,1.0,-1.0,-1.0,445.0,229.0,-1.0,-1.0,558.252999999997,-1.0,447.1241455078125,-1.0,-1.0,0.5218092203140258,0.5248719453811646,4.0,0.0,1.0,445.0,229.0,445.0,229.0,447.124145507813,182.057427302607,-17482.8000272895,,,,,,,,,4.0,2.0,301.09115,509.3855,208.29435,12.4732231385172,740.297923729452,72152.710433085,-43764.2657949982,277.001267557495
56,405.2578,,,,,,Frage 1,,,,,,,,,,,,,,,,,,,,,,,,,,,,,,,,,,,,,,,,,,,,,,,,,,,,,,,,,,,,,,,,,,,,,1.0,-1.0,-1.0,437.0,234.0,-1.0,-1.0,566.5840000000026,-1.0,445.79290771484375,-1.0,-1.0,0.5219315290451049,0.5242918133735656,4.0,0.0,1.0,437.0,234.0,437.0,234.0,445.792907714844,216.175553230209,4095.51844136109,,,,,,,,,4.0,2.0,301.09115,509.3855,208.29435,12.4732231385172,740.297923729452,72152.710433085,-43764.2657949982,277.001267557495
57,405.3432,,,,,,Frage 1,1.0,8.0,0.0992573350667953,0.1798659265041351,0.0197669193148612,0.1073113679885864,0.0729599893093109,0.096586175262928,0.0573054887354373,1.1910873651504517,3.73837161064148,9.317592620849608,0.053390197455883,99.64027404785155,95.60690307617188,0.0109537839889526,0.8317989110946655,1.2456061840057373,1.5750402212142944,21.611988067626957,0.3111464083194732,0.0042746453545987,0.0150429354980587,0.0139395827427506,0.1496423631906509,1.4853507280349731,0.0126466015353798,5.819292545318604,36.89789962768555,0.0044353418052196,1.7871991395950315,0.053390197455883,9.317592620849608,6.12166690826416,0.0141555313020944,0.0,72.0,-30.721193313598636,-6.598945140838623,2.461097955703736,116.97978973388672,1.0,8.0,640.0,480.0,0.0,312.893798828125,324.8625183105469,1.0,445.87017822265625,457.8388671875,2.0,322.0556335449219,354.30535888671875,3.0,438.9974365234375,351.32440185546875,4.0,386.5265502929688,404.6139221191406,5.0,377.0928955078125,455.1590576171875,,,,,,,,,,,,,,,,,,,,,,,,,,,,,,,,,,,,,,,,,,,,,,,
58,413.5523,,,,,,Frage 1,,,,,,,,,,,,,,,,,,,,,,,,,,,,,,,,,,,,,,,,,,,,,,,,,,,,,,,,,,,,,,,,,,,,,1.0,-1.0,-1.0,-1.0,-1.0,-1.0,-1.0,574.877999999997,-1.0,-1.0,-1.0,-1.0,-1.0,-1.0,4.0,4.0,1.0,,,546.333333333333,233.333333333333,449.386138916016,472.867079320409,30947.1970691662,,,,,,,,,4.0,2.0,301.09115,509.3855,208.29435,12.4732231385172,740.297923729452,72152.710433085,-43764.2657949982,277.001267557495
59,421.89,,,,,,Frage 1,,,,,,,,,,,,,,,,,,,,,,,,,,,,,,,,,,,,,,,,,,,,,,,,,,,,,,,,,,,,,,,,,,,,,1.0,-1.0,-1.0,-1.0,-1.0,-1.0,-1.0,583.2160000000003,-1.0,-1.0,-1.0,-1.0,-1.0,-1.0,4.0,4.0,1.0,,,655.666666666667,232.666666666667,452.979370117188,484.309147239819,1372.32904990701,,,,,,,,,4.0,2.0,301.09115,509.3855,208.29435,12.4732231385172,740.297923729452,72152.710433085,-43764.2657949982,277.001267557495
60,430.2286,,,,,,Frage 1,,,,,,,,,,,,,,,,,,,,,,,,,,,,,,,,,,,,,,,,,,,,,,,,,,,,,,,,,,,,,,,,,,,,,1.0,765.0,232.0,-1.0,-1.0,-1.0,-1.0,591.5540000000037,456.5726013183594,-1.0,0.699196457862854,0.5344980955123901,-1.0,-1.0,0.0,4.0,1.0,765.0,232.0,765.0,232.0,456.572601318359,121.621610707747,-43495.0155340311,,,,,,,,,4.0,2.0,301.09115,509.3855,208.29435,12.4732231385172,740.297923729452,72152.710433085,-43764.2657949982,277.001267557495
61,433.2702,,,,,,Frage 1,1.0,9.0,0.1027173027396202,0.1284103691577911,0.0201386883854866,0.1052961200475692,0.0607007294893264,0.1021021157503128,0.0565338246524333,0.7799450755119323,1.95711088180542,7.847641944885255,0.0758834034204483,99.74317932128906,96.75168609619139,0.007865690626204,0.4989174604415893,0.8938352465629577,1.59354829788208,17.97287368774414,4.956057091476396e-05,0.0096666188910603,0.0219322200864553,0.0089798709377646,0.2326808124780654,1.652385950088501,0.0180850550532341,2.9922900199890137,31.263954162597656,0.0011159919667989,0.8284351825714111,0.0758834034204483,7.847641944885255,1.830022931098938,0.0135740656405687,0.0,72.0,-32.9019775390625,-5.02994441986084,1.6025248765945437,118.80438232421876,1.0,9.0,640.0,480.0,0.0,311.25152587890625,323.7397155761719,1.0,444.5427856445313,457.031005859375,2.0,318.90234375,351.9740600585937,3.0,437.68502807617193,349.703369140625,4.0,383.5847473144531,405.217529296875,5.0,377.1041259765625,454.64651489257807,,,,,,,,,,,,,,,,,,,,,,,,,,,,,,,,,,,,,,,,,,,,,,,
62,438.5505,,,,,,Frage 1,,,,,,,,,,,,,,,,,,,,,,,,,,,,,,,,,,,,,,,,,,,,,,,,,,,,,,,,,,,,,,,,,,,,,1.0,-1.0,-1.0,-1.0,-1.0,-1.0,-1.0,599.8769999999931,-1.0,-1.0,-1.0,-1.0,-1.0,-1.0,4.0,4.0,1.0,,,600.0,229.5,450.274795532227,722.069251660839,72152.710433085,,,,,,,,,4.0,2.0,301.09115,509.3855,208.29435,12.4732231385172,740.297923729452,72152.710433085,-43764.2657949982,277.001267557495
63,446.8787,,,,,,Frage 1,,,,,,,,,,,,,,,,,,,,,,,,,,,,,,,,,,,,,,,,,,,,,,,,,,,,,,,,,,,,,,,,,,,,,1.0,-1.0,-1.0,435.0,227.0,-1.0,-1.0,608.2010000000009,-1.0,443.97698974609375,-1.0,-1.0,0.5198078751564025,0.5237852334976196,4.0,0.0,1.0,435.0,227.0,435.0,227.0,443.976989746094,372.835894690307,-41933.8340782561,,,,,,,,,4.0,2.0,301.09115,509.3855,208.29435,12.4732231385172,740.297923729452,72152.710433085,-43764.2657949982,277.001267557495
64,455.2084,,,,,,Frage 1,,,,,,,,,,,,,,,,,,,,,,,,,,,,,,,,,,,,,,,,,,,,,,,,,,,,,,,,,,,,,,,,,,,,,1.0,764.0,227.0,-1.0,-1.0,-1.0,-1.0,616.5339999999997,455.68374633789057,-1.0,0.698232591152191,0.5337284803390502,-1.0,-1.0,0.0,4.0,1.0,764.0,227.0,764.0,227.0,455.683746337891,340.32051415368,-3903.54761115372,,,,,,,,,4.0,2.0,301.09115,509.3855,208.29435,12.4732231385172,740.297923729452,72152.710433085,-43764.2657949982,277.001267557495
65,463.5705,,,,,,Frage 1,,,,,,,,,,,,,,,,,,,,,,,,,,,,,,,,,,,,,,,,,,,,,,,,,,,,,,,,,,,,,,,,,,,,,1.0,-1.0,-1.0,-1.0,-1.0,-1.0,-1.0,624.8950000000041,-1.0,-1.0,-1.0,-1.0,-1.0,-1.0,4.0,4.0,1.0,,,596.5,244.0,449.585403442383,740.297923729452,47832.1724896583,,,,,,,,,4.0,2.0,301.09115,509.3855,208.29435,12.4732231385172,740.297923729452,72152.710433085,-43764.2657949982,277.001267557495
66,465.8238,,,,,,Frage 1,1.0,10.0,0.1061114817857742,0.1265667080879211,0.0206411052495241,0.1076687946915626,0.0498828664422035,0.1067510247230529,0.0559546910226345,0.3800854682922363,0.3688699007034301,6.322613239288329,0.0948298722505569,99.74687194824217,97.41558837890624,0.0072305561043322,0.2379733026027679,0.433389663696289,1.1501065492630005,29.180103302001957,9.713501185615314e-07,0.0253100395202636,0.022188302129507,0.0067701656371355,0.2787340581417083,0.9406482577323912,0.0113885728642344,2.0182285308837886,21.604515075683597,0.0002613086544442,0.4712546169757843,0.0948298722505569,6.322613239288329,0.5560026168823242,0.0047059427015483,0.0,72.0,-33.24338150024414,-3.8525664806365967,1.1023797988891602,115.70062255859376,1.0,10.0,640.0,480.0,0.0,309.290283203125,322.75750732421875,1.0,441.9827880859375,455.4500427246094,2.0,317.75927734375,350.4883728027344,3.0,433.4304809570313,347.87945556640625,4.0,380.0443115234375,404.23876953125,5.0,375.7198181152344,453.80853271484375,,,,,,,,,,,,,,,,,,,,,,,,,,,,,,,,,,,,,,,,,,,,,,,
67,471.9025,,,,,,Frage 1,,,,,,,,,,,,,,,,,,,,,,,,,,,,,,,,,,,,,,,,,,,,,,,,,,,,,,,,,,,,,,,,,,,,,1.0,-1.0,-1.0,429.0,261.0,-1.0,-1.0,633.2280000000028,-1.0,443.487060546875,-1.0,-1.0,0.5191242694854736,0.5229977965354919,4.0,0.0,1.0,429.0,261.0,429.0,261.0,443.487060546875,375.654061125527,-43764.2657949982,,,,,,,,,4.0,2.0,301.09115,509.3855,208.29435,12.4732231385172,740.297923729452,72152.710433085,-43764.2657949982,277.001267557495
68,480.205,,,,,,Frage 1,,,,,,,,,,,,,,,,,,,,,,,,,,,,,,,,,,,,,,,,,,,,,,,,,,,,,,,,,,,,,,,,,,,,,1.0,-1.0,-1.0,425.0,263.0,-1.0,-1.0,641.5310000000027,-1.0,443.53530883789057,-1.0,-1.0,0.5191308856010437,0.521782636642456,4.0,0.0,1.0,425.0,263.0,425.0,263.0,443.535308837891,247.673285248453,-15414.7275973591,,,,,,,,,4.0,2.0,301.09115,509.3855,208.29435,12.4732231385172,740.297923729452,72152.710433085,-43764.2657949982,277.001267557495
69,488.5782,,,,,,Frage 1,,,,,,,,,,,,,,,,,,,,,,,,,,,,,,,,,,,,,,,,,,,,,,,,,,,,,,,,,,,,,,,,,,,,,1.0,-1.0,-1.0,-1.0,-1.0,-1.0,-1.0,649.903999999995,-1.0,-1.0,-1.0,-1.0,-1.0,-1.0,4.0,4.0,1.0,,,536.333333333333,224.0,447.787099202474,517.844771559745,32266.2167762973,,,,,,,,,4.0,2.0,301.09115,509.3855,208.29435,12.4732231385172,740.297923729452,72152.710433085,-43764.2657949982,277.001267557495
70,496.8924,,,,,,Frage 1,,,,,,,,,,,,,,,,,,,,,,,,,,,,,,,,,,,,,,,,,,,,,,,,,,,,,,,,,,,,,,,,,,,,,1.0,-1.0,-1.0,-1.0,-1.0,-1.0,-1.0,658.2189999999973,-1.0,-1.0,-1.0,-1.0,-1.0,-1.0,4.0,4.0,1.0,,,647.666666666667,185.0,452.038889567057,527.853018956862,1203.7535057032,,,,,,,,,4.0,2.0,301.09115,509.3855,208.29435,12.4732231385172,740.297923729452,72152.710433085,-43764.2657949982,277.001267557495
71,505.2036,,,,,,Frage 1,,,,,,,,,,,,,,,,,,,,,,,,,,,,,,,,,,,,,,,,,,,,,,,,,,,,,,,,,,,,,,,,,,,,,1.0,759.0,146.0,-1.0,-1.0,-1.0,-1.0,666.528999999995,456.2906799316406,-1.0,0.696110725402832,0.5319206118583679,-1.0,-1.0,0.0,4.0,1.0,759.0,146.0,759.0,146.0,456.290679931641,263.89885656453,-31758.8509953235,,,,,,,,,4.0,2.0,301.09115,509.3855,208.29435,12.4732231385172,740.297923729452,72152.710433085,-43764.2657949982,277.001267557495
72,512.8828,,,,,,Frage 1,1.0,11.0,0.1102867573499679,0.1342637836933136,0.0214269440621137,0.1115188598632812,0.0422973521053791,0.111269325017929,0.0557372532784938,0.3597109615802764,0.0,4.928490161895752,0.0900855213403701,99.7314682006836,97.70872497558592,0.0065076993778347,0.1339782327413559,0.2683614492416381,1.033123254776001,34.731346130371094,4.969030555912468e-07,0.0395214855670928,0.0195289049297571,0.0057133571244776,0.2255529463291168,0.5574049353599548,0.0057963114231824,1.610477089881897,20.995344161987305,0.0001210869886563,0.3245353996753692,0.0900855213403701,4.928490161895752,0.103980541229248,0.002396936295554,0.0,72.0,-33.368221282958984,-3.2355759143829346,1.8129671812057493,120.050537109375,1.0,11.0,640.0,480.0,0.0,307.6959228515625,321.1941223144532,1.0,441.87161254882807,455.3698120117188,2.0,315.3859558105469,348.7565002441406,3.0,435.4331665039063,347.8630676269532,4.0,378.8260803222656,403.5411376953125,5.0,373.5322265625,452.9671936035156,,,,,,,,,,,,,,,,,,,,,,,,,,,,,,,,,,,,,,,,,,,,,,,
73,513.5674,,,,,,Frage 1,,,,,,,,,,,,,,,,,,,,,,,,,,,,,,,,,,,,,,,,,,,,,,,,,,,,,,,,,,,,,,,,,,,,,1.0,-1.0,-1.0,-1.0,-1.0,-1.0,-1.0,674.8929999999964,-1.0,-1.0,-1.0,-1.0,-1.0,-1.0,4.0,4.0,1.0,,,761.0,151.0,456.366139729818,23.2105641720902,-28777.384967651,,,,,,,,,,,,,,,,,,
74,521.8665,,,,,,Frage 1,,,,,,,,,,,,,,,,,,,,,,,,,,,,,,,,,,,,,,,,,,,,,,,,,,,,,,,,,,,,,,,,,,,,,1.0,-1.0,-1.0,-1.0,-1.0,-1.0,-1.0,683.1929999999993,-1.0,-1.0,-1.0,-1.0,-1.0,-1.0,4.0,4.0,1.0,,,763.0,156.0,456.441599527995,23.2954211842281,10.2248451202974,,,,,,,,,,,,,,,,,,
75,530.2004,,,,,,Frage 1,,,,,,,,,,,,,,,,,,,,,,,,,,,,,,,,,,,,,,,,,,,,,,,,,,,,,,,,,,,,,,,,,,,,,1.0,765.0,161.0,-1.0,-1.0,-1.0,-1.0,691.525999999998,456.51705932617193,-1.0,0.6954741477966307,0.5314101576805114,-1.0,-1.0,0.0,4.0,1.0,765.0,161.0,765.0,161.0,456.517059326172,25.0481156979083,210.309040626869,,,,,,,,,,,,,,,,,,
76,538.5632,,,,,,Frage 1,,,,,,,,,,,,,,,,,,,,,,,,,,,,,,,,,,,,,,,,,,,,,,,,,,,,,,,,,,,,,,,,,,,,,1.0,-1.0,-1.0,-1.0,-1.0,-1.0,-1.0,699.8899999999993,-1.0,-1.0,-1.0,-1.0,-1.0,-1.0,4.0,4.0,1.0,,,766.666666666667,167.0,456.575836181641,27.0281487707465,236.766761472016,,,,,,,,,,,,,,,,,,
77,544.8162,,,,,,Frage 1,1.0,12.0,0.1126292869448661,0.1407930105924606,0.0218984112143516,0.1138228327035903,0.0387204363942146,0.1137634888291358,0.0557233653962612,0.3287661075592041,0.0,4.159569263458252,0.1206204742193222,99.71841430664062,98.27888488769533,0.0057178107090294,0.0960453078150749,0.2237142026424408,0.9692214727401732,39.231178283691406,1.7231934634764914e-07,0.0755069106817245,0.0160848423838615,0.0051146908663213,0.1926971226930618,0.3429099023342132,0.0029458659701049,1.406606674194336,18.784252166748047,5.925483128521592e-05,0.2260309755802154,0.1206204742193222,4.159569263458252,0.0,0.001762384083122,0.0,72.0,-34.09699249267578,-1.7758067846298218,1.9483131170272827,111.76416015625,1.0,12.0,640.0,480.0,0.0,306.1164245605469,321.0863647460937,1.0,440.2380676269531,455.2080078125,2.0,318.0180358886719,347.208740234375,3.0,429.7819213867188,346.9595642089844,4.0,375.65032958984375,404.23773193359375,5.0,371.7318115234375,454.1827392578125,,,,,,,,,,,,,,,,,,,,,,,,,,,,,,,,,,,,,,,,,,,,,,,
78,546.8658,,,,,,Frage 1,,,,,,,,,,,,,,,,,,,,,,,,,,,,,,,,,,,,,,,,,,,,,,,,,,,,,,,,,,,,,,,,,,,,,1.0,-1.0,-1.0,-1.0,-1.0,-1.0,-1.0,708.1910000000062,-1.0,-1.0,-1.0,-1.0,-1.0,-1.0,4.0,4.0,1.0,,,768.333333333333,173.0,456.634613037109,27.0828238474023,6.58529576948978,,,,,,,,,,,,,,,,,,
79,555.2295,,,,,,Frage 1,,,,,,,,,,,,,,,,,,,,,,,,,,,,,,,,,,,,,,,,,,,,,,,,,,,,,,,,,,,,,,,,,,,,,1.0,770.0,179.0,-1.0,-1.0,-1.0,-1.0,716.5540000000037,456.69338989257807,-1.0,0.694703996181488,0.5309873819351196,-1.0,-1.0,0.0,4.0,1.0,770.0,179.0,770.0,179.0,456.693389892578,233.392310197523,24667.2508997358,,,,,,,,,5.0,3.0,551.04765,584.3905,33.34285,12.547618610368,470.033401273476,28400.793437022,-28214.6960202296,175.670408941413
80,563.5617,,,,,,Frage 1,,,,,,,,,,,,,,,,,,,,,,,,,,,,,,,,,,,,,,,,,,,,,,,,,,,,,,,,,,,,,,,,,,,,,1.0,-1.0,-1.0,-1.0,-1.0,-1.0,-1.0,724.8880000000064,-1.0,-1.0,-1.0,-1.0,-1.0,-1.0,4.0,4.0,1.0,,,664.333333333333,187.0,452.307047526042,470.033401273476,28400.793437022,,,,,,,,,5.0,3.0,551.04765,584.3905,33.34285,12.547618610368,470.033401273476,28400.793437022,-28214.6960202296,175.670408941413
81,571.8922,,,,,,Frage 1,,,,,,,,,,,,,,,,,,,,,,,,,,,,,,,,,,,,,,,,,,,,,,,,,,,,,,,,,,,,,,,,,,,,,1.0,-1.0,-1.0,-1.0,-1.0,-1.0,-1.0,733.2179999999936,-1.0,-1.0,-1.0,-1.0,-1.0,-1.0,4.0,4.0,1.0,,,558.666666666667,195.0,447.920705159505,460.408737495108,-1155.35247324501,,,,,,,,,5.0,3.0,551.04765,584.3905,33.34285,12.547618610368,470.033401273476,28400.793437022,-28214.6960202296,175.670408941413
82,577.9001,,,,,,Frage 1,1.0,13.0,0.1169467493891716,0.1531538963317871,0.0226652082055807,0.1181200370192527,0.0342612750828266,0.1178518831729888,0.0557707026600837,0.3287661075592041,0.0,3.08823823928833,0.101788692176342,99.69369506835936,98.4581298828125,0.0050158500671386,0.060461226850748,0.174931988120079,1.0172383785247805,50.47403717041016,5.085508192337329e-08,0.1353156715631485,0.0128110516816377,0.0045565976761281,0.164873406291008,0.3304888904094696,0.0014076604275032,1.4956285953521729,16.672338485717773,2.684034188860096e-05,0.1665692329406738,0.101788692176342,3.08823823928833,0.0287507772445678,0.0014128517359495,0.0,72.0,-35.15338134765625,-1.2168097496032717,1.6369227170944214,113.14926910400392,1.0,13.0,640.0,480.0,0.0,305.5414733886719,320.0559997558594,1.0,438.9810791015625,453.49560546875,2.0,316.1563720703125,345.45458984375,3.0,429.30517578125,345.7786865234375,4.0,374.2365417480469,403.537109375,5.0,371.3222351074218,452.3327941894531,,,,,,,,,,,,,,,,,,,,,,,,,,,,,,,,,,,,,,,,,,,,,,,
83,580.2254,,,,,,Frage 1,,,,,,,,,,,,,,,,,,,,,,,,,,,,,,,,,,,,,,,,,,,,,,,,,,,,,,,,,,,,,,,,,,,,,1.0,-1.0,-1.0,453.0,203.0,-1.0,-1.0,741.551999999996,-1.0,443.5343627929688,-1.0,-1.0,0.5162389874458313,0.5206469297409057,4.0,0.0,1.0,453.0,203.0,453.0,203.0,443.534362792969,225.29003261933,-28214.6960202296,,,,,,,,,5.0,3.0,551.04765,584.3905,33.34285,12.547618610368,470.033401273476,28400.793437022,-28214.6960202296,175.670408941413
84,588.5556,,,,,,Frage 1,,,,,,,,,,,,,,,,,,,,,,,,,,,,,,,,,,,,,,,,,,,,,,,,,,,,,,,,,,,,,,,,,,,,,1.0,-1.0,-1.0,-1.0,-1.0,-1.0,-1.0,749.880999999994,-1.0,-1.0,-1.0,-1.0,-1.0,-1.0,4.0,4.0,1.0,,,454.0,200.666666666667,443.533721923828,11.2396138502533,-25695.711839941,2.0,2.0,454.281125945229,199.666666666667,584.3905,701.01635,116.62585,0.265560144445018,,,,,,,,,,
85,596.8844,,,,,,Frage 1,,,,,,,,,,,,,,,,,,,,,,,,,,,,,,,,,,,,,,,,,,,,,,,,,,,,,,,,,,,,,,,,,,,,,1.0,-1.0,-1.0,-1.0,-1.0,-1.0,-1.0,758.2099999999919,-1.0,-1.0,-1.0,-1.0,-1.0,-1.0,4.0,4.0,1.0,,,455.0,198.333333333333,443.533081054688,11.2454203923536,0.697164309424212,2.0,2.0,454.281125945229,199.666666666667,584.3905,701.01635,116.62585,0.265560144445018,,,,,,,,,,
86,605.2021,,,,,,Frage 1,,,,,,,,,,,,,,,,,,,,,,,,,,,,,,,,,,,,,,,,,,,,,,,,,,,,,,,,,,,,,,,,,,,,,1.0,-1.0,-1.0,456.0,196.0,-1.0,-1.0,766.5280000000057,-1.0,443.5324401855469,-1.0,-1.0,0.5157145857810974,0.5205084085464478,4.0,0.0,1.0,456.0,196.0,456.0,196.0,443.532440185547,6.35218999683374,-588.291281907245,2.0,2.0,454.281125945229,199.666666666667,584.3905,701.01635,116.62585,0.265560144445018,,,,,,,,,,
87,611.6017,,,,,,Frage 1,1.0,14.0,0.1202591583132743,0.1621011346578598,0.0231836680322885,0.1210244223475456,0.0317937359213829,0.1203229799866676,0.0560750588774681,0.3287661075592041,0.0,2.420567750930786,0.1245240494608879,99.67579650878906,98.58185577392578,0.0044130990281701,0.0445493124425411,0.1711466312408447,1.0341700315475464,53.00015640258789,2.04265671044368e-08,0.2847456336021423,0.0104055749252438,0.0041340165771543,0.1366869509220123,0.4070586264133453,0.0006900978041812,1.3396971225738523,13.684535026550291,1.1176211046404204e-05,0.1251791715621948,0.1245240494608879,2.420567750930786,0.0890668705105781,0.0015067377826198,0.0,72.0,-35.65986251831055,-0.79230797290802,2.541226863861084,118.05224609375,1.0,14.0,640.0,480.0,0.0,303.1410522460937,316.92535400390625,1.0,441.1545104980469,454.9388122558594,2.0,314.4434814453125,343.3309326171875,3.0,432.49224853515625,344.2377319335937,4.0,373.8848571777344,403.4099731445313,5.0,369.5076293945313,452.7496948242188,,,,,,,,,,,,,,,,,,,,,,,,,,,,,,,,,,,,,,,,,,,,,,,
88,613.5738,,,,,,Frage 1,,,,,,,,,,,,,,,,,,,,,,,,,,,,,,,,,,,,,,,,,,,,,,,,,,,,,,,,,,,,,,,,,,,,,1.0,-1.0,-1.0,-1.0,-1.0,-1.0,-1.0,774.8999999999943,-1.0,-1.0,-1.0,-1.0,-1.0,-1.0,4.0,4.0,1.0,,,456.666666666667,196.0,443.531941731771,2.79966775635479,-424.348966217009,2.0,2.0,454.281125945229,199.666666666667,584.3905,701.01635,116.62585,0.265560144445018,,,,,,,,,,
89,621.8558,,,,,,Frage 1,,,,,,,,,,,,,,,,,,,,,,,,,,,,,,,,,,,,,,,,,,,,,,,,,,,,,,,,,,,,,,,,,,,,,1.0,-1.0,-1.0,-1.0,-1.0,-1.0,-1.0,783.1820000000007,-1.0,-1.0,-1.0,-1.0,-1.0,-1.0,4.0,4.0,1.0,,,457.333333333333,196.0,443.531443277995,2.8069010571975,0.873376097887934,2.0,2.0,454.281125945229,199.666666666667,584.3905,701.01635,116.62585,0.265560144445018,,,,,,,,,,
90,624.5385,,,,,,Frage 1,,,,,,,,,,,,,,,,,,,,,,,,,,,,,,,,,,,,,,,,,,,,,,,,,,,,,,,,,,,,,,,,1.0,18.1510829925537,35.3157902644886,14.9416036605835,921.83203125,,,,,,,,,,,,,,,,,,,,,,,,,,,,,,,,,,,,,,,,,,
91,630.1896,,,,,,Frage 1,,,,,,,,,,,,,,,,,,,,,,,,,,,,,,,,,,,,,,,,,,,,,,,,,,,,,,,,,,,,,,,,,,,,,1.0,-1.0,-1.0,458.0,196.0,-1.0,-1.0,791.5149999999993,-1.0,443.5309448242188,-1.0,-1.0,0.5150531530380249,0.5201005935668945,4.0,0.0,1.0,458.0,196.0,458.0,196.0,443.530944824219,9.75468995376883,833.68798106162,2.0,2.0,454.281125945229,199.666666666667,584.3905,701.01635,116.62585,0.265560144445018,,,,,,,,,,
92,638.5246,,,,,,Frage 1,,,,,,,,,,,,,,,,,,,,,,,,,,,,,,,,,,,,,,,,,,,,,,,,,,,,,,,,,,,,,,,,,,,,,1.0,-1.0,-1.0,-1.0,-1.0,-1.0,-1.0,799.850999999995,-1.0,-1.0,-1.0,-1.0,-1.0,-1.0,4.0,4.0,1.0,,,459.0,200.333333333333,443.531097412109,18.9272499397201,1100.48710089398,2.0,2.0,454.281125945229,199.666666666667,584.3905,701.01635,116.62585,0.265560144445018,,,,,,,,,,
93,641.0148,,,,,,Frage 1,1.0,15.0,0.1244434267282486,0.1699349135160446,0.0235163867473602,0.1252205520868301,0.0297767054289579,0.1223981976509094,0.0569287687540054,0.3287661075592041,0.0,1.8183465003967283,0.1065724939107894,99.66014099121091,98.18706512451173,0.0043638260103762,0.0350871980190277,0.2008724063634872,0.902524709701538,61.101348876953125,1.1022438073382546e-08,0.6589999794960022,0.0082256691530346,0.0043637137860059,0.1143060326576232,0.5045825839042662,0.0003198756312485,1.3043569326400757,12.1290283203125,6.080597813706845e-06,0.1073432639241218,0.1065724939107894,1.8183465003967283,0.1066828891634941,0.0019553052261471,0.0,72.0,-35.09208297729492,-2.0403478145599365,0.8839630484580993,115.4731903076172,1.0,15.0,640.0,480.0,0.0,304.4143371582032,317.6055603027344,1.0,439.1741638183594,452.36538696289057,2.0,313.8528137207032,343.5693664550781,3.0,429.3253784179688,343.1888732910156,4.0,374.506591796875,401.89468383789057,5.0,372.20458984375,451.2889709472656,,,,,,,,,,,,,,,,,,,,,,,,,,,,,,,,,,,,,,,,,,,,,,,
94,646.8539,,,,,,Frage 1,,,,,,,,,,,,,,,,,,,,,,,,,,,,,,,,,,,,,,,,,,,,,,,,,,,,,,,,,,,,,,,,,,,,,1.0,-1.0,-1.0,-1.0,-1.0,-1.0,-1.0,808.1790000000037,-1.0,-1.0,-1.0,-1.0,-1.0,-1.0,4.0,4.0,1.0,,,460.0,204.666666666667,443.53125,18.9608315304346,4.03174224898866,2.0,2.0,454.281125945229,199.666666666667,584.3905,701.01635,116.62585,0.265560144445018,,,,,,,,,,
95,655.1867,,,,,,Frage 1,,,,,,,,,,,,,,,,,,,,,,,,,,,,,,,,,,,,,,,,,,,,,,,,,,,,,,,,,,,,,,,,,,,,,1.0,-1.0,-1.0,461.0,209.0,-1.0,-1.0,816.5120000000024,-1.0,443.53140258789057,-1.0,-1.0,0.5150222182273864,0.5199635028839111,4.0,0.0,1.0,461.0,209.0,461.0,209.0,443.531402587891,9.77745064631674,-1102.07623897344,2.0,2.0,454.281125945229,199.666666666667,584.3905,701.01635,116.62585,0.265560144445018,,,,,,,,,,
96,663.5202,,,,,,Frage 1,,,,,,,,,,,,,,,,,,,,,,,,,,,,,,,,,,,,,,,,,,,,,,,,,,,,,,,,,,,,,,,,,,,,,1.0,-1.0,-1.0,-1.0,-1.0,-1.0,-1.0,824.8469999999943,-1.0,-1.0,-1.0,-1.0,-1.0,-1.0,4.0,4.0,1.0,,,455.333333333333,204.333333333333,443.531188964844,30.0305662677426,2430.32526806572,2.0,2.0,454.281125945229,199.666666666667,584.3905,701.01635,116.62585,0.265560144445018,,,,,,,,,,
97,671.8506,,,,,,Frage 1,,,,,,,,,,,,,,,,,,,,,,,,,,,,,,,,,,,,,,,,,,,,,,,,,,,,,,,,,,,,,,,,,,,,,1.0,-1.0,-1.0,-1.0,-1.0,-1.0,-1.0,833.1759999999922,-1.0,-1.0,-1.0,-1.0,-1.0,-1.0,4.0,4.0,1.0,,,449.666666666667,199.666666666667,443.530975341797,29.9235541160161,-12.8459799921383,2.0,2.0,454.281125945229,199.666666666667,584.3905,701.01635,116.62585,0.265560144445018,,,,,,,,,,
98,673.3871,,,,,,Frage 1,1.0,16.0,0.1303700357675552,0.1784507036209106,0.023978516459465,0.1301459819078445,0.0282116644084453,0.1246823146939277,0.0581776946783065,0.3287661075592041,0.0,1.3195735216140747,0.0830241665244102,99.64309692382812,98.69424438476561,0.00424175709486,0.0333278402686119,0.2306996881961822,1.0497943162918093,62.938186645507805,2.2742973726508356e-08,1.1844487190246582,0.00605632038787,0.0039743166416883,0.087487943470478,1.1486709117889404,0.0001487638946855,1.4006727933883667,11.439393997192385,3.972797003370943e-06,0.0795094370841979,0.0830241665244102,1.3195735216140747,0.2152276039123535,0.0019541624933481,0.0,72.0,-31.89716148376465,-0.3737813234329223,2.4540212154388428,119.68885803222656,1.0,16.0,640.0,480.0,0.0,301.5720520019532,315.0587158203125,1.0,440.7142333984375,454.200927734375,2.0,312.56719970703125,342.3959655761719,3.0,432.25006103515625,343.5940246582032,4.0,372.4983520507813,399.61614990234375,5.0,368.6122131347656,452.9132080078125,,,,,,,,,,,,,,,,,,,,,,,,,,,,,,,,,,,,,,,,,,,,,,,
99,680.1818,,,,,,Frage 1,,,,,,,,,,,,,,,,,,,,,,,,,,,,,,,,,,,,,,,,,,,,,,,,,,,,,,,,,,,,,,,,,,,,,1.0,-1.0,-1.0,444.0,195.0,-1.0,-1.0,841.5080000000016,-1.0,443.53076171875,-1.0,-1.0,0.5150054693222045,0.5200913548469543,4.0,0.0,1.0,444.0,195.0,444.0,195.0,443.53076171875,6.9481914189295,-2757.74950752432,2.0,2.0,454.281125945229,199.666666666667,584.3905,701.01635,116.62585,0.265560144445018,,,,,,,,,,
100,688.573,,,,,,Frage 1,,,,,,,,,,,,,,,,,,,,,,,,,,,,,,,,,,,,,,,,,,,,,,,,,,,,,,,,,,,,,,,,,,,,,1.0,-1.0,-1.0,-1.0,-1.0,-1.0,-1.0,849.877999999997,-1.0,-1.0,-1.0,-1.0,-1.0,-1.0,4.0,4.0,1.0,,,446.333333333333,199.666666666667,443.530303955078,21.6939891074801,1757.29307948214,2.0,2.0,454.281125945229,199.666666666667,584.3905,701.01635,116.62585,0.265560144445018,,,,,,,,,,
101,696.8524,,,,,,Frage 1,,,,,,,,,,,,,,,,,,,,,,,,,,,,,,,,,,,,,,,,,,,,,,,,,,,,,,,,,,,,,,,,,,,,,1.0,-1.0,-1.0,-1.0,-1.0,-1.0,-1.0,858.1729999999952,-1.0,-1.0,-1.0,-1.0,-1.0,-1.0,4.0,4.0,1.0,,,448.666666666667,204.333333333333,443.529846191406,21.8269599298164,16.0604418600719,2.0,2.0,454.281125945229,199.666666666667,584.3905,701.01635,116.62585,0.265560144445018,,,,,,,,,,
102,704.8225,,,,,,Frage 1,1.0,17.0,0.1379114389419555,0.1825568675994873,0.0242212954908609,0.1374920606613159,0.0271048657596111,0.1259580701589584,0.0609814710915088,0.3287661075592041,0.0,0.9505720734596252,0.0647300407290458,99.6348876953125,98.74546813964845,0.0041518663056194,0.0409424602985382,0.2513746917247772,0.9983471035957336,58.0367546081543,5.482248877086703e-09,2.308141231536865,0.0052905185148119,0.0037373530212789,0.0647300407290458,1.3942992687225342,7.13567205821164e-05,1.2345945835113523,10.136093139648438,3.307370434413315e-06,0.0652422979474067,0.0825045183300971,0.9505720734596252,0.1710703074932098,0.0015615317970514,0.0,72.0,-33.03354263305664,-0.171101689338684,1.386863112449646,118.46353149414064,1.0,17.0,640.0,480.0,0.0,302.5400695800781,315.8350524902344,1.0,439.81243896484375,453.10745239257807,2.0,312.228515625,342.1488647460937,3.0,430.6883544921875,343.0841979980469,4.0,372.23736572265625,400.20947265625,5.0,370.6119384765625,452.4425048828125,,,,,,,,,,,,,,,,,,,,,,,,,,,,,,,,,,,,,,,,,,,,,,,
103,705.1803,,,,,,Frage 1,,,,,,,,,,,,,,,,,,,,,,,,,,,,,,,,,,,,,,,,,,,,,,,,,,,,,,,,,,,,,,,,,,,,,1.0,-1.0,-1.0,451.0,209.0,-1.0,-1.0,866.5069999999979,-1.0,443.5293884277344,-1.0,-1.0,0.5151845216751098,0.5205891132354736,4.0,0.0,1.0,451.0,209.0,451.0,209.0,443.529388427734,338.755267008343,38056.2094980159,,,,,,,,,6.0,4.0,701.01635,792.6857,91.66935,15.0355432083924,695.386740711276,68942.0662279362,-76487.4406465822,14.8436897857165
104,713.5164,,,,,,Frage 1,,,,,,,,,,,,,,,,,,,,,,,,,,,,,,,,,,,,,,,,,,,,,,,,,,,,,,,,,,,,,,,,,,,,,1.0,-1.0,-1.0,-1.0,-1.0,-1.0,-1.0,874.8420000000043,-1.0,-1.0,-1.0,-1.0,-1.0,-1.0,4.0,4.0,1.0,,,605.0,197.0,448.081960042318,679.732512606585,40903.6894468927,,,,,,,,,6.0,4.0,701.01635,792.6857,91.66935,15.0355432083924,695.386740711276,68942.0662279362,-76487.4406465822,14.8436897857165
105,721.8469,,,,,,Frage 1,,,,,,,,,,,,,,,,,,,,,,,,,,,,,,,,,,,,,,,,,,,,,,,,,,,,,,,,,,,,,,,,,,,,,1.0,-1.0,-1.0,-1.0,-1.0,-1.0,-1.0,883.1729999999952,-1.0,-1.0,-1.0,-1.0,-1.0,-1.0,4.0,4.0,1.0,,,759.0,185.0,452.634531656901,695.386740711276,1879.14628229894,,,,,,,,,6.0,4.0,701.01635,792.6857,91.66935,15.0355432083924,695.386740711276,68942.0662279362,-76487.4406465822,14.8436897857165
106,730.2068,,,,,,Frage 1,,,,,,,,,,,,,,,,,,,,,,,,,,,,,,,,,,,,,,,,,,,,,,,,,,,,,,,,,,,,,,,,,,,,,1.0,913.0,173.0,-1.0,-1.0,-1.0,-1.0,891.5319999999919,457.1871032714844,-1.0,0.6907629370689392,0.5294470787048339,-1.0,-1.0,0.0,4.0,1.0,913.0,173.0,913.0,173.0,457.187103271484,55.9593856499111,-76487.4406465822,,,,,,,,,6.0,4.0,701.01635,792.6857,91.66935,15.0355432083924,695.386740711276,68942.0662279362,-76487.4406465822,14.8436897857165
107,737.258,,,,,,Frage 1,1.0,18.0,0.1457684636116027,0.1837331056594848,0.0243906788527965,0.1443615555763244,0.0267264116555452,0.1266809850931167,0.0640326961874961,0.3287661075592041,0.0,0.8379082679748535,0.0618238598108291,99.63253021240233,98.76085662841797,0.0041623716242611,0.0467825904488563,0.2251911759376525,1.1221057176589966,53.81053161621094,2.1595873533897247e-08,3.4755969047546387,0.0044022924266755,0.0038357654120773,0.0618238598108291,1.9152752161026,5.3461724746739485e-05,1.0865567922592163,9.929228782653809,2.809526449709665e-06,0.0612183399498462,0.0669616162776947,0.8379082679748535,0.1534744501113891,0.001279367133975,0.0,72.0,-32.65008544921875,-0.1085681393742561,1.9916400909423828,113.83238220214844,1.0,18.0,640.0,480.0,0.0,301.0712585449219,315.3016967773437,1.0,437.2495727539063,451.4800415039063,2.0,313.070068359375,340.0934753417969,3.0,426.8553771972656,343.3668518066406,4.0,370.1716003417969,398.845947265625,5.0,367.5558471679688,451.2571716308594,,,,,,,,,,,,,,,,,,,,,,,,,,,,,,,,,,,,,,,,,,,,,,,
108,738.5253,,,,,,Frage 1,,,,,,,,,,,,,,,,,,,,,,,,,,,,,,,,,,,,,,,,,,,,,,,,,,,,,,,,,,,,,,,,,,,,,1.0,-1.0,-1.0,-1.0,-1.0,-1.0,-1.0,899.8490000000019,-1.0,-1.0,-1.0,-1.0,-1.0,-1.0,4.0,4.0,1.0,,,778.5,201.5,450.335067749024,629.453963566997,68942.0662279362,,,,,,,,,6.0,4.0,701.01635,792.6857,91.66935,15.0355432083924,695.386740711276,68942.0662279362,-76487.4406465822,14.8436897857165
109,746.8412,,,,,,Frage 1,,,,,,,,,,,,,,,,,,,,,,,,,,,,,,,,,,,,,,,,,,,,,,,,,,,,,,,,,,,,,,,,,,,,,1.0,-1.0,-1.0,644.0,230.0,-1.0,-1.0,908.1670000000013,-1.0,443.4830322265625,-1.0,-1.0,0.5124648809432983,0.5203304886817932,4.0,0.0,1.0,644.0,230.0,644.0,230.0,443.483032226562,205.595350150933,-50969.6621431314,,,,,,,,,6.0,4.0,701.01635,792.6857,91.66935,15.0355432083924,695.386740711276,68942.0662279362,-76487.4406465822,14.8436897857165
110,755.1763,,,,,,Frage 1,,,,,,,,,,,,,,,,,,,,,,,,,,,,,,,,,,,,,,,,,,,,,,,,,,,,,,,,,,,,,,,,,,,,,1.0,-1.0,-1.0,-1.0,-1.0,-1.0,-1.0,916.5019999999932,-1.0,-1.0,-1.0,-1.0,-1.0,-1.0,4.0,4.0,1.0,,,702.333333333333,246.0,443.482696533203,274.297274914439,8242.48356510486,,,,,,,,,6.0,4.0,701.01635,792.6857,91.66935,15.0355432083924,695.386740711276,68942.0662279362,-76487.4406465822,14.8436897857165
111,763.5176,,,,,,Frage 1,,,,,,,,,,,,,,,,,,,,,,,,,,,,,,,,,,,,,,,,,,,,,,,,,,,,,,,,,,,,,,,,,,,,,1.0,-1.0,-1.0,-1.0,-1.0,-1.0,-1.0,924.8429999999936,-1.0,-1.0,-1.0,-1.0,-1.0,-1.0,4.0,4.0,1.0,,,760.666666666667,262.0,443.482360839844,279.059276038331,570.894359858997,,,,,,,,,6.0,4.0,701.01635,792.6857,91.66935,15.0355432083924,695.386740711276,68942.0662279362,-76487.4406465822,14.8436897857165
112,769.3706,,,,,,Frage 1,1.0,19.0,0.1588486731052398,0.1881414800882339,0.0247960910201072,0.1549003720283508,0.0262943096458911,0.1280133128166198,0.0687072873115539,0.3287661075592041,0.0,0.6827704906463623,0.0551026947796344,99.62371826171876,98.69193267822264,0.0043386309407651,0.0512317232787609,0.243178367614746,1.4413347244262695,49.11991882324219,3.1114964826883806e-08,5.163767814636231,0.0041133551858365,0.003695546882227,0.0551026947796344,3.036659479141236,3.077388828387484e-05,0.9463253021240234,10.259300231933594,2.8929327982041286e-06,0.0554793439805507,0.0843547284603118,0.6827704906463623,0.2685350775718689,0.0011476468062028,0.0,72.0,-33.65536117553711,0.3827272355556488,3.0103063583374023,119.1873779296875,1.0,19.0,640.0,480.0,0.0,300.07305908203125,313.9407043457032,1.0,438.69384765625,452.56146240234375,2.0,311.6114807128906,339.01666259765625,3.0,430.723876953125,343.24383544921875,4.0,370.0621643066406,399.48333740234375,5.0,365.8150024414063,451.260498046875,,,,,,,,,,,,,,,,,,,,,,,,,,,,,,,,,,,,,,,,,,,,,,,
113,771.8409,,,,,,Frage 1,,,,,,,,,,,,,,,,,,,,,,,,,,,,,,,,,,,,,,,,,,,,,,,,,,,,,,,,,,,,,,,,,,,,,1.0,-1.0,-1.0,819.0,278.0,-1.0,-1.0,933.1659999999974,-1.0,443.4820251464844,-1.0,-1.0,0.5120277404785156,0.519987940788269,4.0,0.0,1.0,819.0,278.0,819.0,278.0,443.482025146484,149.888559931113,-15519.1710147678,,,,,,,,,6.0,4.0,701.01635,792.6857,91.66935,15.0355432083924,695.386740711276,68942.0662279362,-76487.4406465822,14.8436897857165
114,780.1729,,,,,,Frage 1,,,,,,,,,,,,,,,,,,,,,,,,,,,,,,,,,,,,,,,,,,,,,,,,,,,,,,,,,,,,,,,,,,,,,1.0,-1.0,-1.0,-1.0,-1.0,-1.0,-1.0,941.4979999999923,-1.0,-1.0,-1.0,-1.0,-1.0,-1.0,4.0,4.0,1.0,,,818.0,292.0,443.481302897135,65.4231467195311,-10137.4715808428,,,,,,,,,6.0,4.0,701.01635,792.6857,91.66935,15.0355432083924,695.386740711276,68942.0662279362,-76487.4406465822,14.8436897857165
115,788.5338,,,,,,Frage 1,,,,,,,,,,,,,,,,,,,,,,,,,,,,,,,,,,,,,,,,,,,,,,,,,,,,,,,,,,,,,,,,,,,,,1.0,-1.0,-1.0,-1.0,-1.0,-1.0,-1.0,949.8600000000004,-1.0,-1.0,-1.0,-1.0,-1.0,-1.0,4.0,4.0,1.0,,,817.0,306.0,443.480580647787,65.7351857183568,37.3212212591687,,,,,,,,,6.0,4.0,701.01635,792.6857,91.66935,15.0355432083924,695.386740711276,68942.0662279362,-76487.4406465822,14.8436897857165
116,796.8376,,,,,,Frage 1,,,,,,,,,,,,,,,,,,,,,,,,,,,,,,,,,,,,,,,,,,,,,,,,,,,,,,,,,,,,,,,,,,,,,1.0,-1.0,-1.0,816.0,320.0,-1.0,-1.0,958.1630000000004,-1.0,443.4798583984375,-1.0,-1.0,0.5114814043045043,0.5197387337684631,4.0,0.0,1.0,816.0,320.0,816.0,320.0,443.479858398438,27.8030778844822,-4568.04208120078,,,,,,,,,,,,,,,,,,
117,800.9881,,,,,,Frage 1,1.0,20.0,0.1611806154251098,0.189828023314476,0.0250299144536256,0.1579151898622512,0.0259708352386951,0.128756046295166,0.0699196234345436,0.3287661075592041,0.0,0.5743377208709716,0.0436322540044784,99.62034606933594,98.66896057128906,0.0048842499963939,0.055625669658184,0.2383560091257095,1.6064488887786863,46.445068359375,3.976599671773329e-08,5.579841613769531,0.0038024266250431,0.0036173621192574,0.0436322540044784,2.676874876022339,1.724620051390957e-05,0.8781217336654663,10.418106079101564,3.903647211700445e-06,0.0521658919751644,0.0919315889477729,0.5743377208709716,0.2770538330078125,0.0010659301187843,0.0,72.0,-33.29376220703125,0.4709343314170837,1.0936328172683716,114.6914520263672,1.0,20.0,640.0,480.0,0.0,300.1148681640625,313.7569885253906,1.0,437.60400390625,451.24615478515625,2.0,311.5450744628906,339.597900390625,3.0,426.224853515625,341.2344055175781,4.0,369.27688598632807,398.4750061035156,5.0,368.8084106445313,450.698974609375,,,,,,,,,,,,,,,,,,,,,,,,,,,,,,,,,,,,,,,,,,,,,,,
118,805.1964,,,,,,Frage 1,,,,,,,,,,,,,,,,,,,,,,,,,,,,,,,,,,,,,,,,,,,,,,,,,,,,,,,,,,,,,,,,,,,,,1.0,-1.0,-1.0,-1.0,-1.0,-1.0,-1.0,966.5230000000009,-1.0,-1.0,-1.0,-1.0,-1.0,-1.0,4.0,4.0,1.0,,,815.0,317.666666666667,443.479797363281,11.8311412911909,-1910.79300776321,,,,,,,,,,,,,,,,,,
119,813.5272,,,,,,Frage 1,,,,,,,,,,,,,,,,,,,,,,,,,,,,,,,,,,,,,,,,,,,,,,,,,,,,,,,,,,,,,,,,,,,,,1.0,-1.0,-1.0,-1.0,-1.0,-1.0,-1.0,974.853000000003,-1.0,-1.0,-1.0,-1.0,-1.0,-1.0,4.0,4.0,1.0,,,814.0,315.333333333333,443.479736328125,11.8384928268137,0.882452540303061,,,,,,,,,,,,,,,,,,
120,821.8651,,,,,,Frage 1,,,,,,,,,,,,,,,,,,,,,,,,,,,,,,,,,,,,,,,,,,,,,,,,,,,,,,,,,,,,,,,,,,,,,1.0,-1.0,-1.0,813.0,313.0,-1.0,-1.0,983.1889999999986,-1.0,443.4796752929688,-1.0,-1.0,0.5113319158554077,0.5195745229721069,4.0,0.0,1.0,813.0,313.0,813.0,313.0,443.479675292969,23.4303689361959,1390.26326885454,,,,,,,,,,,,,,,,,,
121,830.1945,,,,,,Frage 1,,,,,,,,,,,,,,,,,,,,,,,,,,,,,,,,,,,,,,,,,,,,,,,,,,,,,,,,,,,,,,,,,,,,,1.0,-1.0,-1.0,-1.0,-1.0,-1.0,-1.0,991.5209999999933,-1.0,-1.0,-1.0,-1.0,-1.0,-1.0,4.0,4.0,1.0,,,813.333333333334,305.333333333333,443.479288736979,35.9303125452975,1500.70156423051,,,,,,,,,7.0,5.0,826.0298,842.68255,16.65275,0.308650079729696,35.9303125452975,1500.70156423051,-5.85381193790112,272.489552921999
