Row,Timestamp,EventSource,SlideEvent,StimType,Duration,CollectionPhase,SourceStimuliName,EventSource.1,SampleNumber,Anger,Contempt,Disgust,Fear,Joy,Sadness,Surprise,Engagement,Valence,Sentimentality,Confusion,Neutral,Attention,Brow Furrow,Brow Raise,Cheek Raise,Chin Raise,Dimpler,Eye Closure,Eye Widen,Inner Brow Raise,Jaw Drop,Lip Corner Depressor,Lip Press,Lip Pucker,Lip Stretch,Lip Suck,Lid Tighten,Mouth Open,Nose Wrinkle,Smile,Smirk,Upper Lip Raise,Blink,BlinkRate,Pitch,Yaw,Roll,Interocular Distance,EventSource.2,SampleNumber.1,width,height,feature id_1,feature-x_1,feature-y_1,feature id_2,feature-x_2,feature-y_2,feature id_3,feature-x_3,feature-y_3,feature id_4,feature-x_4,feature-y_4,feature id_5,feature-x_5,feature-y_5,feature id_6,feature-x_6,feature-y_6,EventSource.3,CPU Sys,Memory Sys,CPU Proc,Memory Proc,EventSource.4,ET_GazeLeftx,ET_GazeLefty,ET_GazeRightx,ET_GazeRighty,ET_PupilLeft,ET_PupilRight,ET_TimeSignal,ET_DistanceLeft,ET_DistanceRight,ET_CameraLeftX,ET_CameraLeftY,ET_CameraRightX,ET_CameraRightY,ET_ValidityLeft,ET_ValidityRight,EventSource.5,Gaze X,Gaze Y,Interpolated Gaze X,Interpolated Gaze Y,Interpolated Distance,Gaze Velocity,Gaze Acceleration,Fixation Index,Fixation Index by Stimulus,Fixation X,Fixation Y,Fixation Start,Fixation End,Fixation Duration,Fixation Dispersion,Saccade Index,Saccade Index by Stimulus,Saccade Start,Saccade End,Saccade Duration,Saccade Amplitude,Saccade Peak Velocity,Saccade Peak Acceleration,Saccade Peak Deceleration,Saccade Direction
1,41.2845,1.0,StartSlide,TestImage,90000.0,StimuliDisplay,Frage 1,,,,,,,,,,,,,,,,,,,,,,,,,,,,,,,,,,,,,,,,,,,,,,,,,,,,,,,,,,,,,,,,,,,,,,,,,,,,,,,,,,,,,,,,,,,,,,,,,,,,,,,,,,,,,,
2,47.0867,,,,,,Frage 1,,,,,,,,,,,,,,,,,,,,,,,,,,,,,,,,,,,,,,,,,,,,,,,,,,,,,,,,,,,,,,,,,,,,,1.0,-1.0,-1.0,-1.0,-1.0,-1.0,-1.0,179.69700000000012,-1.0,-1.0,-1.0,-1.0,-1.0,-1.0,4.0,4.0,1.0,,,,,,,,,,,,,,,,,,,,,,,,,
3,55.457,,,,,,Frage 1,,,,,,,,,,,,,,,,,,,,,,,,,,,,,,,,,,,,,,,,,,,,,,,,,,,,,,,,,,,,,,,,,,,,,1.0,-1.0,-1.0,-1.0,-1.0,-1.0,-1.0,188.0679999999993,-1.0,-1.0,-1.0,-1.0,-1.0,-1.0,4.0,4.0,1.0,,,,,,,,,,,,,,,,,,,,,,,,,
4,63.806,,,,,,Frage 1,,,,,,,,,,,,,,,,,,,,,,,,,,,,,,,,,,,,,,,,,,,,,,,,,,,,,,,,,,,,,,,,,,,,,1.0,-1.0,-1.0,-1.0,-1.0,-1.0,-1.0,196.41700000000128,-1.0,-1.0,-1.0,-1.0,-1.0,-1.0,4.0,4.0,1.0,,,,,,,,,,,,,,,,,,,,,,,,,
5,64.0896,,,,,,Frage 1,1.0,-1.0,0.1265348345041275,0.1915175169706344,0.0239677261561155,0.1270098388195037,0.0243343487381935,0.1266090273857116,0.0554679483175277,0.3287661075592041,0.0,0.0064238691702485,0.0051737148314714,99.6169662475586,96.76295471191406,0.0011380492942407,0.075229562819004,0.0294606406241655,0.0017766586970537,0.0,0.0045366487465798,1.3446299817587716e-05,0.0025142056401818,0.0046697142533957,0.0051737148314714,0.0064238691702485,0.0057786395773291,0.0018067787168547,0.0002110264758812,0.0003767835733015,0.0016133686294779,0.0094127841293811,0.0973497405648231,0.0294038709253072,0.0011812772136181,1.0,,4.331104278564453,-5.011990547180176,-0.4617659747600555,128.8114776611328,1.0,-1.0,640.0,480.0,0.0,310.6894226074219,240.72601318359372,1.0,479.8834838867188,419.8804321289063,2.0,329.2728271484375,282.5461730957032,3.0,458.0484924316406,279.5086669921875,4.0,401.2491455078125,319.3568725585937,5.0,398.53802490234375,419.8804321289063,,,,,,,,,,,,,,,,,,,,,,,,,,,,,,,,,,,,,,,,,,,,,,,
6,72.0863,,,,,,Frage 1,,,,,,,,,,,,,,,,,,,,,,,,,,,,,,,,,,,,,,,,,,,,,,,,,,,,,,,,,,,,,,,,,,,,,1.0,-1.0,-1.0,-1.0,-1.0,-1.0,-1.0,204.69599999999627,-1.0,-1.0,-1.0,-1.0,-1.0,-1.0,4.0,4.0,1.0,,,,,,,,,,,,,,,,,,,,,,,,,
7,80.4161,,,,,,Frage 1,,,,,,,,,,,,,,,,,,,,,,,,,,,,,,,,,,,,,,,,,,,,,,,,,,,,,,,,,,,,,,,,,,,,,1.0,-1.0,-1.0,-1.0,-1.0,-1.0,-1.0,213.02700000000183,-1.0,-1.0,-1.0,-1.0,-1.0,-1.0,4.0,4.0,1.0,,,,,,,,,,,,,,,,,,,,,,,,,
8,88.7492,,,,,,Frage 1,,,,,,,,,,,,,,,,,,,,,,,,,,,,,,,,,,,,,,,,,,,,,,,,,,,,,,,,,,,,,,,,,,,,,1.0,-1.0,-1.0,-1.0,-1.0,-1.0,-1.0,221.36000000000055,-1.0,-1.0,-1.0,-1.0,-1.0,-1.0,4.0,4.0,1.0,,,,,,,,,,,,,,,,,,,,,,,,,
9,95.2552,1.0,StartMedia,TestImage,90000.0,StimuliDisplay,Frage 1,1.0,0.0,0.1265037953853607,0.1910905241966247,0.0239578112959861,0.1269627958536148,0.02436931617558,0.1265956461429595,0.0554592534899711,0.3287661075592041,0.0,0.0050014872103929,0.0050014872103929,99.61781311035155,97.08274078369139,0.001395802013576,0.0717675313353538,0.0376221388578414,0.0016532007139176,0.0,0.0040106731466948,1.88408976100618e-05,0.0028793397359549,0.0040061511099338,0.0050014872103929,0.0040691117756068,0.0050733126699924,0.0011752230348065,0.0002108150656567,0.0004511445586103,0.0013772927923128,0.0076885460875928,0.1060673743486404,0.0136366626247763,0.0007994073675945,0.0,,4.696784496307373,-4.475403785705566,0.6168962717056274,130.01918029785156,1.0,0.0,640.0,480.0,0.0,311.2916259765625,239.51095581054688,1.0,480.9780883789063,419.50286865234375,2.0,330.58709716796875,280.896728515625,3.0,460.59027099609375,278.8565368652344,4.0,401.6927795410156,318.1605834960937,5.0,397.2272338867188,419.50286865234375,,,,,,,,,,,,,,,,,,,,,,,,,,,,,,,,,,,,,,,,,,,,,,,
10,97.082,,,,,,Frage 1,,,,,,,,,,,,,,,,,,,,,,,,,,,,,,,,,,,,,,,,,,,,,,,,,,,,,,,,,,,,,,,,,,,,,1.0,-1.0,-1.0,-1.0,-1.0,-1.0,-1.0,229.6929999999993,-1.0,-1.0,-1.0,-1.0,-1.0,-1.0,4.0,4.0,1.0,,,,,,,,,,,,,,,,,,,,,,,,,
11,105.4028,,,,,,Frage 1,,,,,,,,,,,,,,,,,,,,,,,,,,,,,,,,,,,,,,,,,,,,,,,,,,,,,,,,,,,,,,,,,,,,,1.0,-1.0,-1.0,909.0,133.0,-1.0,-1.0,238.0139999999956,-1.0,492.6839294433594,-1.0,-1.0,0.5583924651145935,0.3516656160354614,4.0,0.0,1.0,909.0,133.0,909.0,133.0,492.683929443359,,,,,,,,,,,,,,,,,,,,
12,113.7252,,,,,,Frage 1,,,,,,,,,,,,,,,,,,,,,,,,,,,,,,,,,,,,,,,,,,,,,,,,,,,,,,,,,,,,,,,,,,,,,1.0,-1.0,-1.0,867.0,264.0,-1.0,4.031173706054688,246.3359999999957,-1.0,492.7503662109375,-1.0,-1.0,0.5589762926101683,0.3518922328948974,4.0,0.0,1.0,867.0,264.0,867.0,264.0,492.750366210938,1075.10329478997,,,,,,,,,,1.0,1.0,109.564,292.84095,183.27695,2.37531504468504,1075.10329478997,27836.8452443377,-60138.5662693152,125.238225224958
13,122.0517,,,,,,Frage 1,,,,,,,,,,,,,,,,,,,,,,,,,,,,,,,,,,,,,,,,,,,,,,,,,,,,,,,,,,,,,,,,,,,,,1.0,1250.0,506.0,-1.0,-1.0,-1.0,-1.0,254.6630000000005,486.5596923828125,-1.0,0.7542831897735595,0.3534327149391174,-1.0,-1.0,0.0,4.0,1.0,1250.0,506.0,1250.0,506.0,486.559692382813,625.394298595905,-54009.3672244123,,,,,,,,,1.0,1.0,109.564,292.84095,183.27695,2.37531504468504,1075.10329478997,27836.8452443377,-60138.5662693152,125.238225224958
14,130.3725,,,,,,Frage 1,,,,,,,,,,,,,,,,,,,,,,,,,,,,,,,,,,,,,,,,,,,,,,,,,,,,,,,,,,,,,,,,,,,,,1.0,-1.0,-1.0,-1.0,-1.0,-1.0,-1.0,262.9829999999929,-1.0,-1.0,-1.0,-1.0,-1.0,-1.0,4.0,4.0,1.0,,,1101.5,430.25,488.139251708984,723.937120253219,11842.9503962738,,,,,,,,,1.0,1.0,109.564,292.84095,183.27695,2.37531504468504,1075.10329478997,27836.8452443377,-60138.5662693152,125.238225224958
15,138.6913,,,,,,Frage 1,,,,,,,,,,,,,,,,,,,,,,,,,,,,,,,,,,,,,,,,,,,,,,,,,,,,,,,,,,,,,,,,,,,,,1.0,1044.0,450.0,862.0,259.0,4.00482177734375,4.1263580322265625,271.3029999999999,486.6510009765625,492.78662109375,0.7541948556900024,0.3538457155227661,0.5593268275260925,0.3529520332813262,0.0,0.0,1.0,953.0,354.5,953.0,354.5,489.718811035156,636.020466094444,-10568.4298406952,,,,,,,,,1.0,1.0,109.564,292.84095,183.27695,2.37531504468504,1075.10329478997,27836.8452443377,-60138.5662693152,125.238225224958
16,147.0256,,,,,,Frage 1,,,,,,,,,,,,,,,,,,,,,,,,,,,,,,,,,,,,,,,,,,,,,,,,,,,,,,,,,,,,,,,,,,,,,1.0,-1.0,-1.0,862.0,259.0,-1.0,-1.0,279.6359999999986,-1.0,492.718994140625,-1.0,-1.0,0.5597131252288818,0.3534727096557617,4.0,0.0,1.0,862.0,259.0,862.0,259.0,492.718994140625,134.807613236091,-60138.5662693152,,,,,,,,,1.0,1.0,109.564,292.84095,183.27695,2.37531504468504,1075.10329478997,27836.8452443377,-60138.5662693152,125.238225224958
17,155.358,,,,,,Frage 1,,,,,,,,,,,,,,,,,,,,,,,,,,,,,,,,,,,,,,,,,,,,,,,,,,,,,,,,,,,,,,,,,,,,,1.0,-1.0,-1.0,-1.0,-1.0,-1.0,-1.0,287.96899999999727,-1.0,-1.0,-1.0,-1.0,-1.0,-1.0,4.0,4.0,1.0,,,892.25,339.25,491.23942565918,366.755342550011,27836.8452443377,,,,,,,,,1.0,1.0,109.564,292.84095,183.27695,2.37531504468504,1075.10329478997,27836.8452443377,-60138.5662693152,125.238225224958
18,163.6917,,,,,,Frage 1,,,,,,,,,,,,,,,,,,,,,,,,,,,,,,,,,,,,,,,,,,,,,,,,,,,,,,,,,,,,,,,,,,,,,1.0,1046.0,451.0,799.0,388.0,3.9974365234375,4.07000732421875,296.30199999999604,486.6912231445313,492.8284912109375,0.7541773319244384,0.3549889326095581,0.559351623058319,0.3541211485862731,0.0,0.0,1.0,922.5,419.5,922.5,419.5,489.759857177734,137.887013024973,-27462.991171393,,,,,,,,,1.0,1.0,109.564,292.84095,183.27695,2.37531504468504,1075.10329478997,27836.8452443377,-60138.5662693152,125.238225224958
19,172.0234,,,,,,Frage 1,,,,,,,,,,,,,,,,,,,,,,,,,,,,,,,,,,,,,,,,,,,,,,,,,,,,,,,,,,,,,,,,,,,,,1.0,898.0,383.0,799.0,388.0,-1.0,-1.0,304.6319999999978,486.6328125,492.7552185058594,0.7542964220046997,0.3555813431739807,0.559816300868988,0.354501187801361,0.0,0.0,1.0,848.5,385.5,848.5,385.5,489.69401550293,183.639093165889,5491.32591678961,,,,,,,,,1.0,1.0,109.564,292.84095,183.27695,2.37531504468504,1075.10329478997,27836.8452443377,-60138.5662693152,125.238225224958
20,180.3646,,,,,,Frage 1,,,,,,,,,,,,,,,,,,,,,,,,,,,,,,,,,,,,,,,,,,,,,,,,,,,,,,,,,,,,,,,,,,,,,1.0,-1.0,-1.0,-1.0,-1.0,-1.0,-1.0,312.9759999999951,-1.0,-1.0,-1.0,-1.0,-1.0,-1.0,4.0,4.0,1.0,,,875.5,348.666666666667,496.468963623047,194.656386070428,1320.8282866421,,,,,,,,,1.0,1.0,109.564,292.84095,183.27695,2.37531504468504,1075.10329478997,27836.8452443377,-60138.5662693152,125.238225224958
21,188.6991,,,,,,Frage 1,,,,,,,,,,,,,,,,,,,,,,,,,,,,,,,,,,,,,,,,,,,,,,,,,,,,,,,,,,,,,,,,,,,,,1.0,-1.0,-1.0,-1.0,-1.0,-1.0,-1.0,321.30899999999383,-1.0,-1.0,-1.0,-1.0,-1.0,-1.0,4.0,4.0,1.0,,,902.5,311.833333333333,503.243911743164,191.133381885173,-422.701324045212,,,,,,,,,1.0,1.0,109.564,292.84095,183.27695,2.37531504468504,1075.10329478997,27836.8452443377,-60138.5662693152,125.238225224958
22,197.051,,,,,,Frage 1,,,,,,,,,,,,,,,,,,,,,,,,,,,,,,,,,,,,,,,,,,,,,,,,,,,,,,,,,,,,,,,,,,,,,1.0,829.0,380.0,1030.0,170.0,-1.0,-1.0,329.6619999999966,486.6968383789063,533.3408813476562,0.7537490129470825,0.3566317558288574,0.5565715432167053,0.3552804589271545,0.0,0.0,1.0,929.5,275.0,929.5,275.0,510.018859863281,56.9158899870154,-16070.2944118294,,,,,,,,,1.0,1.0,109.564,292.84095,183.27695,2.37531504468504,1075.10329478997,27836.8452443377,-60138.5662693152,125.238225224958
23,205.391,,,,,,Frage 1,,,,,,,,,,,,,,,,,,,,,,,,,,,,,,,,,,,,,,,,,,,,,,,,,,,,,,,,,,,,,,,,,,,,,1.0,-1.0,-1.0,-1.0,-1.0,-1.0,-1.0,337.99800000000687,-1.0,-1.0,-1.0,-1.0,-1.0,-1.0,4.0,4.0,1.0,,,911.1,285.5,510.05036315918,87.683875480621,3689.20689371769,,,,,,,,,1.0,1.0,109.564,292.84095,183.27695,2.37531504468504,1075.10329478997,27836.8452443377,-60138.5662693152,125.238225224958
24,213.72,,,,,,Frage 1,,,,,,,,,,,,,,,,,,,,,,,,,,,,,,,,,,,,,,,,,,,,,,,,,,,,,,,,,,,,,,,,,,,,,1.0,-1.0,-1.0,-1.0,-1.0,-1.0,-1.0,346.3310000000056,-1.0,-1.0,-1.0,-1.0,-1.0,-1.0,4.0,4.0,1.0,,,892.7,296.0,510.081866455078,87.6915971261526,0.927079545154178,,,,,,,,,1.0,1.0,109.564,292.84095,183.27695,2.37531504468504,1075.10329478997,27836.8452443377,-60138.5662693152,125.238225224958
25,222.0763,,,,,,Frage 1,,,,,,,,,,,,,,,,,,,,,,,,,,,,,,,,,,,,,,,,,,,,,,,,,,,,,,,,,,,,,,,,,,,,,1.0,-1.0,-1.0,-1.0,-1.0,-1.0,-1.0,354.6640000000043,-1.0,-1.0,-1.0,-1.0,-1.0,-1.0,4.0,4.0,1.0,,,874.3,306.5,510.113369750977,87.859154902122,20.0516707118512,,,,,,,,,1.0,1.0,109.564,292.84095,183.27695,2.37531504468504,1075.10329478997,27836.8452443377,-60138.5662693152,125.238225224958
26,223.771,,,,,,Frage 1,1.0,1.0,,,,,,,,,,,,,,,,,,,,,,,,,,,,,,,,,,,,,,,,1.0,1.0,640.0,480.0,,,,,,,,,,,,,,,,,,,,,,,,,,,,,,,,,,,,,,,,,,,,,,,,,,,,,,,,,,,,,,,,,
27,225.77,,,,,,Frage 1,1.0,2.0,,,,,,,,,,,,,,,,,,,,,,,,,,,,,,,,,,,,,,,,1.0,2.0,640.0,480.0,,,,,,,,,,,,,,,,,,,,,,,,,,,,,,,,,,,,,,,,,,,,,,,,,,,,,,,,,,,,,,,,,
28,228.8621,,,,,,Frage 1,1.0,3.0,0.1265028417110443,0.1908251345157623,0.0239521469920873,0.1268699467182159,0.0244078710675239,0.1266178339719772,0.0554272048175334,0.3287661075592041,0.0,0.0060221287421882,0.0060221287421882,99.61834716796876,96.6910934448242,0.0015158610185608,0.0574951954185962,0.050630934536457,0.0016807100037112,0.0,4.1792402267456055,1.785644781193696e-05,0.0028713715728372,0.0043957694433629,0.0060221287421882,0.0042307446710765,0.0050573917105793,0.0008879150263965,0.0002377315249759,0.0003976610896643,0.0012103504268452,0.0077216024510562,0.1136257797479629,0.0024807080626487,0.001154035446234,0.0,,4.627403259277344,-5.125479698181152,1.053726315498352,129.4459686279297,1.0,3.0,640.0,480.0,0.0,312.5714111328125,238.95965576171875,1.0,482.1138305664063,418.6428833007813,2.0,332.5016784667969,278.9266662597656,3.0,461.945556640625,279.6616516113281,4.0,403.5905151367188,317.6922607421875,5.0,397.5806274414063,418.6428833007813,,,,,,,,,,,,,,,,,,,,,,,,,,,,,,,,,,,,,,,,,,,,,,,
29,230.3858,,,,,,Frage 1,,,,,,,,,,,,,,,,,,,,,,,,,,,,,,,,,,,,,,,,,,,,,,,,,,,,,,,,,,,,,,,,,,,,,1.0,-1.0,-1.0,-1.0,-1.0,-1.0,-1.0,362.997000000003,-1.0,-1.0,-1.0,-1.0,-1.0,-1.0,4.0,4.0,1.0,,,855.9,317.0,510.144873046875,88.0211741177727,19.4980703593102,,,,,,,,,1.0,1.0,109.564,292.84095,183.27695,2.37531504468504,1075.10329478997,27836.8452443377,-60138.5662693152,125.238225224958
30,238.7183,,,,,,Frage 1,,,,,,,,,,,,,,,,,,,,,,,,,,,,,,,,,,,,,,,,,,,,,,,,,,,,,,,,,,,,,,,,,,,,,1.0,845.0,399.0,830.0,256.0,4.0065460205078125,4.4989776611328125,371.3260000000009,486.8699645996094,533.4827880859375,0.7525455355644226,0.3577716350555419,0.5559737086296082,0.3568574488162994,0.0,0.0,1.0,837.5,327.5,837.5,327.5,510.176376342773,172.680910187458,10160.1843467969,,,,,,,,,1.0,1.0,109.564,292.84095,183.27695,2.37531504468504,1075.10329478997,27836.8452443377,-60138.5662693152,125.238225224958
31,247.0569,,,,,,Frage 1,,,,,,,,,,,,,,,,,,,,,,,,,,,,,,,,,,,,,,,,,,,,,,,,,,,,,,,,,,,,,,,,,,,,,1.0,847.0,400.0,-1.0,-1.0,-1.0,-1.0,379.6619999999966,486.8175048828125,-1.0,0.7525372505187988,0.3583589792251586,-1.0,-1.0,0.0,4.0,1.0,847.0,400.0,847.0,400.0,486.817504882813,95.169202240741,-9295.5301785332,,,,,,,,,1.0,1.0,109.564,292.84095,183.27695,2.37531504468504,1075.10329478997,27836.8452443377,-60138.5662693152,125.238225224958
32,255.3842,,,,,,Frage 1,,,,,,,,,,,,,,,,,,,,,,,,,,,,,,,,,,,,,,,,,,,,,,,,,,,,,,,,,,,,,,,,,,,,,1.0,-1.0,-1.0,-1.0,-1.0,-1.0,-1.0,387.99400000000605,-1.0,-1.0,-1.0,-1.0,-1.0,-1.0,4.0,4.0,1.0,,,840.25,371.5,498.52806854248,123.880310889794,3447.82926627518,,,,,,,,,1.0,1.0,109.564,292.84095,183.27695,2.37531504468504,1075.10329478997,27836.8452443377,-60138.5662693152,125.238225224958
33,263.7158,,,,,,Frage 1,,,,,,,,,,,,,,,,,,,,,,,,,,,,,,,,,,,,,,,,,,,,,,,,,,,,,,,,,,,,,,,,,,,,,1.0,855.0,412.0,812.0,274.0,3.983673095703125,4.492767333984375,396.32499999999703,486.9421691894531,533.5350952148438,0.7518005967140197,0.3587826490402221,0.5554608106613159,0.3580339848995208,0.0,0.0,1.0,833.5,343.0,833.5,343.0,510.238632202148,77.7302370441746,-5539.1610069638,,,,,,,,,1.0,1.0,109.564,292.84095,183.27695,2.37531504468504,1075.10329478997,27836.8452443377,-60138.5662693152,125.238225224958
34,272.0113,,,,,,Frage 1,,,,,,,,,,,,,,,,,,,,,,,,,,,,,,,,,,,,,,,,,,,,,,,,,,,,,,,,,,,,,,,,,,,,,1.0,-1.0,-1.0,-1.0,-1.0,-1.0,-1.0,404.622000000003,-1.0,-1.0,-1.0,-1.0,-1.0,-1.0,4.0,4.0,1.0,,,831.833333333333,334.833333333333,512.728780110677,34.1857978774074,-5249.16390413684,,,,,,,,,1.0,1.0,109.564,292.84095,183.27695,2.37531504468504,1075.10329478997,27836.8452443377,-60138.5662693152,125.238225224958
35,280.3432,,,,,,Frage 1,,,,,,,,,,,,,,,,,,,,,,,,,,,,,,,,,,,,,,,,,,,,,,,,,,,,,,,,,,,,,,,,,,,,,1.0,-1.0,-1.0,-1.0,-1.0,-1.0,-1.0,412.9539999999979,-1.0,-1.0,-1.0,-1.0,-1.0,-1.0,4.0,4.0,1.0,,,830.166666666667,326.666666666667,515.218928019206,33.9049060279908,-33.7128205351263,,,,,,,,,1.0,1.0,109.564,292.84095,183.27695,2.37531504468504,1075.10329478997,27836.8452443377,-60138.5662693152,125.238225224958
36,288.6757,,,,,,Frage 1,,,,,,,,,,,,,,,,,,,,,,,,,,,,,,,,,,,,,,,,,,,,,,,,,,,,,,,,,,,,,,,,,,,,,1.0,850.0,367.0,807.0,270.0,4.1624755859375,4.4292755126953125,421.2859999999928,501.832275390625,533.5858764648438,0.7503247857093811,0.3599270284175872,0.5551502704620361,0.3592603206634521,0.0,0.0,1.0,828.5,318.5,828.5,318.5,517.709075927734,64.1474776889105,3629.47154646502,,,,,,,,,1.0,1.0,109.564,292.84095,183.27695,2.37531504468504,1075.10329478997,27836.8452443377,-60138.5662693152,125.238225224958
37,297.0062,,,,,,Frage 1,,,,,,,,,,,,,,,,,,,,,,,,,,,,,,,,,,,,,,,,,,,,,,,,,,,,,,,,,,,,,,,,,,,,,1.0,842.0,356.0,-1.0,-1.0,-1.0,-1.0,429.6169999999984,507.809326171875,-1.0,0.7497326135635376,0.3606486320495605,-1.0,-1.0,0.0,4.0,1.0,842.0,356.0,842.0,356.0,507.809326171875,17.5974155777285,-5587.90734183807,,,,,,,,,,,,,,,,,,
38,305.3569,,,,,,Frage 1,,,,,,,,,,,,,,,,,,,,,,,,,,,,,,,,,,,,,,,,,,,,,,,,,,,,,,,,,,,,,,,,,,,,,1.0,-1.0,-1.0,-1.0,-1.0,-1.0,-1.0,437.96700000000413,-1.0,-1.0,-1.0,-1.0,-1.0,-1.0,4.0,4.0,1.0,,,830.75,326.75,514.535171508789,127.245914779447,13130.4560338317,,,,,,,,,2.0,2.0,301.18155,342.85075,41.6691999999999,0.354022694517454,127.245914779447,13130.4560338317,-4589.56817194652,274.184916125118
39,313.706,,,,,,Frage 1,,,,,,,,,,,,,,,,,,,,,,,,,,,,,,,,,,,,,,,,,,,,,,,,,,,,,,,,,,,,,,,,,,,,,1.0,826.0,323.0,813.0,272.0,4.22882080078125,4.5047149658203125,446.31699999999546,508.8889770507813,533.633056640625,0.7495729327201843,0.3611142337322235,0.5551127195358276,0.3604863882064819,0.0,0.0,1.0,819.5,297.5,819.5,297.5,521.261016845703,88.9271511550486,-4589.56817194652,,,,,,,,,2.0,2.0,301.18155,342.85075,41.6691999999999,0.354022694517454,127.245914779447,13130.4560338317,-4589.56817194652,274.184916125118
40,322.007,,,,,,Frage 1,,,,,,,,,,,,,,,,,,,,,,,,,,,,,,,,,,,,,,,,,,,,,,,,,,,,,,,,,,,,,,,,,,,,,1.0,857.0,293.0,802.0,272.0,-1.0,-1.0,454.6169999999984,509.1996154785156,533.5804443359375,0.749565601348877,0.3617141842842102,0.5551047325134277,0.3610164821147918,0.0,0.0,1.0,829.5,282.5,829.5,282.5,521.390029907227,93.4785106271447,548.290503806304,,,,,,,,,2.0,2.0,301.18155,342.85075,41.6691999999999,0.354022694517454,127.245914779447,13130.4560338317,-4589.56817194652,274.184916125118
41,330.3436,,,,,,Frage 1,,,,,,,,,,,,,,,,,,,,,,,,,,,,,,,,,,,,,,,,,,,,,,,,,,,,,,,,,,,,,,,,,,,,,1.0,829.0,343.0,-1.0,-1.0,-1.0,-1.0,462.9539999999979,509.508056640625,-1.0,0.7494007349014282,0.3619488477706909,-1.0,-1.0,0.0,4.0,1.0,829.0,343.0,829.0,343.0,509.508056640625,69.6671336125409,-2856.24559347982,,,,,,,,,2.0,2.0,301.18155,342.85075,41.6691999999999,0.354022694517454,127.245914779447,13130.4560338317,-4589.56817194652,274.184916125118
42,331.8428,,,,,,Frage 1,1.0,4.0,,,,,,,,,,,,,,,,,,,,,,,,,,,,,,,,,,,,,,,,1.0,4.0,640.0,480.0,,,,,,,,,,,,,,,,,,,,,,,,,,,,,,,,,,,,,,,,,,,,,,,,,,,,,,,,,,,,,,,,,
43,334.8415,,,,,,Frage 1,1.0,5.0,,,,,,,,,,,,,,,,,,,,,,,,,,,,,,,,,,,,,,,,1.0,5.0,640.0,480.0,,,,,,,,,,,,,,,,,,,,,,,,,,,,,,,,,,,,,,,,,,,,,,,,,,,,,,,,,,,,,,,,,
44,338.0118,,,,,,Frage 1,1.0,6.0,,,,,,,,,,,,,,,,,,,,,,,,,,,,,,,,,,,,,,,,1.0,6.0,640.0,480.0,,,,,,,,,,,,,,,,,,,,,,,,,,,,,,,,,,,,,,,,,,,,,,,,,,,,,,,,,,,,,,,,,
45,338.6987,,,,,,Frage 1,,,,,,,,,,,,,,,,,,,,,,,,,,,,,,,,,,,,,,,,,,,,,,,,,,,,,,,,,,,,,,,,,,,,,1.0,841.0,344.0,822.0,289.0,4.2734375,4.504440307617188,471.3089999999938,510.2996826171875,534.4637451171875,0.7495769262313842,0.3623336553573608,0.5554101467132568,0.3616648316383361,0.0,0.0,1.0,831.5,316.5,831.5,316.5,522.381713867188,34.4195260458254,-4218.69368011341,,,,,,,,,2.0,2.0,301.18155,342.85075,41.6691999999999,0.354022694517454,127.245914779447,13130.4560338317,-4589.56817194652,274.184916125118
46,340.821,,,,,,Frage 1,1.0,7.0,0.1264684945344924,0.1905696541070938,0.0239316932857036,0.1266674697399139,0.0245125852525234,0.1266319453716278,0.0553704388439655,0.3287661075592041,0.0,0.0078275818377733,0.0051967678591609,99.61885833740233,96.8632354736328,0.0021879062987864,0.0312658138573169,0.0801827237010002,0.0010359260486438,0.0,82.5575942993164,1.7072479749913327e-05,0.0028883053455501,0.0060143982991576,0.0078275818377733,0.0029303515329957,0.0038153356872498,0.0002736436726991,0.000227376789553,0.0005525361048057,0.0012730638263747,0.0051967678591609,0.1369765102863311,0.0,0.0025479204487055,0.0,,8.025216102600098,-4.849454879760742,0.1600218564271926,128.75279235839844,1.0,7.0,640.0,480.0,0.0,314.6566467285156,237.19644165039065,1.0,485.0718688964844,417.3861083984375,2.0,334.49432373046875,277.8810729980469,3.0,463.2286376953125,280.0623779296875,4.0,405.712890625,314.28668212890625,5.0,401.8698120117188,417.3861083984375,,,,,,,,,,,,,,,,,,,,,,,,,,,,,,,,,,,,,,,,,,,,,,,
47,347.0028,,,,,,Frage 1,,,,,,,,,,,,,,,,,,,,,,,,,,,,,,,,,,,,,,,,,,,,,,,,,,,,,,,,,,,,,,,,,,,,,1.0,841.0,331.0,-1.0,-1.0,-1.0,-1.0,479.6129999999976,510.5474243164063,-1.0,0.7495205998420715,0.3630138039588928,-1.0,-1.0,0.0,4.0,1.0,841.0,331.0,841.0,331.0,510.547424316406,18.1274490547297,-1961.93169531866,,,,,,,,,,,,,,,,,,
48,355.3414,,,,,,Frage 1,,,,,,,,,,,,,,,,,,,,,,,,,,,,,,,,,,,,,,,,,,,,,,,,,,,,,,,,,,,,,,,,,,,,,1.0,840.0,331.0,810.0,290.0,-1.0,-1.0,487.95299999999406,514.7835083007812,536.5927734375,0.749261736869812,0.3631507754325866,0.5554642677307128,0.3626470565795898,0.0,0.0,1.0,825.0,310.5,825.0,310.5,525.688140869141,82.5961574636205,7731.35879031138,,,,,,,,,3.0,3.0,351.1721,442.8249,91.6528,3.56080732076241,195.601605989054,15912.470864698,-16438.1663197829,127.140158752338
49,363.6697,,,,,,Frage 1,,,,,,,,,,,,,,,,,,,,,,,,,,,,,,,,,,,,,,,,,,,,,,,,,,,,,,,,,,,,,,,,,,,,,1.0,827.0,332.0,792.0,276.0,4.3079986572265625,4.5803985595703125,496.27899999999494,518.0714721679688,542.4352416992188,0.749238610267639,0.3634413480758667,0.5551674962043762,0.362889289855957,0.0,0.0,1.0,809.5,304.0,809.5,304.0,530.253356933594,54.7778338621943,-3340.21632283015,,,,,,,,,3.0,3.0,351.1721,442.8249,91.6528,3.56080732076241,195.601605989054,15912.470864698,-16438.1663197829,127.140158752338
50,368.4631,,,,,,Frage 1,1.0,8.0,0.1262109279632568,0.1897664219141006,0.0238961242139339,0.1263875812292099,0.0246602408587932,0.1263659745454788,0.0553588047623634,0.3287661075592041,0.0,0.0083454558625817,0.0083454558625817,99.62046813964845,96.81934356689453,0.0023232828825712,0.0279833748936653,0.0727554410696029,0.0010772264795377,0.0,0.0623367503285408,2.069052789011039e-05,0.0018259504577144,0.0053016650490462,0.0083454558625817,0.0006715701892971,0.0036905738525092,0.0002313924196641,0.0002371513983234,0.000621412822511,0.0012188163818791,0.0144215179607272,0.1945418864488601,0.0,0.0016041664639487,1.0,,5.878064632415772,-4.921202659606934,1.0417814254760742,130.63619995117188,1.0,8.0,640.0,480.0,0.0,315.0125732421875,235.72601318359372,1.0,484.7682800292969,415.5197143554688,2.0,334.4473876953125,275.8800048828125,3.0,465.0767822265625,277.2130432128906,4.0,405.98040771484375,313.802734375,5.0,400.1470947265625,415.5197143554688,,,,,,,,,,,,,,,,,,,,,,,,,,,,,,,,,,,,,,,,,,,,,,,
51,372.0279,,,,,,Frage 1,,,,,,,,,,,,,,,,,,,,,,,,,,,,,,,,,,,,,,,,,,,,,,,,,,,,,,,,,,,,,,,,,,,,,1.0,822.0,338.0,-1.0,-1.0,-1.0,-1.0,504.63800000000634,521.8660278320312,-1.0,0.7489948272705078,0.3642476201057434,-1.0,-1.0,0.0,4.0,1.0,822.0,338.0,822.0,338.0,521.866027832031,70.8757451334968,1926.00216210458,,,,,,,,,3.0,3.0,351.1721,442.8249,91.6528,3.56080732076241,195.601605989054,15912.470864698,-16438.1663197829,127.140158752338
52,380.4202,,,,,,Frage 1,,,,,,,,,,,,,,,,,,,,,,,,,,,,,,,,,,,,,,,,,,,,,,,,,,,,,,,,,,,,,,,,,,,,,1.0,-1.0,-1.0,-1.0,-1.0,-1.0,-1.0,513.0310000000027,-1.0,-1.0,-1.0,-1.0,-1.0,-1.0,4.0,4.0,1.0,,,806.0,339.25,529.07829284668,64.0341143855581,-815.227142492364,,,,,,,,,3.0,3.0,351.1721,442.8249,91.6528,3.56080732076241,195.601605989054,15912.470864698,-16438.1663197829,127.140158752338
53,388.6884,,,,,,Frage 1,,,,,,,,,,,,,,,,,,,,,,,,,,,,,,,,,,,,,,,,,,,,,,,,,,,,,,,,,,,,,,,,,,,,,1.0,810.0,356.0,770.0,325.0,4.4608001708984375,4.711929321289063,521.2979999999952,524.0685424804688,548.5125732421875,0.7492923140525817,0.3652785420417785,0.5557838678359985,0.3646277785301208,0.0,0.0,1.0,790.0,340.5,790.0,340.5,536.290557861328,195.601605989054,15912.470864698,,,,,,,,,3.0,3.0,351.1721,442.8249,91.6528,3.56080732076241,195.601605989054,15912.470864698,-16438.1663197829,127.140158752338
54,397.0236,,,,,,Frage 1,,,,,,,,,,,,,,,,,,,,,,,,,,,,,,,,,,,,,,,,,,,,,,,,,,,,,,,,,,,,,,,,,,,,,1.0,744.0,416.0,-1.0,-1.0,-1.0,-1.0,529.6349999999948,524.1719970703125,-1.0,0.749321699142456,0.3658325970172882,-1.0,-1.0,0.0,4.0,1.0,744.0,416.0,744.0,416.0,524.171997070313,170.550981401658,-3005.40174049763,,,,,,,,,3.0,3.0,351.1721,442.8249,91.6528,3.56080732076241,195.601605989054,15912.470864698,-16438.1663197829,127.140158752338
55,399.9714,,,,,,Frage 1,1.0,9.0,0.1259712576866149,0.1890466958284378,0.0238736923784017,0.126221552491188,0.0248420219868421,0.1261739581823349,0.0553893633186817,0.3287661075592041,0.0,0.0094601064920425,0.0094601064920425,99.62191009521484,95.8906021118164,0.0030698680784553,0.0409488826990127,0.110389657318592,0.0010863813804462,0.0,0.0001338223810307,8.479478856315836e-05,0.0012738921213895,0.0060743382200598,0.0094601064920425,0.0020657333079725,0.0023491869214922,0.0003925958881154,0.0002391680463915,0.0006101059843786,0.001064061303623,0.0261124577373266,0.2412270456552505,0.0,0.0021714167669415,0.0,,7.957609176635742,-6.250333786010742,-0.1370308548212051,126.46808624267578,1.0,9.0,640.0,480.0,0.0,316.1011047363281,234.45925903320315,1.0,486.2189636230469,415.3259887695313,2.0,336.6230163574219,276.0094909667969,3.0,463.08990478515625,275.4584045410156,4.0,408.3034362792969,311.27880859375,5.0,403.7672119140625,415.3259887695313,,,,,,,,,,,,,,,,,,,,,,,,,,,,,,,,,,,,,,,,,,,,,,,
56,405.3351,,,,,,Frage 1,,,,,,,,,,,,,,,,,,,,,,,,,,,,,,,,,,,,,,,,,,,,,,,,,,,,,,,,,,,,,,,,,,,,,1.0,748.0,429.0,728.0,385.0,-1.0,-1.0,537.9459999999963,524.1561279296875,550.0499267578125,0.7494482398033142,0.3660510778427124,0.555927038192749,0.365472137928009,0.0,0.0,1.0,738.0,407.0,738.0,407.0,537.10302734375,33.9251620347826,-16438.1663197829,,,,,,,,,3.0,3.0,351.1721,442.8249,91.6528,3.56080732076241,195.601605989054,15912.470864698,-16438.1663197829,127.140158752338
57,413.6604,,,,,,Frage 1,,,,,,,,,,,,,,,,,,,,,,,,,,,,,,,,,,,,,,,,,,,,,,,,,,,,,,,,,,,,,,,,,,,,,1.0,744.0,425.0,725.0,378.0,4.4483184814453125,4.7232818603515625,546.2719999999972,524.5005493164064,553.0400390625,0.7493856549263,0.3663713335990905,0.5557076334953308,0.3657256662845611,0.0,0.0,1.0,734.5,401.5,734.5,401.5,538.770294189453,119.402448102351,10267.1718818023,,,,,,,,,3.0,3.0,351.1721,442.8249,91.6528,3.56080732076241,195.601605989054,15912.470864698,-16438.1663197829,127.140158752338
58,421.9949,,,,,,Frage 1,,,,,,,,,,,,,,,,,,,,,,,,,,,,,,,,,,,,,,,,,,,,,,,,,,,,,,,,,,,,,,,,,,,,,1.0,799.0,408.0,-1.0,-1.0,-1.0,-1.0,554.6059999999998,526.6085815429688,-1.0,0.7492188215255737,0.3668392896652221,-1.0,-1.0,0.0,4.0,1.0,799.0,408.0,799.0,408.0,526.608581542969,116.264327603886,-376.521746771225,,,,,,,,,3.0,3.0,351.1721,442.8249,91.6528,3.56080732076241,195.601605989054,15912.470864698,-16438.1663197829,127.140158752338
59,430.3434,,,,,,Frage 1,,,,,,,,,,,,,,,,,,,,,,,,,,,,,,,,,,,,,,,,,,,,,,,,,,,,,,,,,,,,,,,,,,,,,1.0,791.0,416.0,-1.0,-1.0,-1.0,-1.0,562.9529999999941,527.1735229492188,-1.0,0.7493566870689392,0.3671039640903472,-1.0,-1.0,0.0,4.0,1.0,791.0,416.0,791.0,416.0,527.173522949219,80.1808904903015,-4322.14614764148,,,,,,,,,3.0,3.0,351.1721,442.8249,91.6528,3.56080732076241,195.601605989054,15912.470864698,-16438.1663197829,127.140158752338
60,431.7125,,,,,,Frage 1,1.0,10.0,0.125975877046585,0.1890394985675811,0.0238727834075689,0.1262234300374984,0.0248627793043851,0.1261877864599227,0.0553895495831966,0.3287661075592041,0.0,0.0091114463284611,0.0091114463284611,99.6219253540039,96.81956481933594,0.0035023188684135,0.0415560118854045,0.1242562308907508,0.0014176903059706,0.0,0.000784860458225,0.0001474625460105,0.0008886893047019,0.0058776554651558,0.0091114463284611,0.0049243727698922,0.0021312162280082,0.0006290394230745,0.0002315935271326,0.0004048260743729,0.0010081253712996,0.0257319044321775,0.2416765838861465,0.0,0.0017678615404292,0.0,,6.69898796081543,-4.9208383560180655,-0.5139139294624328,125.8758544921875,1.0,10.0,640.0,480.0,0.0,317.2898864746094,234.44308471679688,1.0,486.4912109375,413.5104675292969,2.0,337.31451416015625,275.4652709960937,3.0,463.19036865234375,275.4784851074219,4.0,407.6223754882813,311.7207946777344,5.0,405.1668090820313,413.5104675292969,,,,,,,,,,,,,,,,,,,,,,,,,,,,,,,,,,,,,,,,,,,,,,,
61,438.658,,,,,,Frage 1,,,,,,,,,,,,,,,,,,,,,,,,,,,,,,,,,,,,,,,,,,,,,,,,,,,,,,,,,,,,,,,,,,,,,1.0,791.0,410.0,731.0,380.0,4.36199951171875,4.698577880859375,571.2690000000001,526.6707153320312,557.3360595703125,0.7493923902511596,0.3674735426902771,0.5556381940841674,0.3667037487030029,0.0,0.0,1.0,761.0,395.0,761.0,395.0,542.003387451172,70.4896175044329,-1165.57296633254,,,,,,,,,3.0,3.0,351.1721,442.8249,91.6528,3.56080732076241,195.601605989054,15912.470864698,-16438.1663197829,127.140158752338
62,446.9918,,,,,,Frage 1,,,,,,,,,,,,,,,,,,,,,,,,,,,,,,,,,,,,,,,,,,,,,,,,,,,,,,,,,,,,,,,,,,,,,1.0,-1.0,-1.0,-1.0,-1.0,-1.0,-1.0,579.6030000000028,-1.0,-1.0,-1.0,-1.0,-1.0,-1.0,4.0,4.0,1.0,,,766.25,389.5,543.153045654297,29.6092854006363,-4905.36515200709,,,,,,,,,,,,,,,,,,
63,455.358,,,,,,Frage 1,,,,,,,,,,,,,,,,,,,,,,,,,,,,,,,,,,,,,,,,,,,,,,,,,,,,,,,,,,,,,,,,,,,,,1.0,796.0,388.0,747.0,380.0,-1.0,-1.0,587.9689999999973,525.330078125,563.2753295898438,0.7495725750923156,0.3681226968765258,0.5555817484855651,0.3674533069133758,0.0,0.0,1.0,771.5,384.0,771.5,384.0,544.302703857422,11.1610944514578,-2205.08605450246,,,,,,,,,,,,,,,,,,
64,463.6572,,,,,,Frage 1,,,,,,,,,,,,,,,,,,,,,,,,,,,,,,,,,,,,,,,,,,,,,,,,,,,,,,,,,,,,,,,,,,,,,1.0,787.0,394.0,742.0,374.0,4.357925415039063,4.727294921875,596.2679999999964,525.524658203125,562.4559326171875,0.7494286298751831,0.3685131967067718,0.5554316043853759,0.3677454590797424,0.0,0.0,1.0,764.5,384.0,764.5,384.0,543.990295410156,27.8246891704967,2007.85554258711,,,,,,,,,,,,,,,,,,
65,463.6928,,,,,,Frage 1,1.0,11.0,0.1258803009986877,0.188679426908493,0.0238504204899072,0.1261476576328277,0.0248922854661941,0.1260473579168319,0.0553982779383659,0.3287661075592041,0.0,0.009255270473659,0.0086756981909275,99.62263488769533,95.64729309082033,0.0037530323024839,0.0459411852061748,0.0977048277854919,0.0017765384400263,0.0,0.0006307839066721,0.0003065440105274,0.0006802670541219,0.0053305365145206,0.0086756981909275,0.009255270473659,0.0019324095919728,0.0012352949706837,0.0002349748974665,0.0002787264238577,0.0009811343625187,0.0232131090015172,0.2657698988914489,0.0,0.0013104843674227,0.0,,7.927957534790038,-6.550657272338867,-0.5096351504325866,125.10605621337892,1.0,11.0,640.0,480.0,0.0,318.3374938964844,234.79000854492188,1.0,485.700439453125,412.79095458984375,2.0,337.8178100585937,276.4429626464844,3.0,462.90625,274.3436279296875,4.0,409.3550415039063,310.30841064453125,5.0,405.3328552246094,412.79095458984375,,,,,,,,,,,,,,,,,,,,,,,,,,,,,,,,,,,,,,,,,,,,,,,
66,471.99,,,,,,Frage 1,,,,,,,,,,,,,,,,,,,,,,,,,,,,,,,,,,,,,,,,,,,,,,,,,,,,,,,,,,,,,,,,,,,,,1.0,-1.0,-1.0,-1.0,-1.0,-1.0,-1.0,604.6000000000057,-1.0,-1.0,-1.0,-1.0,-1.0,-1.0,4.0,4.0,1.0,,,760.25,375.0,542.957565307617,38.4622680932372,1276.59117256391,,,,,,,,,4.0,4.0,467.8236,476.1577,8.33409999999998,,38.4622680932372,1276.59117256391,,
67,480.3254,,,,,,Frage 1,,,,,,,,,,,,,,,,,,,,,,,,,,,,,,,,,,,,,,,,,,,,,,,,,,,,,,,,,,,,,,,,,,,,,1.0,772.0,397.0,740.0,335.0,-1.0,-1.0,612.9370000000054,525.6319580078125,558.2177124023438,0.7495970726013182,0.3690325021743774,0.5558950304985046,0.36851567029953,0.0,0.0,1.0,756.0,366.0,756.0,366.0,541.924835205078,10.468098557847,-3358.46744432065,,,,,,,,,,,,,,,,,,
68,488.6537,,,,,,Frage 1,,,,,,,,,,,,,,,,,,,,,,,,,,,,,,,,,,,,,,,,,,,,,,,,,,,,,,,,,,,,,,,,,,,,,1.0,787.0,405.0,724.0,350.0,4.269546508789063,4.593048095703125,621.2639999999956,525.9856567382812,552.7369995117188,0.7496207356452941,0.3694191575050354,0.5559772253036499,0.368829071521759,0.0,0.0,1.0,755.5,377.5,755.5,377.5,539.361328125,25.0429327627388,1750.03712701173,,,,,,,,,,,,,,,,,,
69,495.414,,,,,,Frage 1,1.0,12.0,0.1258125752210617,0.1883493363857269,0.0238176509737968,0.1260144114494323,0.0249325204640626,0.1259286254644393,0.0553757399320602,0.3287661075592041,0.0,0.0116380313411355,0.0062504163943231,99.62329864501952,96.40030670166016,0.0038222840521484,0.0357057563960552,0.0733538120985031,0.00203023920767,0.0,0.0005997851258143,0.0004941459046676,0.0005680110189132,0.0057149431668221,0.0062504163943231,0.0116380313411355,0.0015222830697894,0.0027966236229985,0.0002473056374583,0.0002083560248138,0.0010045121889561,0.0142182186245918,0.2925934195518493,0.0,0.0004716946277767,0.0,,4.895221710205078,-5.561702728271484,0.1287233531475067,127.10277557373048,1.0,12.0,640.0,480.0,0.0,318.38299560546875,234.11807250976565,1.0,485.1890869140625,411.06295776367193,2.0,337.207763671875,274.8522644042969,3.0,464.29498291015625,272.8636474609375,4.0,408.28369140625,311.3056335449219,5.0,403.8553466796875,411.06295776367193,,,,,,,,,,,,,,,,,,,,,,,,,,,,,,,,,,,,,,,,,,,,,,,
70,496.9879,,,,,,Frage 1,,,,,,,,,,,,,,,,,,,,,,,,,,,,,,,,,,,,,,,,,,,,,,,,,,,,,,,,,,,,,,,,,,,,,1.0,-1.0,-1.0,-1.0,-1.0,-1.0,-1.0,629.597999999998,-1.0,-1.0,-1.0,-1.0,-1.0,-1.0,4.0,4.0,1.0,,,765.125,375.125,535.936660766602,38.9885583463636,1673.30104672611,,,,,,,,,5.0,5.0,492.8208,567.8106,74.9898,13.9163371685316,492.30499608258,42697.4641045945,-24183.6212067176,172.825795393659
71,505.3338,,,,,,Frage 1,,,,,,,,,,,,,,,,,,,,,,,,,,,,,,,,,,,,,,,,,,,,,,,,,,,,,,,,,,,,,,,,,,,,,1.0,-1.0,-1.0,-1.0,-1.0,-1.0,-1.0,637.9440000000031,-1.0,-1.0,-1.0,-1.0,-1.0,-1.0,4.0,4.0,1.0,,,774.75,372.75,532.511993408203,39.273223786619,34.108417337302,,,,,,,,,5.0,5.0,492.8208,567.8106,74.9898,13.9163371685316,492.30499608258,42697.4641045945,-24183.6212067176,172.825795393659
72,513.6665,,,,,,Frage 1,,,,,,,,,,,,,,,,,,,,,,,,,,,,,,,,,,,,,,,,,,,,,,,,,,,,,,,,,,,,,,,,,,,,,1.0,-1.0,-1.0,-1.0,-1.0,-1.0,-1.0,646.2770000000019,-1.0,-1.0,-1.0,-1.0,-1.0,-1.0,4.0,4.0,1.0,,,784.375,370.375,529.087326049805,39.5264023893864,30.3837414964448,,,,,,,,,5.0,5.0,492.8208,567.8106,74.9898,13.9163371685316,492.30499608258,42697.4641045945,-24183.6212067176,172.825795393659
73,522.025,,,,,,Frage 1,,,,,,,,,,,,,,,,,,,,,,,,,,,,,,,,,,,,,,,,,,,,,,,,,,,,,,,,,,,,,,,,,,,,,1.0,794.0,368.0,-1.0,-1.0,-1.0,-1.0,654.6359999999986,525.6626586914064,-1.0,0.7504391074180603,0.3707563281059265,-1.0,-1.0,0.0,4.0,1.0,794.0,368.0,794.0,368.0,525.662658691406,137.50614835904,11722.1685672853,,,,,,,,,5.0,5.0,492.8208,567.8106,74.9898,13.9163371685316,492.30499608258,42697.4641045945,-24183.6212067176,172.825795393659
74,527.3665,,,,,,Frage 1,1.0,13.0,0.1258168220520019,0.1883459389209747,0.0238099303096532,0.1260355859994888,0.0249016862362623,0.1259043365716934,0.0553836338222026,0.3287661075592041,0.0,0.0084862569347023,0.0051488792523741,99.62330627441406,96.5020751953125,0.0036799255758523,0.0372204519808292,0.0521341525018215,0.0015960590681061,0.0,0.0002350123104406,0.0005131407524459,0.0006220739451237,0.0075435512699186,0.0051488792523741,0.0084862569347023,0.0012042608577758,0.0027744770050048,0.0002722996287047,0.0001820292090997,0.0012559737078845,0.0079545238986611,0.2922822535037994,0.0,0.0001780699531082,0.0,,5.081408977508545,-5.413023948669434,-0.0194636564701795,127.2344970703125,1.0,13.0,640.0,480.0,0.0,318.4877014160156,233.9783935546875,1.0,484.6446533203125,410.053466796875,2.0,336.7786865234375,274.7457275390625,3.0,463.9962158203125,272.66778564453125,4.0,407.90542602539057,310.760498046875,5.0,403.9236145019531,410.053466796875,,,,,,,,,,,,,,,,,,,,,,,,,,,,,,,,,,,,,,,,,,,,,,,
75,530.3346,,,,,,Frage 1,,,,,,,,,,,,,,,,,,,,,,,,,,,,,,,,,,,,,,,,,,,,,,,,,,,,,,,,,,,,,,,,,,,,,1.0,718.0,388.0,-1.0,-1.0,-1.0,-1.0,662.945000000007,525.373291015625,-1.0,0.7516361474990844,0.3708738088607788,-1.0,-1.0,0.0,4.0,1.0,718.0,388.0,718.0,388.0,525.373291015625,492.30499608258,42697.4641045945,,,,,,,,,5.0,5.0,492.8208,567.8106,74.9898,13.9163371685316,492.30499608258,42697.4641045945,-24183.6212067176,172.825795393659
76,538.6577,,,,,,Frage 1,,,,,,,,,,,,,,,,,,,,,,,,,,,,,,,,,,,,,,,,,,,,,,,,,,,,,,,,,,,,,,,,,,,,,1.0,619.0,388.0,469.0,343.0,4.1824951171875,4.4534759521484375,671.2679999999964,525.4503784179688,548.65478515625,0.7529643774032592,0.3712493777275085,0.5598431825637817,0.370472252368927,0.0,0.0,1.0,544.0,365.5,544.0,365.5,537.052581787109,432.989446352208,-7126.6174538781,,,,,,,,,5.0,5.0,492.8208,567.8106,74.9898,13.9163371685316,492.30499608258,42697.4641045945,-24183.6212067176,172.825795393659
77,546.982,,,,,,Frage 1,,,,,,,,,,,,,,,,,,,,,,,,,,,,,,,,,,,,,,,,,,,,,,,,,,,,,,,,,,,,,,,,,,,,,1.0,-1.0,-1.0,-1.0,-1.0,-1.0,-1.0,679.5910000000003,-1.0,-1.0,-1.0,-1.0,-1.0,-1.0,4.0,4.0,1.0,,,491.0,395.75,531.242477416992,231.677728341128,-24183.6212067176,,,,,,,,,5.0,5.0,492.8208,567.8106,74.9898,13.9163371685316,492.30499608258,42697.4641045945,-24183.6212067176,172.825795393659
78,555.3447,,,,,,Frage 1,,,,,,,,,,,,,,,,,,,,,,,,,,,,,,,,,,,,,,,,,,,,,,,,,,,,,,,,,,,,,,,,,,,,,1.0,438.0,426.0,-1.0,-1.0,-1.0,-1.0,687.9550000000017,525.432373046875,-1.0,0.7543781995773315,0.3719958662986755,-1.0,-1.0,0.0,4.0,1.0,438.0,426.0,438.0,426.0,525.432373046875,262.921980975508,3736.14414416159,,,,,,,,,5.0,5.0,492.8208,567.8106,74.9898,13.9163371685316,492.30499608258,42697.4641045945,-24183.6212067176,172.825795393659
79,559.0212,,,,,,Frage 1,1.0,14.0,0.125837430357933,0.1884341537952423,0.0238142870366573,0.126147836446762,0.0248585827648639,0.1259069740772247,0.0554237961769104,0.3287661075592041,0.0,0.0053139701485633,0.0037461561150848,99.62313079833984,96.1549530029297,0.0037461561150848,0.0503453612327575,0.0424454286694526,0.0014775051968172,0.0,0.0005293230642564,0.0009067858336493,0.0007867969106882,0.0112686222419142,0.0036026898305863,0.0053139701485633,0.0010915511520579,0.003636957379058,0.0002658249577507,0.0001468534755986,0.001642566290684,0.0044993888586759,0.2816775143146514,0.0,0.0001009982734103,0.0,,4.411465644836426,-5.904133319854736,-0.3545596301555633,127.0674057006836,1.0,14.0,640.0,480.0,0.0,319.10894775390625,233.91357421875,1.0,484.5989990234375,408.9840698242188,2.0,336.8187255859375,274.81805419921875,3.0,463.85595703125,272.04888916015625,4.0,408.65628051757807,310.7834167480469,5.0,404.88723754882807,408.9840698242188,,,,,,,,,,,,,,,,,,,,,,,,,,,,,,,,,,,,,,,,,,,,,,,
80,563.6449,,,,,,Frage 1,,,,,,,,,,,,,,,,,,,,,,,,,,,,,,,,,,,,,,,,,,,,,,,,,,,,,,,,,,,,,,,,,,,,,1.0,353.0,427.0,-1.0,-1.0,4.097824096679688,-1.0,696.255999999994,525.758056640625,-1.0,0.7545410394668579,0.3721694648265838,-1.0,-1.0,0.0,4.0,1.0,353.0,427.0,353.0,427.0,525.758056640625,162.668296837087,-12078.4660777357,,,,,,,,,5.0,5.0,492.8208,567.8106,74.9898,13.9163371685316,492.30499608258,42697.4641045945,-24183.6212067176,172.825795393659
81,571.9763,,,,,,Frage 1,,,,,,,,,,,,,,,,,,,,,,,,,,,,,,,,,,,,,,,,,,,,,,,,,,,,,,,,,,,,,,,,,,,,,1.0,350.0,412.0,-1.0,-1.0,-1.0,-1.0,704.5869999999995,526.2302856445312,-1.0,0.7543115615844725,0.3727537393569946,-1.0,-1.0,0.0,4.0,1.0,350.0,412.0,350.0,412.0,526.230285644531,18.7278677124189,-17276.8597264166,,,,,,,,,,,,,,,,,,
82,580.3425,,,,,,Frage 1,,,,,,,,,,,,,,,,,,,,,,,,,,,,,,,,,,,,,,,,,,,,,,,,,,,,,,,,,,,,,,,,,,,,,1.0,357.0,418.0,-1.0,-1.0,-1.0,-1.0,712.9529999999941,516.1747436523438,-1.0,0.7555843591690063,0.3729528784751892,-1.0,-1.0,0.0,4.0,1.0,357.0,418.0,357.0,418.0,516.174743652344,95.9699013944912,9232.63054697149,,,,,,,,,6.0,6.0,576.1594,601.1721,25.0127,2.56693554338172,138.695480356854,9232.63054697149,-7422.28311792845,35.6279072914209
83,588.6442,,,,,,Frage 1,,,,,,,,,,,,,,,,,,,,,,,,,,,,,,,,,,,,,,,,,,,,,,,,,,,,,,,,,,,,,,,,,,,,,1.0,395.0,438.0,-1.0,-1.0,3.879806518554688,-1.0,721.2540000000008,512.3703002929688,-1.0,0.7565958499908447,0.3730229139328002,-1.0,-1.0,0.0,4.0,1.0,395.0,438.0,395.0,438.0,512.370300292969,138.695480356854,5146.60599182849,,,,,,,,,6.0,6.0,576.1594,601.1721,25.0127,2.56693554338172,138.695480356854,9232.63054697149,-7422.28311792845,35.6279072914209
84,597.0035,,,,,,Frage 1,,,,,,,,,,,,,,,,,,,,,,,,,,,,,,,,,,,,,,,,,,,,,,,,,,,,,,,,,,,,,,,,,,,,,1.0,417.0,461.0,-1.0,-1.0,-1.0,-1.0,729.6140000000014,510.0203552246094,-1.0,0.7563080787658691,0.3739083409309387,-1.0,-1.0,0.0,4.0,1.0,417.0,461.0,417.0,461.0,510.020355224609,76.6503890891538,-7422.28311792845,,,,,,,,,6.0,6.0,576.1594,601.1721,25.0127,2.56693554338172,138.695480356854,9232.63054697149,-7422.28311792845,35.6279072914209
85,605.3407,,,,,,Frage 1,,,,,,,,,,,,,,,,,,,,,,,,,,,,,,,,,,,,,,,,,,,,,,,,,,,,,,,,,,,,,,,,,,,,,1.0,420.0,469.0,-1.0,-1.0,-1.0,-1.0,737.9520000000047,512.7919311523438,-1.0,0.7566050887107849,0.3738381564617157,-1.0,-1.0,0.0,4.0,1.0,420.0,469.0,420.0,469.0,512.791931152344,15.9018549425873,-7286.44318794882,,,,,,,,,,,,,,,,,,
86,607.8313,,,,,,Frage 1,1.0,15.0,0.1257363110780715,0.1881184726953506,0.0237976964563131,0.1261206120252609,0.0249191652983427,0.1258070021867752,0.0554602295160293,0.3287661075592041,0.0,0.0037359597627073,0.0034162285737693,99.62377166748048,95.90504455566406,0.0034162285737693,0.0612611807882785,0.0486609153449535,0.0011907259467989,0.0,0.0006857690750621,0.0012517216382548,0.0009195524035021,0.0156613197177648,0.0024209476541727,0.0037359597627073,0.0010182301048189,0.0040315333753824,0.0002490276237949,0.0001138192965299,0.0018472975352779,0.0031141624785959,0.3003237545490264,0.0,6.667100387858227e-05,0.0,,6.2635498046875,-6.231983184814453,-0.7456418871879577,127.32292175292967,1.0,15.0,640.0,480.0,0.0,319.5881652832032,234.1114501953125,1.0,484.51507568359375,408.47564697265625,2.0,336.4941711425781,275.56158447265625,3.0,463.7841796875,272.66668701171875,4.0,409.1689453125,309.5956726074219,5.0,405.8765258789063,408.47564697265625,,,,,,,,,,,,,,,,,,,,,,,,,,,,,,,,,,,,,,,,,,,,,,,
87,613.6695,,,,,,Frage 1,,,,,,,,,,,,,,,,,,,,,,,,,,,,,,,,,,,,,,,,,,,,,,,,,,,,,,,,,,,,,,,,,,,,,1.0,416.0,453.0,-1.0,-1.0,3.855056762695313,-1.0,746.2799999999987,508.7259521484375,-1.0,0.7572808265686035,0.3739678561687469,-1.0,-1.0,0.0,4.0,1.0,416.0,453.0,416.0,453.0,508.725952148438,121.824508130112,12717.6367769095,,,,,,,,,7.0,7.0,609.5051,667.81535,58.3102500000001,3.57607722016878,248.535384200593,14814.0563112915,-11365.4997864483,228.115064759905
88,621.9735,,,,,,Frage 1,,,,,,,,,,,,,,,,,,,,,,,,,,,,,,,,,,,,,,,,,,,,,,,,,,,,,,,,,,,,,,,,,,,,,1.0,-1.0,-1.0,-1.0,-1.0,-1.0,-1.0,754.5850000000064,-1.0,-1.0,-1.0,-1.0,-1.0,-1.0,4.0,4.0,1.0,,,382.75,418.25,518.189781188965,179.925604821393,6996.76019885374,,,,,,,,,7.0,7.0,609.5051,667.81535,58.3102500000001,3.57607722016878,248.535384200593,14814.0563112915,-11365.4997864483,228.115064759905
89,630.339,,,,,,Frage 1,,,,,,,,,,,,,,,,,,,,,,,,,,,,,,,,,,,,,,,,,,,,,,,,,,,,,,,,,,,,,,,,,,,,,1.0,416.0,453.0,283.0,314.0,-1.0,-1.0,762.9499999999971,506.9957580566406,548.3114624023438,0.7576566934585571,0.3745344877243042,0.5639690160751342,0.3734371662139892,0.0,0.0,1.0,349.5,383.5,349.5,383.5,527.653610229492,84.8475163578583,-11365.4997864483,,,,,,,,,7.0,7.0,609.5051,667.81535,58.3102500000001,3.57607722016878,248.535384200593,14814.0563112915,-11365.4997864483,228.115064759905
90,638.6368,,,,,,Frage 1,,,,,,,,,,,,,,,,,,,,,,,,,,,,,,,,,,,,,,,,,,,,,,,,,,,,,,,,,,,,,,,,,,,,,1.0,400.0,450.0,291.0,330.0,3.728805541992188,4.1785888671875,771.247000000003,506.8908386230469,548.3644409179688,0.7582716941833496,0.3745270073413848,0.5642052888870239,0.3735558986663818,0.0,0.0,1.0,345.5,390.0,345.5,390.0,527.627639770508,104.795236897804,2403.97702281878,,,,,,,,,7.0,7.0,609.5051,667.81535,58.3102500000001,3.57607722016878,248.535384200593,14814.0563112915,-11365.4997864483,228.115064759905
91,639.0892,,,,,,Frage 1,1.0,16.0,0.125706672668457,0.1880309283733367,0.0237942710518836,0.1261375546455383,0.0249287430197,0.125772550702095,0.0554984100162982,0.3287661075592041,0.0,0.0033680328633636,0.0030557955615222,99.62393188476561,95.54342651367188,0.0030557955615222,0.0681847259402275,0.0479748584330081,0.0011364474194124,0.0,0.0002318162878509,0.0015911973314359,0.0011869233567267,0.0246520843356847,0.0018848041072487,0.0033680328633636,0.0009098314330913,0.0041737160645425,0.0002304509544046,9.911187953548506e-05,0.0022060566116124,0.0026156671810895,0.3041144013404846,0.0,0.0001040548449964,0.0,,5.712396144866944,-6.673998355865479,-0.3334446549415588,127.11392211914064,1.0,16.0,640.0,480.0,0.0,319.3327941894532,234.6026306152344,1.0,484.1707153320313,408.5994873046875,2.0,336.6851806640625,275.1102905273437,3.0,463.79339599609375,273.90576171875,4.0,409.3482971191406,310.470703125,5.0,404.7766723632813,408.5994873046875,,,,,,,,,,,,,,,,,,,,,,,,,,,,,,,,,,,,,,,,,,,,,,,
92,647.0499,,,,,,Frage 1,,,,,,,,,,,,,,,,,,,,,,,,,,,,,,,,,,,,,,,,,,,,,,,,,,,,,,,,,,,,,,,,,,,,,1.0,-1.0,-1.0,-1.0,-1.0,-1.0,-1.0,779.6609999999927,-1.0,-1.0,-1.0,-1.0,-1.0,-1.0,4.0,4.0,1.0,,,376.75,433.0,517.254280090332,200.529414313544,11379.1797810249,,,,,,,,,7.0,7.0,609.5051,667.81535,58.3102500000001,3.57607722016878,248.535384200593,14814.0563112915,-11365.4997864483,228.115064759905
93,655.3333,,,,,,Frage 1,,,,,,,,,,,,,,,,,,,,,,,,,,,,,,,,,,,,,,,,,,,,,,,,,,,,,,,,,,,,,,,,,,,,,1.0,408.0,476.0,-1.0,-1.0,-1.0,-1.0,787.944000000003,506.88092041015625,-1.0,0.7586474418640136,0.3750011026859283,-1.0,-1.0,0.0,4.0,1.0,408.0,476.0,408.0,476.0,506.880920410156,125.556495732405,-9050.98372421213,,,,,,,,,7.0,7.0,609.5051,667.81535,58.3102500000001,3.57607722016878,248.535384200593,14814.0563112915,-11365.4997864483,228.115064759905
94,663.6348,,,,,,Frage 1,,,,,,,,,,,,,,,,,,,,,,,,,,,,,,,,,,,,,,,,,,,,,,,,,,,,,,,,,,,,,,,,,,,,,1.0,416.0,431.0,277.0,320.0,3.694015502929688,4.116744995117188,796.2459999999992,505.8502807617188,548.375,0.7596096992492675,0.3749847412109375,0.5649662613868713,0.3740193545818328,0.0,0.0,1.0,346.5,375.5,346.5,375.5,527.112640380859,248.535384200593,14814.0563112915,,,,,,,,,7.0,7.0,609.5051,667.81535,58.3102500000001,3.57607722016878,248.535384200593,14814.0563112915,-11365.4997864483,228.115064759905
95,671.3676,,,,,,Frage 1,1.0,17.0,0.1256181150674819,0.1877272576093673,0.0237787142395973,0.126053363084793,0.0250041056424379,0.1256898045539856,0.0555189922451972,0.3287661075592041,0.0,0.0059531200677156,0.0027933423407375,99.62454223632812,95.4433135986328,0.0027933423407375,0.0693383142352104,0.0596367456018924,0.0010727565968409,0.0,0.0002062605781247,0.0014256285503506,0.001345480675809,0.0324148274958133,0.0012527558719739,0.0059531200677156,0.0007248047622852,0.0048991497606039,0.0001958655193448,0.0001056071268976,0.0026294025592505,0.0033964682370424,0.3252353966236114,0.0,0.0001335745037067,0.0,,6.485711097717285,-6.790317058563232,-0.513094425201416,127.19184112548828,1.0,17.0,640.0,480.0,0.0,319.59210205078125,234.9582061767578,1.0,484.19342041015625,408.74136352539057,2.0,336.6082763671875,275.7912292480469,3.0,463.791015625,274.2696533203125,4.0,409.5973510742188,310.2333068847656,5.0,405.2789916992188,408.74136352539057,,,,,,,,,,,,,,,,,,,,,,,,,,,,,,,,,,,,,,,,,,,,,,,
96,671.9959,,,,,,Frage 1,,,,,,,,,,,,,,,,,,,,,,,,,,,,,,,,,,,,,,,,,,,,,,,,,,,,,,,,,,,,,,,,,,,,,1.0,330.0,367.0,-1.0,-1.0,-1.0,-1.0,804.6059999999997,507.8997192382813,-1.0,0.7591134905815125,0.375798225402832,-1.0,-1.0,0.0,4.0,1.0,330.0,367.0,330.0,367.0,507.899719238281,4.99380689682385,-29127.9349970422,,,,,,,,,,,,,,,,,,
97,680.3387,,,,,,Frage 1,,,,,,,,,,,,,,,,,,,,,,,,,,,,,,,,,,,,,,,,,,,,,,,,,,,,,,,,,,,,,,,,,,,,,1.0,413.0,444.0,279.0,312.0,-1.0,-1.0,812.9499999999971,509.5681762695313,548.3306884765625,0.7594826221466064,0.3756631016731262,0.565669298171997,0.3743822574615478,0.0,0.0,1.0,346.0,378.0,346.0,378.0,528.949432373047,21.575466987895,1987.5413639391,,,,,,,,,,,,,,,,,,
98,688.6634,,,,,,Frage 1,,,,,,,,,,,,,,,,,,,,,,,,,,,,,,,,,,,,,,,,,,,,,,,,,,,,,,,,,,,,,,,,,,,,,1.0,384.0,428.0,294.0,322.0,3.753173828125,4.08807373046875,821.274000000005,510.4976196289063,547.2114868164064,0.7599715590476989,0.3758324682712554,0.56605064868927,0.3744127452373504,0.0,0.0,1.0,339.0,375.0,339.0,375.0,528.854553222656,168.407229824413,17638.0845960237,,,,,,,,,8.0,8.0,684.50105,792.81645,108.3154,8.58884461700743,356.293516795318,17638.0845960237,-21456.1187301929,284.836180706114
99,696.9939,,,,,,Frage 1,,,,,,,,,,,,,,,,,,,,,,,,,,,,,,,,,,,,,,,,,,,,,,,,,,,,,,,,,,,,,,,,,,,,,1.0,402.0,450.0,-1.0,-1.0,-1.0,-1.0,829.6040000000065,510.9314575195313,-1.0,0.7600107192993164,0.3764179050922393,-1.0,-1.0,0.0,4.0,1.0,402.0,450.0,402.0,450.0,510.931457519531,134.160079781785,-4111.0557640751,,,,,,,,,8.0,8.0,684.50105,792.81645,108.3154,8.58884461700743,356.293516795318,17638.0845960237,-21456.1187301929,284.836180706114
100,703.1753,,,,,,Frage 1,1.0,18.0,0.1254244893789291,0.1870830953121185,0.0237460639327764,0.1258898824453353,0.0251781195402145,0.125532180070877,0.0555476509034633,0.3287661075592041,0.0,0.0085158543661236,0.0024515779223293,99.6258316040039,96.47940063476561,0.0024515779223293,0.0744903609156608,0.0951822102069854,0.0008321084897033,0.0,0.0264586247503757,0.0016247883904725,0.0017691771499812,0.039031982421875,0.0007623165147379,0.0085158543661236,0.0006590401753783,0.0050064739771187,0.0001691916404524,0.0001364546187687,0.0032905859407037,0.0051521155983209,0.3693235516548156,0.0,0.0001345156342722,0.0,,8.73390007019043,-5.446506977081299,0.1775343865156173,127.73211669921876,1.0,18.0,640.0,480.0,0.0,319.2317199707032,234.7432861328125,1.0,483.148681640625,408.9752197265625,2.0,336.342529296875,275.7841491699219,3.0,464.0593566894531,273.80810546875,4.0,407.6061706542969,308.2397155761719,5.0,403.1687316894531,408.9752197265625,,,,,,,,,,,,,,,,,,,,,,,,,,,,,,,,,,,,,,,,,,,,,,,
101,705.3,,,,,,Frage 1,,,,,,,,,,,,,,,,,,,,,,,,,,,,,,,,,,,,,,,,,,,,,,,,,,,,,,,,,,,,,,,,,,,,,1.0,389.0,426.0,-1.0,-1.0,-1.0,-1.0,837.9109999999927,511.4630737304688,-1.0,0.7604094147682189,0.3764063715934753,-1.0,-1.0,0.0,4.0,1.0,389.0,426.0,389.0,426.0,511.463073730469,71.0349243926804,-7599.85497274363,,,,,,,,,8.0,8.0,684.50105,792.81645,108.3154,8.58884461700743,356.293516795318,17638.0845960237,-21456.1187301929,284.836180706114
102,713.6309,,,,,,Frage 1,,,,,,,,,,,,,,,,,,,,,,,,,,,,,,,,,,,,,,,,,,,,,,,,,,,,,,,,,,,,,,,,,,,,,1.0,382.0,419.0,-1.0,-1.0,3.650146484375,-1.0,846.2409999999945,511.40240478515625,-1.0,0.7611050605773925,0.3764771223068237,-1.0,-1.0,0.0,4.0,1.0,382.0,419.0,382.0,419.0,511.402404785156,54.7670745193892,-1952.71217675055,,,,,,,,,8.0,8.0,684.50105,792.81645,108.3154,8.58884461700743,356.293516795318,17638.0845960237,-21456.1187301929,284.836180706114
103,721.9612,,,,,,Frage 1,,,,,,,,,,,,,,,,,,,,,,,,,,,,,,,,,,,,,,,,,,,,,,,,,,,,,,,,,,,,,,,,,,,,,1.0,-1.0,-1.0,-1.0,-1.0,-1.0,-1.0,854.5720000000001,-1.0,-1.0,-1.0,-1.0,-1.0,-1.0,4.0,4.0,1.0,,,377.0,400.25,519.859710693359,74.0910995802119,2319.727388068,,,,,,,,,8.0,8.0,684.50105,792.81645,108.3154,8.58884461700743,356.293516795318,17638.0845960237,-21456.1187301929,284.836180706114
104,730.3261,,,,,,Frage 1,,,,,,,,,,,,,,,,,,,,,,,,,,,,,,,,,,,,,,,,,,,,,,,,,,,,,,,,,,,,,,,,,,,,,1.0,432.0,414.0,312.0,349.0,-1.0,-1.0,862.9349999999976,511.2586059570313,545.3754272460938,0.7616238594055175,0.3768135011196136,0.5680486559867858,0.3749422132968902,0.0,0.0,1.0,372.0,381.5,372.0,381.5,528.317016601563,109.68206875834,4254.79912230004,,,,,,,,,8.0,8.0,684.50105,792.81645,108.3154,8.58884461700743,356.293516795318,17638.0845960237,-21456.1187301929,284.836180706114
105,735.8373,,,,,,Frage 1,1.0,19.0,0.1251207590103149,0.1861125826835632,0.0236959252506494,0.1256538927555084,0.0253902580589056,0.1252553761005401,0.0556123852729797,0.3287661075592041,0.0,0.0040901084430515,0.0022656139917671,99.62777709960936,97.56478881835936,0.0022656139917671,0.083883062005043,0.112656645476818,0.0004879880871158,0.0,0.0008973230142146,0.0019212063634768,0.0024874710943549,0.0565901584923267,0.0004928295384161,0.0040901084430515,0.0005561282741837,0.0035039824433624,0.0001316421403316,0.0002088041801471,0.0047516780905425,0.0064963088370859,0.4356063902378082,0.0,0.0002046329900622,0.0,,11.771653175354004,-3.547574043273926,-0.655630886554718,129.75399780273438,1.0,19.0,640.0,480.0,0.0,316.4190368652344,231.23648071289065,1.0,486.0212097167969,411.9713134765625,2.0,334.554443359375,274.73101806640625,3.0,464.2824096679688,272.1324157714844,4.0,405.6881103515625,305.3155822753906,5.0,404.8235168457031,411.9713134765625,,,,,,,,,,,,,,,,,,,,,,,,,,,,,,,,,,,,,,,,,,,,,,,
106,738.6604,,,,,,Frage 1,,,,,,,,,,,,,,,,,,,,,,,,,,,,,,,,,,,,,,,,,,,,,,,,,,,,,,,,,,,,,,,,,,,,,1.0,469.0,396.0,331.0,299.0,3.752151489257813,3.984695434570313,871.2709999999933,510.2626037597656,544.312744140625,0.7622661590576171,0.3763456642627716,0.5681765079498291,0.3746620714664459,0.0,0.0,1.0,400.0,347.5,400.0,347.5,527.287673950195,152.78278003304,5171.48546065061,,,,,,,,,8.0,8.0,684.50105,792.81645,108.3154,8.58884461700743,356.293516795318,17638.0845960237,-21456.1187301929,284.836180706114
107,746.9904,,,,,,Frage 1,,,,,,,,,,,,,,,,,,,,,,,,,,,,,,,,,,,,,,,,,,,,,,,,,,,,,,,,,,,,,,,,,,,,,1.0,-1.0,-1.0,-1.0,-1.0,-1.0,-1.0,879.6019999999988,-1.0,-1.0,-1.0,-1.0,-1.0,-1.0,4.0,4.0,1.0,,,439.5,336.25,518.903907775879,155.67945271792,347.739818112888,,,,,,,,,8.0,8.0,684.50105,792.81645,108.3154,8.58884461700743,356.293516795318,17638.0845960237,-21456.1187301929,284.836180706114
108,755.2947,,,,,,Frage 1,,,,,,,,,,,,,,,,,,,,,,,,,,,,,,,,,,,,,,,,,,,,,,,,,,,,,,,,,,,,,,,,,,,,,1.0,479.0,325.0,-1.0,-1.0,-1.0,-1.0,887.9049999999987,510.5201416015625,-1.0,0.7619163990020752,0.3761173486709594,-1.0,-1.0,0.0,4.0,1.0,479.0,325.0,479.0,325.0,510.520141601563,261.016847110179,12684.6807548208,,,,,,,,,8.0,8.0,684.50105,792.81645,108.3154,8.58884461700743,356.293516795318,17638.0845960237,-21456.1187301929,284.836180706114
109,763.6246,,,,,,Frage 1,,,,,,,,,,,,,,,,,,,,,,,,,,,,,,,,,,,,,,,,,,,,,,,,,,,,,,,,,,,,,,,,,,,,,1.0,440.0,174.0,333.0,245.0,3.5864715576171875,3.899932861328125,896.2339999999966,509.9722900390625,543.6175537109375,0.7624417543411254,0.3763068914413452,0.5694284439086914,0.3739869594573974,0.0,0.0,1.0,386.5,209.5,386.5,209.5,526.794921875,356.293516795318,11437.912782283,,,,,,,,,8.0,8.0,684.50105,792.81645,108.3154,8.58884461700743,356.293516795318,17638.0845960237,-21456.1187301929,284.836180706114
110,767.5209,,,,,,Frage 1,1.0,20.0,0.1246868297457695,0.18469899892807,0.0236234441399574,0.1253461986780166,0.0257452800869941,0.124891385436058,0.05573520809412,0.3287661075592041,0.0,0.0034739910624921,0.0019009531242772,99.63059997558592,97.39002227783203,0.0019009531242772,0.1030490398406982,0.1699045896530151,0.000473937485367,0.0,4.840322435484268e-05,0.0029647967312484,0.0037802525330334,0.0880596190690994,0.0003551301197148,0.0034739910624921,0.0005041770054958,0.0030127593781799,0.0001127145878854,0.0002686930820345,0.0067156706936657,0.0078942598775029,0.5309423804283142,0.0,0.0002079843834508,0.0,,9.40182685852051,-3.903076171875,-0.7862578034400939,128.26791381835938,1.0,20.0,640.0,480.0,0.0,317.3521728515625,233.3110809326172,1.0,484.32708740234375,410.9849548339844,2.0,334.81842041015625,276.21856689453125,3.0,463.0261535644531,272.2896423339844,4.0,405.6080627441406,307.70098876953125,5.0,404.67434692382807,410.9849548339844,,,,,,,,,,,,,,,,,,,,,,,,,,,,,,,,,,,,,,,,,,,,,,,
111,771.9839,,,,,,Frage 1,,,,,,,,,,,,,,,,,,,,,,,,,,,,,,,,,,,,,,,,,,,,,,,,,,,,,,,,,,,,,,,,,,,,,1.0,-1.0,-1.0,305.0,227.0,-1.0,-1.0,904.5939999999971,-1.0,543.538818359375,-1.0,-1.0,0.5697764158248901,0.3743114471435546,4.0,0.0,1.0,305.0,227.0,305.0,227.0,543.538818359375,176.935383494017,-21456.1187301929,,,,,,,,,8.0,8.0,684.50105,792.81645,108.3154,8.58884461700743,356.293516795318,17638.0845960237,-21456.1187301929,284.836180706114
112,780.3287,,,,,,Frage 1,,,,,,,,,,,,,,,,,,,,,,,,,,,,,,,,,,,,,,,,,,,,,,,,,,,,,,,,,,,,,,,,,,,,,1.0,454.0,139.0,327.0,83.0,-1.0,-1.0,912.9389999999986,510.4642639160156,543.5687255859375,0.7636228799819946,0.3768903315067291,0.5706516504287719,0.3743550181388855,0.0,0.0,1.0,390.5,111.0,390.5,111.0,527.016494750977,255.310175673946,9392.05159859164,,,,,,,,,8.0,8.0,684.50105,792.81645,108.3154,8.58884461700743,356.293516795318,17638.0845960237,-21456.1187301929,284.836180706114
113,788.6814,,,,,,Frage 1,,,,,,,,,,,,,,,,,,,,,,,,,,,,,,,,,,,,,,,,,,,,,,,,,,,,,,,,,,,,,,,,,,,,,1.0,464.0,154.0,343.0,109.0,3.5409393310546875,3.866058349609375,921.2920000000013,510.04107666015625,536.2015380859375,0.7641910314559937,0.3771054148674011,0.5714501738548278,0.3743837475776672,0.0,0.0,1.0,403.5,131.5,403.5,131.5,523.121307373047,157.027097880527,-11766.6237017273,,,,,,,,,8.0,8.0,684.50105,792.81645,108.3154,8.58884461700743,356.293516795318,17638.0845960237,-21456.1187301929,284.836180706114
114,796.9515,,,,,,Frage 1,,,,,,,,,,,,,,,,,,,,,,,,,,,,,,,,,,,,,,,,,,,,,,,,,,,,,,,,,,,,,,,,,,,,,1.0,473.0,142.0,-1.0,-1.0,-1.0,-1.0,929.5620000000051,510.85159301757807,-1.0,0.7644425630569458,0.3778943419456481,-1.0,-1.0,0.0,4.0,1.0,473.0,142.0,473.0,142.0,510.851593017578,21.6114171868497,-16374.1285708369,,,,,,,,,,,,,,,,,,
115,799.6905,,,,,,Frage 1,1.0,21.0,0.1244459077715873,0.1839220225811004,0.0235847122967243,0.1252364665269851,0.0259523186832666,0.1247090846300125,0.055816575884819,0.3287661075592041,0.0,0.0033019937109202,0.0017909345915541,99.63215637207033,97.44013214111328,0.0017909345915541,0.121962197124958,0.212806761264801,0.0005358727066777,0.0,6.218504859134555e-05,0.0047523216344416,0.0060443081893026,0.1001253873109817,0.0003290888853371,0.0033019937109202,0.0003987490781582,0.0029718847945332,9.369747567689046e-05,0.0003701731038745,0.0078271189704537,0.008334893733263,0.5809137225151062,0.0,0.0002335216995561,0.0,,8.532715797424316,-3.803589820861816,-0.4367097616195678,128.78407287597656,1.0,21.0,640.0,480.0,0.0,317.45977783203125,233.94651794433597,1.0,483.3001708984375,409.9949645996094,2.0,334.4293518066406,275.9997863769532,3.0,463.1793823242188,273.0389404296875,4.0,405.0975341796875,308.4331359863281,5.0,403.53125,409.9949645996094,,,,,,,,,,,,,,,,,,,,,,,,,,,,,,,,,,,,,,,,,,,,,,,
116,805.3281,,,,,,Frage 1,,,,,,,,,,,,,,,,,,,,,,,,,,,,,,,,,,,,,,,,,,,,,,,,,,,,,,,,,,,,,,,,,,,,,1.0,484.0,167.0,325.0,119.0,-1.0,-1.0,937.9389999999986,511.3938598632813,531.1356201171875,0.7651243209838867,0.3775520324707031,0.5727279186248779,0.3748384118080139,0.0,0.0,1.0,404.5,143.0,404.5,143.0,521.264739990234,129.698382357739,12903.441154035,,,,,,,,,9.0,9.0,801.1398,809.4727,8.33290000000011,,129.698382357739,12903.441154035,,
117,813.6173,,,,,,Frage 1,,,,,,,,,,,,,,,,,,,,,,,,,,,,,,,,,,,,,,,,,,,,,,,,,,,,,,,,,,,,,,,,,,,,,1.0,489.0,160.0,315.0,106.0,3.5102691650390625,3.7783050537109375,946.228000000003,511.2169799804688,531.7113037109375,0.7656614780426025,0.3779031336307525,0.572998821735382,0.3750850558280944,0.0,0.0,1.0,402.0,133.0,402.0,133.0,521.464141845703,28.6679753195587,-12188.1975387467,,,,,,,,,,,,,,,,,,
118,821.9513,,,,,,Frage 1,,,,,,,,,,,,,,,,,,,,,,,,,,,,,,,,,,,,,,,,,,,,,,,,,,,,,,,,,,,,,,,,,,,,,1.0,-1.0,-1.0,-1.0,-1.0,-1.0,-1.0,954.5610000000016,-1.0,-1.0,-1.0,-1.0,-1.0,-1.0,4.0,4.0,1.0,,,412.5,130.25,522.353057861328,39.9587865291701,1354.78896203642,,,,,,,,,10.0,10.0,817.7843,1084.4423,266.658,7.13721890748285,336.511110645846,31859.6016976977,-15050.6401849099,27.6840885000948
119,830.3152,,,,,,Frage 1,,,,,,,,,,,,,,,,,,,,,,,,,,,,,,,,,,,,,,,,,,,,,,,,,,,,,,,,,,,,,,,,,,,,,1.0,479.0,160.0,367.0,95.0,-1.0,-1.0,962.9260000000068,510.3445434570313,536.139404296875,0.7666018009185791,0.3786065280437469,0.5738232135772705,0.3754023909568786,0.0,0.0,1.0,423.0,127.5,423.0,127.5,523.241973876953,44.4263036361605,534.142816986138,,,,,,,,,10.0,10.0,817.7843,1084.4423,266.658,7.13721890748285,336.511110645846,31859.6016976977,-15050.6401849099,27.6840885000948
