Row,Timestamp,EventSource,SlideEvent,StimType,Duration,CollectionPhase,SourceStimuliName,EventSource.1,SampleNumber,Anger,Contempt,Disgust,Fear,Joy,Sadness,Surprise,Engagement,Valence,Sentimentality,Confusion,Neutral,Attention,Brow Furrow,Brow Raise,Cheek Raise,Chin Raise,Dimpler,Eye Closure,Eye Widen,Inner Brow Raise,Jaw Drop,Lip Corner Depressor,Lip Press,Lip Pucker,Lip Stretch,Lip Suck,Lid Tighten,Mouth Open,Nose Wrinkle,Smile,Smirk,Upper Lip Raise,Blink,BlinkRate,Pitch,Yaw,Roll,Interocular Distance,EventSource.2,SampleNumber.1,width,height,feature id_1,feature-x_1,feature-y_1,feature id_2,feature-x_2,feature-y_2,feature id_3,feature-x_3,feature-y_3,feature id_4,feature-x_4,feature-y_4,feature id_5,feature-x_5,feature-y_5,feature id_6,feature-x_6,feature-y_6,EventSource.3,CPU Sys,Memory Sys,CPU Proc,Memory Proc,EventSource.4,ET_GazeLeftx,ET_GazeLefty,ET_GazeRightx,ET_GazeRighty,ET_PupilLeft,ET_PupilRight,ET_TimeSignal,ET_DistanceLeft,ET_DistanceRight,ET_CameraLeftX,ET_CameraLeftY,ET_CameraRightX,ET_CameraRightY,ET_ValidityLeft,ET_ValidityRight,EventSource.5,Gaze X,Gaze Y,Interpolated Gaze X,Interpolated Gaze Y,Interpolated Distance,Gaze Velocity,Gaze Acceleration,Fixation Index,Fixation Index by Stimulus,Fixation X,Fixation Y,Fixation Start,Fixation End,Fixation Duration,Fixation Dispersion,Saccade Index,Saccade Index by Stimulus,Saccade Start,Saccade End,Saccade Duration,Saccade Amplitude,Saccade Peak Velocity,Saccade Peak Acceleration,Saccade Peak Deceleration,Saccade Direction
40683,269194.6088,1.0,StartSlide,TestImage,120000.0,StimuliDisplay,Frage 4,,,,,,,,,,,,,,,,,,,,,,,,,,,,,,,,,,,,,,,,,,,,,,,,,,,,,,,,,,,,,,,,,,,,,,,,,,,,,,,,,,,,,,,,,,,,,,,,,,,,,,,,,,,,,,
40684,269195.1154,,,,,,Frage 4,,,,,,,,,,,,,,,,,,,,,,,,,,,,,,,,,,,,,,,,,,,,,,,,,,,,,,,,,,,,,,,,,,,,,1.0,975.0,966.0,933.0,992.0,-1.0,-1.0,269241.605,489.6258850097656,497.4578247070313,0.6457372903823853,0.3995651602745056,0.4537660777568817,0.4159028828144073,0.0,0.0,1.0,954.0,979.0,954.0,979.0,493.541854858399,6.57846937520517,-1922.4323998291,395.0,,962.601346294206,980.639864788958,268682.645,269340.9199,658.27489999996,0.368382414353156,,,,,,,,,,
40685,269203.4452,,,,,,Frage 4,,,,,,,,,,,,,,,,,,,,,,,,,,,,,,,,,,,,,,,,,,,,,,,,,,,,,,,,,,,,,,,,,,,,,1.0,987.0,971.0,930.0,990.0,-1.0,-1.0,269249.935,489.7632751464844,497.5089111328125,0.6455215811729431,0.3995155096054077,0.4536667466163635,0.4159407615661621,0.0,0.0,1.0,958.5,980.5,958.5,980.5,493.636093139649,29.0554184995041,2698.37800718871,395.0,,962.601346294206,980.639864788958,268682.645,269340.9199,658.27489999996,0.368382414353156,,,,,,,,,,
40686,269211.755,,,,,,Frage 4,,,,,,,,,,,,,,,,,,,,,,,,,,,,,,,,,,,,,,,,,,,,,,,,,,,,,,,,,,,,,,,,,,,,,1.0,-1.0,-1.0,-1.0,-1.0,-1.0,-1.0,269258.243,-1.0,-1.0,-1.0,-1.0,-1.0,-1.0,4.0,4.0,1.0,,,941.25,984.75,495.563713073731,73.8143418547559,5386.2816620515,395.0,,962.601346294206,980.639864788958,268682.645,269340.9199,658.27489999996,0.368382414353156,,,,,,,,,,
40687,269213.7079,,,,,,Frage 4,1.0,-1.0,4.685349464416504,0.0008153179660439,0.1281893104314804,0.0792100057005882,95.56726837158205,0.0226042661815881,0.0679989606142044,98.93317413330078,91.63553619384764,0.1108367443084716,6.215719699859619,0.0,98.38062286376952,6.215719699859619,0.3441644310951232,53.747589111328125,0.0122938537970185,11.867271423339844,41.855018615722656,7.45239740354009e-05,0.0532069541513919,4.576489448547363,9.331251203548163e-05,0.0005576498224399,0.0002672053524293,0.8097501397132874,0.1108367443084716,95.80770111083984,93.94022369384764,2.814422369003296,74.85177612304686,0.0,17.97344970703125,0.0,12.0,-19.56520652770996,-1.4659788608551023,-0.9708516001701356,131.86044311523438,1.0,-1.0,640.0,480.0,0.0,267.0773010253906,266.2063903808594,1.0,441.17434692382807,444.93597412109375,2.0,286.2330322265625,306.8962707519532,3.0,417.810791015625,298.2667236328125,4.0,356.4428100585937,362.9207153320313,5.0,358.33367919921875,444.93597412109375,,,,,,,,,,,,,,,,,,,,,,,,,,,,,,,,,,,,,,,,,,,,,,,
40688,269220.083,,,,,,Frage 4,,,,,,,,,,,,,,,,,,,,,,,,,,,,,,,,,,,,,,,,,,,,,,,,,,,,,,,,,,,,,,,,,,,,,1.0,-1.0,-1.0,924.0,989.0,-1.0,-1.0,269266.57300000003,-1.0,497.4913330078125,-1.0,-1.0,0.4527827501296997,0.4159818291664123,4.0,0.0,1.0,924.0,989.0,924.0,989.0,497.491333007813,35.6592518350838,-4581.54298988544,395.0,,962.601346294206,980.639864788958,268682.645,269340.9199,658.27489999996,0.368382414353156,,,,,,,,,,
40689,269228.4486,,,,,,Frage 4,,,,,,,,,,,,,,,,,,,,,,,,,,,,,,,,,,,,,,,,,,,,,,,,,,,,,,,,,,,,,,,,,,,,,1.0,986.0,965.0,926.0,986.0,-1.0,-1.0,269274.934,490.325927734375,497.52783203125,0.6444437503814697,0.3995185494422912,0.4525636434555053,0.415976196527481,0.0,0.0,1.0,956.0,975.5,956.0,975.5,493.926879882813,51.4319709127236,1885.42592014961,395.0,,962.601346294206,980.639864788958,268682.645,269340.9199,658.27489999996,0.368382414353156,,,,,,,,,,
40690,269229.3385,1.0,StartMedia,TestImage,120000.0,StimuliDisplay,Frage 4,,,,,,,,,,,,,,,,,,,,,,,,,,,,,,,,,,,,,,,,,,,,,,,,,,,,,,,,,,,,,,,,,,,,,,,,,,,,,,,,,,,,,,,,,,,,,,,,,,,,,,,,,,,,,,
40691,269236.7813,,,,,,Frage 4,,,,,,,,,,,,,,,,,,,,,,,,,,,,,,,,,,,,,,,,,,,,,,,,,,,,,,,,,,,,,,,,,,,,,1.0,-1.0,-1.0,-1.0,-1.0,-1.0,-1.0,269283.268,-1.0,-1.0,-1.0,-1.0,-1.0,-1.0,4.0,4.0,1.0,,,946.0,977.25,495.70849609375,42.294014931335,-1096.63806226332,395.0,,962.601346294206,980.639864788958,268682.645,269340.9199,658.27489999996,0.368382414353156,,,,,,,,,,
40692,269245.0811,,,,,,Frage 4,,,,,,,,,,,,,,,,,,,,,,,,,,,,,,,,,,,,,,,,,,,,,,,,,,,,,,,,,,,,,,,,,,,,,1.0,-1.0,-1.0,936.0,979.0,-1.0,-1.0,269291.571,-1.0,497.4901123046875,-1.0,-1.0,0.4515691697597503,0.4160463809967041,4.0,0.0,1.0,936.0,979.0,936.0,979.0,497.490112304688,55.2921760631697,1566.08124675012,395.0,,962.601346294206,980.639864788958,268682.645,269340.9199,658.27489999996,0.368382414353156,,,,,,,,,,
40693,269253.4139,,,,,,Frage 4,,,,,,,,,,,,,,,,,,,,,,,,,,,,,,,,,,,,,,,,,,,,,,,,,,,,,,,,,,,,,,,,,,,,,1.0,1001.0,972.0,944.0,978.0,-1.0,-1.0,269299.903,491.05322265625,497.5224609375,0.6431039571762085,0.3995954692363739,0.451348453760147,0.4160773158073425,0.0,0.0,1.0,972.5,975.0,972.5,975.0,494.287841796875,64.2889201470878,1079.67838949038,395.0,,962.601346294206,980.639864788958,268682.645,269340.9199,658.27489999996,0.368382414353156,,,,,,,,,,
40694,269257.2642,,,,,,Frage 4,,,,,,,,,,,,,,,,,,,,,,,,,,,,,,,,,,,,,,,,,,,,,,,,,,,,,,,,,,,,,,,,1.0,23.0444145202637,31.5976868818126,20.2131099700928,490.37890625,,,,,,,,,,,,,,,,,,,,,,,,,,,,,,,,,,,,,,,,,,
40695,269261.7798,,,,,,Frage 4,,,,,,,,,,,,,,,,,,,,,,,,,,,,,,,,,,,,,,,,,,,,,,,,,,,,,,,,,,,,,,,,,,,,,1.0,-1.0,-1.0,-1.0,-1.0,-1.0,-1.0,269308.27,-1.0,-1.0,-1.0,-1.0,-1.0,-1.0,4.0,4.0,1.0,,,966.75,976.25,494.416809082031,24.5330842962101,-4752.12898202451,395.0,,962.601346294206,980.639864788958,268682.645,269340.9199,658.27489999996,0.368382414353156,,,,,,,,,,
40696,269268.2367,,,,,,Frage 4,1.0,0.0,,,,,,,,,,,,,,,,,,,,,,,,,,,,,,,,,,,,,,,,1.0,0.0,640.0,480.0,,,,,,,,,,,,,,,,,,,,,,,,,,,,,,,,,,,,,,,,,,,,,,,,,,,,,,,,,,,,,,,,,
40697,269270.079,,,,,,Frage 4,,,,,,,,,,,,,,,,,,,,,,,,,,,,,,,,,,,,,,,,,,,,,,,,,,,,,,,,,,,,,,,,,,,,,1.0,986.0,975.0,936.0,980.0,-1.0,-1.0,269316.568,491.6067810058594,497.4847717285156,0.6420334577560424,0.3996705412864685,0.450317770242691,0.4162486493587493,0.0,0.0,1.0,961.0,977.5,961.0,977.5,494.545776367188,26.9960714670097,296.774046992134,395.0,,962.601346294206,980.639864788958,268682.645,269340.9199,658.27489999996,0.368382414353156,,,,,,,,,,
40698,269278.2152,,,,,,Frage 4,1.0,1.0,4.8791985511779785,0.0009766739094629,0.1493535190820694,0.0832027494907379,94.75308990478516,0.0242136567831039,0.0676319003105163,98.90338134765624,90.13111114501952,0.1166036948561668,5.309452533721924,0.0,98.27822875976561,5.309452533721924,0.298542320728302,55.93077850341797,0.0146180316805839,12.17388916015625,33.841644287109375,6.252644379856065e-05,0.0395382903516292,4.505798816680908,0.0001008902618195,0.0003954388957936,0.0002751989813987,0.6659134030342102,0.1166036948561668,95.18764495849608,93.4263916015625,2.9502022266387935,72.1572036743164,0.0,19.438138961791992,0.0,12.0,-22.49720001220703,-1.7777551412582395,-1.1823391914367676,132.02191162109375,1.0,1.0,640.0,480.0,0.0,267.8638916015625,266.7499389648437,1.0,441.4989318847656,444.0821533203125,2.0,286.52099609375,307.2838439941406,3.0,418.1882934570313,297.6139831542969,4.0,357.3076171875,365.2898864746094,5.0,359.3349609375,444.0821533203125,,,,,,,,,,,,,,,,,,,,,,,,,,,,,,,,,,,,,,,,,,,,,,,
40699,269278.4392,,,,,,Frage 4,,,,,,,,,,,,,,,,,,,,,,,,,,,,,,,,,,,,,,,,,,,,,,,,,,,,,,,,,,,,,,,,,,,,,1.0,965.0,977.0,943.0,980.0,-1.0,-1.0,269324.929,491.919921875,497.5191345214844,0.6416153907775878,0.3997153341770172,0.4500352442264556,0.4163196384906768,0.0,0.0,1.0,954.0,978.5,954.0,978.5,494.719528198242,31.2230590952465,505.60843379812,395.0,,962.601346294206,980.639864788958,268682.645,269340.9199,658.27489999996,0.368382414353156,,,,,,,,,,
40700,269286.7468,,,,,,Frage 4,,,,,,,,,,,,,,,,,,,,,,,,,,,,,,,,,,,,,,,,,,,,,,,,,,,,,,,,,,,,,,,,,,,,,1.0,-1.0,-1.0,-1.0,-1.0,-1.0,-1.0,269333.236,-1.0,-1.0,-1.0,-1.0,-1.0,-1.0,4.0,4.0,1.0,,,947.5,984.25,496.103660583496,35.517791455128,516.964268847973,395.0,,962.601346294206,980.639864788958,268682.645,269340.9199,658.27489999996,0.368382414353156,,,,,,,,,,
40701,269295.0755,,,,,,Frage 4,,,,,,,,,,,,,,,,,,,,,,,,,,,,,,,,,,,,,,,,,,,,,,,,,,,,,,,,,,,,,,,,,,,,,1.0,-1.0,-1.0,941.0,990.0,-1.0,-1.0,269341.565,-1.0,497.48779296875,-1.0,-1.0,0.4489727020263671,0.4166823625564575,4.0,0.0,1.0,941.0,990.0,941.0,990.0,497.48779296875,20.1124379875862,-1849.6708330983,395.0,,962.601346294206,980.639864788958,268682.645,269340.9199,658.27489999996,0.368382414353156,,,,,,,,,,
40702,269303.4055,,,,,,Frage 4,,,,,,,,,,,,,,,,,,,,,,,,,,,,,,,,,,,,,,,,,,,,,,,,,,,,,,,,,,,,,,,,,,,,,1.0,990.0,984.0,923.0,992.0,-1.0,-1.0,269349.896,492.69921875,497.52642822265625,0.640067458152771,0.4002225995063781,0.4486483335494995,0.4169908463954925,0.0,0.0,1.0,956.5,988.0,956.5,988.0,495.112823486328,39.5326078840584,2331.3529287436,395.0,,962.601346294206,980.639864788958,268682.645,269340.9199,658.27489999996,0.368382414353156,,,,,,,,,,
40703,269311.7435,,,,,,Frage 4,,,,,,,,,,,,,,,,,,,,,,,,,,,,,,,,,,,,,,,,,,,,,,,,,,,,,,,,,,,,,,,,,,,,,1.0,-1.0,-1.0,-1.0,-1.0,-1.0,-1.0,269358.233,-1.0,-1.0,-1.0,-1.0,-1.0,-1.0,4.0,4.0,1.0,,,959.75,986.75,495.203628540039,14.4204402437104,-3011.77352367254,395.0,,962.601346294206,980.639864788958,268682.645,269340.9199,658.27489999996,0.368382414353156,,,,,,,,,,
40704,269320.0735,,,,,,Frage 4,,,,,,,,,,,,,,,,,,,,,,,,,,,,,,,,,,,,,,,,,,,,,,,,,,,,,,,,,,,,,,,,,,,,,1.0,1011.0,982.0,915.0,989.0,-1.0,-1.0,269366.563,493.07318115234375,497.51568603515625,0.638909101486206,0.4008817076683044,0.4475849866867065,0.4176851511001586,0.0,0.0,1.0,963.0,985.5,963.0,985.5,495.29443359375,23.908223363306,1138.98957017731,395.0,,962.601346294206,980.639864788958,268682.645,269340.9199,658.27489999996,0.368382414353156,,,,,,,,,,
40705,269325.4549,,,,,,Frage 4,1.0,2.0,6.29450225830078,0.0019675008952617,0.2256757318973541,0.1078285127878189,88.5903091430664,0.0333212651312351,0.0684210211038589,99.10926055908205,81.75743103027344,0.1162932142615318,4.711987018585205,0.0,98.18182373046876,4.711987018585205,0.272590547800064,59.81281661987305,0.0092277228832244,5.853672027587891,32.414337158203125,5.5200933275045834e-05,0.020723121240735,4.829171657562256,0.0001256380055565,0.0001430864067515,0.000483170239022,0.2427407056093215,0.1162932142615318,94.63782501220705,92.15779876708984,3.531040906906128,62.62835311889648,0.0,21.618741989135746,0.0,12.0,-19.713384628295895,-2.055065631866455,-1.5717909336090088,130.92909240722656,1.0,2.0,640.0,480.0,0.0,267.288818359375,266.54510498046875,1.0,439.7783203125,443.6450805664063,2.0,285.54754638671875,307.4421081542969,3.0,416.1082153320313,297.626953125,4.0,356.39068603515625,362.4451293945313,5.0,358.9449462890625,443.6450805664063,,,,,,,,,,,,,,,,,,,,,,,,,,,,,,,,,,,,,,,,,,,,,,,
40706,269328.436,,,,,,Frage 4,,,,,,,,,,,,,,,,,,,,,,,,,,,,,,,,,,,,,,,,,,,,,,,,,,,,,,,,,,,,,,,,,,,,,1.0,983.0,976.0,915.0,989.0,-1.0,-1.0,269374.924,493.50393676757807,497.92526245117193,0.6383706331253051,0.4012205898761749,0.4472015798091888,0.4180840551853179,0.0,0.0,1.0,949.0,982.5,949.0,982.5,495.714599609375,30.7032433554605,812.558444503907,395.0,,962.601346294206,980.639864788958,268682.645,269340.9199,658.27489999996,0.368382414353156,,,,,,,,,,
40707,269336.7419,,,,,,Frage 4,,,,,,,,,,,,,,,,,,,,,,,,,,,,,,,,,,,,,,,,,,,,,,,,,,,,,,,,,,,,,,,,,,,,,1.0,-1.0,-1.0,-1.0,-1.0,-1.0,-1.0,269383.23,-1.0,-1.0,-1.0,-1.0,-1.0,-1.0,4.0,4.0,1.0,,,948.75,981.5,495.974266052246,4.14363452747866,-3197.67982131587,395.0,,962.601346294206,980.639864788958,268682.645,269340.9199,658.27489999996,0.368382414353156,,,,,,,,,,
40708,269345.0979,,,,,,Frage 4,,,,,,,,,,,,,,,,,,,,,,,,,,,,,,,,,,,,,,,,,,,,,,,,,,,,,,,,,,,,,,,,,,,,,1.0,977.0,974.0,920.0,987.0,-1.0,-1.0,269391.588,494.1708068847656,498.2970581054688,0.6370574235916137,0.4019600749015808,0.4459566473960876,0.4189385771751403,0.0,0.0,1.0,948.5,980.5,948.5,980.5,496.233932495117,45.3284482725932,4928.7713912469,,,,,,,,,2064.0,1.0,269340.9199,269432.58055,91.6606499999762,17.6899900089517,543.462606528394,23575.6244511964,-40047.5010416054,270.115283103006
40709,269353.4311,,,,,,Frage 4,,,,,,,,,,,,,,,,,,,,,,,,,,,,,,,,,,,,,,,,,,,,,,,,,,,,,,,,,,,,,,,,,,,,,1.0,1000.0,974.0,941.0,985.0,-1.0,-1.0,269399.92100000003,494.62124633789057,498.4909057617188,0.6364921927452087,0.4022340774536132,0.4454885125160217,0.4193475246429443,0.0,0.0,1.0,970.5,979.5,970.5,979.5,496.556076049805,38.9700482483843,-763.020211229023,,,,,,,,,2064.0,1.0,269340.9199,269432.58055,91.6606499999762,17.6899900089517,543.462606528394,23575.6244511964,-40047.5010416054,270.115283103006
40710,269357.5252,,,,,,Frage 4,1.0,3.0,6.997904300689696,0.0032198291737586,0.244111567735672,0.124551273882389,68.03394317626953,0.0366694517433643,0.0670538246631622,97.63825225830078,70.53995513916016,0.1267600357532501,4.234474182128905,6.966056823730469,98.38726806640624,4.234474182128905,0.2542967796325683,50.21734619140625,0.0092595517635345,4.831195831298828,16.933578491210938,5.440268068923615e-05,0.0226710680872201,4.3607683181762695,0.0001401285699103,0.0002802023664116,0.0007485594833269,0.1898778080940246,0.1267600357532501,94.85242462158205,89.43256378173827,4.202719688415527,55.9075927734375,0.0,19.85822296142578,0.0,12.0,-17.65047836303711,-1.445084810256958,-1.3822392225265503,128.50767517089844,1.0,3.0,640.0,480.0,0.0,267.7376708984375,267.118408203125,1.0,438.6375122070313,443.1769409179688,2.0,286.6457824707032,307.8233947753906,3.0,414.81744384765625,298.536376953125,4.0,355.3861694335937,360.736572265625,5.0,358.099609375,443.1769409179688,,,,,,,,,,,,,,,,,,,,,,,,,,,,,,,,,,,,,,,,,,,,,,,
40711,269361.7389,,,,,,Frage 4,,,,,,,,,,,,,,,,,,,,,,,,,,,,,,,,,,,,,,,,,,,,,,,,,,,,,,,,,,,,,,,,,,,,,1.0,-1.0,-1.0,-1.0,-1.0,-1.0,-1.0,269408.229,-1.0,-1.0,-1.0,-1.0,-1.0,-1.0,4.0,4.0,1.0,,,963.75,969.25,497.571662902832,49.8523626548024,1309.89123551427,,,,,,,,,2064.0,1.0,269340.9199,269432.58055,91.6606499999762,17.6899900089517,543.462606528394,23575.6244511964,-40047.5010416054,270.115283103006
40712,269370.0679,,,,,,Frage 4,,,,,,,,,,,,,,,,,,,,,,,,,,,,,,,,,,,,,,,,,,,,,,,,,,,,,,,,,,,,,,,,,,,,,1.0,-1.0,-1.0,957.0,959.0,-1.0,-1.0,269416.55700000003,-1.0,498.5872497558594,-1.0,-1.0,0.4442389905452728,0.4191007614135742,4.0,0.0,1.0,957.0,959.0,957.0,959.0,498.587249755859,177.763761442982,15357.3536784446,,,,,,,,,2064.0,1.0,269340.9199,269432.58055,91.6606499999762,17.6899900089517,543.462606528394,23575.6244511964,-40047.5010416054,270.115283103006
40713,269378.4291,,,,,,Frage 4,,,,,,,,,,,,,,,,,,,,,,,,,,,,,,,,,,,,,,,,,,,,,,,,,,,,,,,,,,,,,,,,,,,,,1.0,992.0,928.0,935.0,835.0,-1.0,-1.0,269424.918,494.7684631347656,498.6520690917969,0.6340408325195312,0.401121973991394,0.4439651072025299,0.4186758697032928,0.0,0.0,1.0,963.5,881.5,963.5,881.5,496.710266113281,374.884272603968,23575.6244511964,,,,,,,,,2064.0,1.0,269340.9199,269432.58055,91.6606499999762,17.6899900089517,543.462606528394,23575.6244511964,-40047.5010416054,270.115283103006
40714,269386.7646,,,,,,Frage 4,,,,,,,,,,,,,,,,,,,,,,,,,,,,,,,,,,,,,,,,,,,,,,,,,,,,,,,,,,,,,,,,,,,,,1.0,-1.0,-1.0,940.0,778.0,-1.0,3.697921752929688,269433.255,-1.0,498.70849609375,-1.0,-1.0,0.4434458911418914,0.4183036088943481,4.0,0.0,1.0,940.0,778.0,940.0,778.0,498.70849609375,431.874319270257,6837.02797269285,,,,,,,,,2064.0,1.0,269340.9199,269432.58055,91.6606499999762,17.6899900089517,543.462606528394,23575.6244511964,-40047.5010416054,270.115283103006
40715,269389.5306,,,,,,Frage 4,1.0,4.0,7.9364633560180655,0.004703183658421,0.3269088268280029,0.1390461325645446,47.78830337524414,0.0407284535467624,0.0658568069338798,95.8916244506836,63.01725769042969,0.1437377333641052,3.927012443542481,27.211694717407227,98.41709899902345,3.988713502883911,0.2513062059879303,45.44132995605469,0.0087420009076595,0.0,14.95497989654541,5.3920150094199926e-05,0.0268149003386497,3.927012443542481,0.0001698850828688,0.0004088058194611,0.0009603911894373,0.1822242736816406,0.1437377333641052,94.38282775878906,87.09437561035155,4.652410507202148,50.77431488037109,0.0,23.404586791992188,0.0,12.0,-17.219255447387695,-1.350227952003479,-1.016440510749817,127.08189392089844,1.0,4.0,640.0,480.0,0.0,266.630859375,267.6392517089844,1.0,437.0044555664063,443.4948120117188,2.0,286.331787109375,307.5404052734375,3.0,413.1629028320313,299.56072998046875,4.0,353.92999267578125,360.70816040039057,5.0,355.95831298828125,443.4948120117188,,,,,,,,,,,,,,,,,,,,,,,,,,,,,,,,,,,,,,,,,,,,,,,
40716,269395.0663,,,,,,Frage 4,,,,,,,,,,,,,,,,,,,,,,,,,,,,,,,,,,,,,,,,,,,,,,,,,,,,,,,,,,,,,,,,,,,,,1.0,978.0,655.0,936.0,697.0,-1.0,-1.0,269441.556,493.60784912109375,498.62698364257807,0.6322779059410095,0.400212824344635,0.4427140653133392,0.4179743528366088,0.0,0.0,1.0,957.0,676.0,957.0,676.0,496.117416381836,543.462606528394,13441.6188561368,,,,,,,,,2064.0,1.0,269340.9199,269432.58055,91.6606499999762,17.6899900089517,543.462606528394,23575.6244511964,-40047.5010416054,270.115283103006
40717,269403.3971,,,,,,Frage 4,,,,,,,,,,,,,,,,,,,,,,,,,,,,,,,,,,,,,,,,,,,,,,,,,,,,,,,,,,,,,,,,,,,,,1.0,975.0,466.0,924.0,584.0,-1.0,-1.0,269449.887,493.322998046875,498.6546325683594,0.6315522789955139,0.3998642563819885,0.4421613812446594,0.4177036583423614,0.0,0.0,1.0,949.5,525.0,949.5,525.0,495.988815307617,209.834884851144,-40047.5010416054,,,,,,,,,2064.0,1.0,269340.9199,269432.58055,91.6606499999762,17.6899900089517,543.462606528394,23575.6244511964,-40047.5010416054,270.115283103006
40718,269411.7643,,,,,,Frage 4,,,,,,,,,,,,,,,,,,,,,,,,,,,,,,,,,,,,,,,,,,,,,,,,,,,,,,,,,,,,,,,,,,,,,1.0,-1.0,-1.0,924.0,584.0,-1.0,3.749664306640625,269458.254,-1.0,499.1578674316406,-1.0,-1.0,0.4413690865039825,0.4175967276096344,4.0,0.0,1.0,924.0,584.0,924.0,584.0,499.157867431641,70.8030299488109,-16616.2939696298,,,,,,,,,2064.0,1.0,269340.9199,269432.58055,91.6606499999762,17.6899900089517,543.462606528394,23575.6244511964,-40047.5010416054,270.115283103006
40719,269420.0619,,,,,,Frage 4,,,,,,,,,,,,,,,,,,,,,,,,,,,,,,,,,,,,,,,,,,,,,,,,,,,,,,,,,,,,,,,,,,,,,1.0,967.0,498.0,929.0,486.0,-1.0,-1.0,269466.551,493.42724609375,499.3418884277344,0.6297470331192015,0.3999790251255035,0.4403837025165557,0.4179151654243469,0.0,0.0,1.0,948.0,492.0,948.0,492.0,496.384567260742,223.571031860836,18411.1070565218,,,,,,,,,2064.0,1.0,269340.9199,269432.58055,91.6606499999762,17.6899900089517,543.462606528394,23575.6244511964,-40047.5010416054,270.115283103006
40720,269421.8213,,,,,,Frage 4,1.0,5.0,9.347323417663574,0.0081056309863924,0.3774346411228179,0.1696924865245819,25.076221466064453,0.0497203543782234,0.0653756260871887,93.9059371948242,54.091087341308594,0.1597441583871841,3.607747793197632,49.92377471923828,98.25890350341797,3.607747793197632,0.2679445743560791,42.25172424316406,0.0082271443679928,0.0,7.754950046539306,5.5522945331176736e-05,0.0358918383717536,3.72518253326416,0.0001814854622352,0.0006274379556998,0.0014938268577679,0.1706770956516265,0.1597441583871841,94.38272094726561,85.11689758300781,4.5239105224609375,43.38373565673828,0.0,22.812179565429688,0.0,12.0,-20.234344482421875,-1.834536910057068,-1.381702899932861,127.22735595703124,1.0,5.0,640.0,480.0,0.0,266.6358947753906,268.4298400878906,1.0,436.2879638671875,442.7937927246094,2.0,285.5599975585937,307.9139099121094,3.0,412.4849243164063,299.146728515625,4.0,354.0332336425781,363.16909790039057,5.0,356.3409118652344,442.7937927246094,,,,,,,,,,,,,,,,,,,,,,,,,,,,,,,,,,,,,,,,,,,,,,,
40721,269428.4215,,,,,,Frage 4,,,,,,,,,,,,,,,,,,,,,,,,,,,,,,,,,,,,,,,,,,,,,,,,,,,,,,,,,,,,,,,,,,,,,1.0,970.0,481.0,929.0,486.0,-1.0,-1.0,269474.912,493.7024536132813,499.48648071289057,0.6292413473129272,0.3999459445476532,0.439799427986145,0.4180858433246612,0.0,0.0,1.0,949.5,483.5,949.5,483.5,496.594467163086,54.2923792066635,-20249.6115428563,,,,,,,,,2064.0,1.0,269340.9199,269432.58055,91.6606499999762,17.6899900089517,543.462606528394,23575.6244511964,-40047.5010416054,270.115283103006
40722,269436.7396,,,,,,Frage 4,,,,,,,,,,,,,,,,,,,,,,,,,,,,,,,,,,,,,,,,,,,,,,,,,,,,,,,,,,,,,,,,,,,,,1.0,-1.0,-1.0,927.0,478.0,-1.0,3.738327026367188,269483.229,-1.0,499.09088134765625,-1.0,-1.0,0.4390305876731872,0.4181249439716339,4.0,0.0,1.0,927.0,478.0,927.0,478.0,499.090881347656,21.7207204315632,-3915.75705692386,,,,,,,,,,,,,,,,,,
40723,269445.0613,,,,,,Frage 4,,,,,,,,,,,,,,,,,,,,,,,,,,,,,,,,,,,,,,,,,,,,,,,,,,,,,,,,,,,,,,,,,,,,,1.0,961.0,444.0,921.0,512.0,-1.0,-1.0,269491.551,494.0249633789063,498.9913024902344,0.6275045275688171,0.4002742767333984,0.438147485256195,0.4183519780635833,0.0,0.0,1.0,941.0,478.0,941.0,478.0,496.50813293457,50.2010940601066,3422.42253727512,,,,,,,,,2065.0,2.0,269440.90045,269499.23515,58.3347000000649,0.78560980620297,113.563433848097,4293.46909035308,-5932.16479614134,155.772254682046
40724,269453.3938,,,,,,Frage 4,,,,,,,,,,,,,,,,,,,,,,,,,,,,,,,,,,,,,,,,,,,,,,,,,,,,,,,,,,,,,,,,,,,,,1.0,967.0,413.0,914.0,505.0,-1.0,-1.0,269499.88300000003,494.2386779785156,499.0088806152344,0.6270222663879395,0.4000748991966247,0.437635451555252,0.4183968305587768,0.0,0.0,1.0,940.5,459.0,940.5,459.0,496.623779296875,77.6597279269987,3295.36560057975,,,,,,,,,2065.0,2.0,269440.90045,269499.23515,58.3347000000649,0.78560980620297,113.563433848097,4293.46909035308,-5932.16479614134,155.772254682046
40725,269453.9055,,,,,,Frage 4,1.0,6.0,11.82058048248291,0.0115617532283067,0.5864753127098083,0.1994960457086563,17.494958877563477,0.0588560029864311,0.0666814073920249,94.60356903076175,49.71875762939453,0.1667217910289764,3.460106134414673,65.01008605957031,98.15392303466798,3.460106134414673,0.2725276947021484,43.629791259765625,0.0080706225708127,0.0,12.16212272644043,5.36671286681667e-05,0.0499623157083988,4.181488037109375,0.0002026219444815,0.0008274585707113,0.0024939556606113,0.1557677686214447,0.1667217910289764,94.86260223388673,85.34391021728516,4.43204927444458,38.597293853759766,0.0,28.423208236694336,0.0,12.0,-20.42312812805176,-2.1326351165771484,-1.2959681749343872,126.48246002197266,1.0,6.0,640.0,480.0,0.0,265.5692443847656,268.7726745605469,1.0,435.0994873046875,442.9663696289063,2.0,284.8995361328125,308.22027587890625,3.0,411.0740356445313,299.3993530273437,4.0,353.197998046875,363.565185546875,5.0,355.0295104980469,442.9663696289063,,,,,,,,,,,,,,,,,,,,,,,,,,,,,,,,,,,,,,,,,,,,,,,
40726,269461.7562,,,,,,Frage 4,,,,,,,,,,,,,,,,,,,,,,,,,,,,,,,,,,,,,,,,,,,,,,,,,,,,,,,,,,,,,,,,,,,,,1.0,-1.0,-1.0,917.0,505.0,-1.0,3.7789154052734375,269508.246,-1.0,499.0316162109375,-1.0,-1.0,0.4368533790111541,0.4183406233787536,4.0,0.0,1.0,917.0,505.0,917.0,505.0,499.031616210938,113.563433848097,4293.46909035308,,,,,,,,,2065.0,2.0,269440.90045,269499.23515,58.3347000000649,0.78560980620297,113.563433848097,4293.46909035308,-5932.16479614134,155.772254682046
40727,269470.0562,,,,,,Frage 4,,,,,,,,,,,,,,,,,,,,,,,,,,,,,,,,,,,,,,,,,,,,,,,,,,,,,,,,,,,,,,,,,,,,,1.0,-1.0,-1.0,916.0,506.0,-1.0,-1.0,269516.54600000003,-1.0,498.90383911132807,-1.0,-1.0,0.4359362721443176,0.4184919893741607,4.0,0.0,1.0,916.0,506.0,916.0,506.0,498.903839111328,64.3264660401929,-5932.16479614134,,,,,,,,,2065.0,2.0,269440.90045,269499.23515,58.3347000000649,0.78560980620297,113.563433848097,4293.46909035308,-5932.16479614134,155.772254682046
40728,269478.4178,,,,,,Frage 4,,,,,,,,,,,,,,,,,,,,,,,,,,,,,,,,,,,,,,,,,,,,,,,,,,,,,,,,,,,,,,,,,,,,,1.0,954.0,451.0,916.0,511.0,-1.0,-1.0,269524.907,494.8634033203125,498.8886413574218,0.6246616244316101,0.4001387953758239,0.4353581666946411,0.4184900224208831,0.0,0.0,1.0,935.0,481.0,935.0,481.0,496.876022338867,41.7820672426403,-2696.18240498736,,,,,,,,,2065.0,2.0,269440.90045,269499.23515,58.3347000000649,0.78560980620297,113.563433848097,4293.46909035308,-5932.16479614134,155.772254682046
40729,269486.1121,,,,,,Frage 4,1.0,7.0,16.48690414428711,0.0141267282888293,1.7030911445617676,0.2169599086046218,25.215106964111328,0.0718839317560195,0.0681753009557724,98.23980712890624,52.278274536132805,0.1858419775962829,3.191999912261963,49.784889221191406,98.03863525390624,3.191999912261963,0.276196002960205,57.25776290893555,0.0100131873041391,0.0,13.349445343017578,5.70289084862452e-05,0.063875988125801,4.6960062980651855,0.0002371176960878,0.0004572633188217,0.0034174863249063,0.1349441856145858,0.1858419775962829,95.70775604248048,86.12702941894531,5.440710544586182,35.834808349609375,0.0,46.60146331787109,0.0,12.0,-19.028772354125977,-2.4413933753967285,-1.8749855756759644,125.80160522460938,1.0,7.0,640.0,480.0,0.0,264.3625183105469,268.6473388671875,1.0,434.310302734375,444.1820068359375,2.0,283.6821594238281,308.11102294921875,3.0,409.1848754882813,299.4442749023437,4.0,352.44293212890625,362.74755859375,5.0,355.14215087890625,444.1820068359375,,,,,,,,,,,,,,,,,,,,,,,,,,,,,,,,,,,,,,,,,,,,,,,
40730,269486.7226,,,,,,Frage 4,,,,,,,,,,,,,,,,,,,,,,,,,,,,,,,,,,,,,,,,,,,,,,,,,,,,,,,,,,,,,,,,,,,,,1.0,-1.0,-1.0,920.0,487.0,-1.0,3.7826080322265625,269533.213,-1.0,498.9066162109375,-1.0,-1.0,0.4344523549079895,0.4185006022453308,4.0,0.0,1.0,920.0,487.0,920.0,487.0,498.906616210938,32.7058106510266,-1092.8928561352,,,,,,,,,2065.0,2.0,269440.90045,269499.23515,58.3347000000649,0.78560980620297,113.563433848097,4293.46909035308,-5932.16479614134,155.772254682046
40731,269495.0544,,,,,,Frage 4,,,,,,,,,,,,,,,,,,,,,,,,,,,,,,,,,,,,,,,,,,,,,,,,,,,,,,,,,,,,,,,,,,,,,1.0,-1.0,-1.0,921.0,487.0,-1.0,-1.0,269541.543,-1.0,498.7760620117188,-1.0,-1.0,0.4334111809730529,0.4186208844184875,4.0,0.0,1.0,921.0,487.0,921.0,487.0,498.776062011719,63.363580156768,3679.60938879726,,,,,,,,,2065.0,2.0,269440.90045,269499.23515,58.3347000000649,0.78560980620297,113.563433848097,4293.46909035308,-5932.16479614134,155.772254682046
40732,269503.4159,,,,,,Frage 4,,,,,,,,,,,,,,,,,,,,,,,,,,,,,,,,,,,,,,,,,,,,,,,,,,,,,,,,,,,,,,,,,,,,,1.0,976.0,471.0,921.0,487.0,-1.0,-1.0,269549.905,495.42034912109375,498.74517822265625,0.6218845248222351,0.4004114270210266,0.4327501058578491,0.4187308251857757,0.0,0.0,1.0,948.5,479.0,948.5,479.0,497.082763671875,7.73727105730129,-6652.67106374131,,,,,,,,,,,,,,,,,,
40733,269511.7494,,,,,,Frage 4,,,,,,,,,,,,,,,,,,,,,,,,,,,,,,,,,,,,,,,,,,,,,,,,,,,,,,,,,,,,,,,,,,,,,1.0,-1.0,-1.0,923.0,490.0,-1.0,3.775436401367188,269558.239,-1.0,498.7081909179688,-1.0,-1.0,0.4316801726818084,0.4187016785144805,4.0,0.0,1.0,923.0,490.0,923.0,490.0,498.708190917969,52.8976794942481,5419.14062965373,,,,,,,,,2066.0,3.0,269507.58265,269524.23315,16.6504999999888,0.113124265750838,64.0241354422138,5419.14062965373,,341.565051177078
40734,269517.5284,,,,,,Frage 4,1.0,8.0,19.80278968811035,0.0182106457650661,2.9455761909484863,0.2471035867929458,20.596799850463867,0.0817076340317726,0.0713325664401054,98.63064575195312,49.91581344604492,0.221966341137886,2.744994640350342,58.806396484375,97.8379364013672,2.744994640350342,0.3011486828327179,59.61336898803711,0.0089635979384183,1.6145553588867188,0.0856988504528999,7.55393339204602e-05,0.0810213983058929,5.741146564483643,0.0002630656817927,0.0001916100591188,0.0044791223481297,0.1449592262506485,0.221966341137886,94.80928802490233,86.94530487060547,5.063282012939453,32.291099548339844,0.0,55.288909912109375,0.0,12.0,-21.267593383789062,-2.938758373260498,-1.179938554763794,124.38677978515624,1.0,8.0,640.0,480.0,0.0,263.54608154296875,268.6285705566406,1.0,433.0681457519531,443.142333984375,2.0,284.0166015625,306.9963073730469,3.0,408.1678466796875,299.34521484375,4.0,351.9336242675781,364.0745849609375,5.0,352.73687744140625,443.142333984375,,,,,,,,,,,,,,,,,,,,,,,,,,,,,,,,,,,,,,,,,,,,,,,
40735,269520.0519,,,,,,Frage 4,,,,,,,,,,,,,,,,,,,,,,,,,,,,,,,,,,,,,,,,,,,,,,,,,,,,,,,,,,,,,,,,,,,,,1.0,-1.0,-1.0,926.0,489.0,-1.0,-1.0,269566.541,-1.0,498.5279235839844,-1.0,-1.0,0.430500715970993,0.4189499616622924,4.0,0.0,1.0,926.0,489.0,926.0,489.0,498.527923583984,64.0241354422138,1340.13320661248,,,,,,,,,2066.0,3.0,269507.58265,269524.23315,16.6504999999888,0.113124265750838,64.0241354422138,5419.14062965373,,341.565051177078
40736,269528.4144,,,,,,Frage 4,,,,,,,,,,,,,,,,,,,,,,,,,,,,,,,,,,,,,,,,,,,,,,,,,,,,,,,,,,,,,,,,,,,,,1.0,979.0,482.0,926.0,489.0,-1.0,-1.0,269574.904,495.8040466308594,498.478515625,0.6187020540237426,0.4004752933979034,0.4296098053455352,0.4190003275871276,0.0,0.0,1.0,952.5,485.5,952.5,485.5,497.14128112793,12.9014838466827,-6113.32156599129,,,,,,,,,,,,,,,,,,
40737,269536.7206,,,,,,Frage 4,,,,,,,,,,,,,,,,,,,,,,,,,,,,,,,,,,,,,,,,,,,,,,,,,,,,,,,,,,,,,,,,,,,,,1.0,-1.0,-1.0,920.0,489.0,-1.0,3.719085693359375,269583.20900000003,-1.0,498.43374633789057,-1.0,-1.0,0.4284999072551727,0.4190563559532165,4.0,0.0,1.0,920.0,489.0,920.0,489.0,498.433746337891,26.156444465393,1595.79117029729,,,,,,,,,,,,,,,,,,
40738,269545.0488,,,,,,Frage 4,,,,,,,,,,,,,,,,,,,,,,,,,,,,,,,,,,,,,,,,,,,,,,,,,,,,,,,,,,,,,,,,,,,,,1.0,962.0,483.0,919.0,492.0,-1.0,-1.0,269591.538,495.98928833007807,498.2375183105469,0.6162694096565245,0.4005888998508453,0.4271915853023529,0.4192999005317688,0.0,0.0,1.0,940.5,487.5,940.5,487.5,497.113403320313,46.9823077078996,2500.64398579934,,,,,,,,,,,,,,,,,,
40739,269549.5058,,,,,,Frage 4,1.0,9.0,21.471641540527344,0.0209061801433563,3.997486352920532,0.2676702439785003,20.946216583251957,0.0906699672341346,0.0779603794217109,99.06255340576175,49.94311141967773,0.2401855438947677,2.5193474292755127,57.05672073364258,97.48616027832033,2.5193474292755127,0.3218209147453308,63.777442932128906,0.0085506411269307,7.470882415771484,0.0403529480099678,0.0001179204773507,0.1156505569815635,7.819730758666992,0.0002175167901441,0.0001139806045102,0.0046727433800697,0.1995004117488861,0.2401855438947677,93.42142486572264,87.55134582519531,4.620511531829834,30.36812973022461,0.0,60.38266754150391,0.0,12.0,-24.934089660644528,-3.710495948791504,-1.067086696624756,124.79293823242188,1.0,9.0,640.0,480.0,0.0,262.32830810546875,268.0165710449219,1.0,432.1394653320313,441.97943115234375,2.0,282.8118896484375,305.2914428710937,3.0,407.396484375,298.08331298828125,4.0,351.6512145996094,366.3343505859375,5.0,351.4932861328125,441.97943115234375,,,,,,,,,,,,,,,,,,,,,,,,,,,,,,,,,,,,,,,,,,,,,,,
40740,269553.4089,,,,,,Frage 4,,,,,,,,,,,,,,,,,,,,,,,,,,,,,,,,,,,,,,,,,,,,,,,,,,,,,,,,,,,,,,,,,,,,,1.0,963.0,478.0,920.0,492.0,-1.0,-1.0,269599.899,496.0848388671875,498.1599426269531,0.6151776909828186,0.400492787361145,0.426178753376007,0.4194547235965728,0.0,0.0,1.0,941.5,485.0,941.5,485.0,497.12239074707,74.677780931411,3312.81602176313,,,,,,,,,,,,,,,,,,
40741,269561.7426,,,,,,Frage 4,,,,,,,,,,,,,,,,,,,,,,,,,,,,,,,,,,,,,,,,,,,,,,,,,,,,,,,,,,,,,,,,,,,,,1.0,-1.0,-1.0,918.0,514.0,-1.0,3.7049407958984375,269608.232,-1.0,498.0984497070313,-1.0,-1.0,0.425030767917633,0.4196398854255676,4.0,0.0,1.0,918.0,514.0,918.0,514.0,498.098449707031,86.1141347109986,1372.30207225646,,,,,,,,,,,,,,,,,,
40742,269570.0449,,,,,,Frage 4,,,,,,,,,,,,,,,,,,,,,,,,,,,,,,,,,,,,,,,,,,,,,,,,,,,,,,,,,,,,,,,,,,,,,1.0,-1.0,-1.0,915.0,515.0,-1.0,-1.0,269616.53500000003,-1.0,497.90188598632807,-1.0,-1.0,0.4236887693405151,0.4200399518013,4.0,0.0,1.0,915.0,515.0,915.0,515.0,497.901885986328,58.5410334601818,-3321.14007574759,,,,,,,,,,,,,,,,,,
40743,269578.4067,,,,,,Frage 4,,,,,,,,,,,,,,,,,,,,,,,,,,,,,,,,,,,,,,,,,,,,,,,,,,,,,,,,,,,,,,,,,,,,,1.0,950.0,481.0,923.0,507.0,-1.0,-1.0,269624.896,496.2943115234375,497.8345947265625,0.6115170717239379,0.4007724523544311,0.4227257072925567,0.4203354716300964,0.0,0.0,1.0,936.5,494.0,936.5,494.0,497.064453125,12.8866367883627,-5459.8766619324,,,,,,,,,,,,,,,,,,
40744,269581.3592,,,,,,Frage 4,1.0,10.0,20.354738235473636,0.0242612157016992,3.7856004238128658,0.2939654886722564,20.653545379638672,0.1008788496255874,0.0878680646419525,99.35637664794922,49.87295150756836,0.2475549727678299,2.1477341651916504,58.69290542602539,97.628173828125,2.1477341651916504,0.316040962934494,67.61564636230469,0.0101366955786943,11.982089042663574,0.0531245321035385,0.0001511599111836,0.1430061161518096,10.671754837036133,0.0001730577641865,0.000100410899904,0.0046947812661528,0.3352577090263366,0.2475549727678299,90.0582504272461,88.4296875,3.8072619438171382,28.26127815246582,0.0,58.08053588867188,0.0,12.0,-27.395101547241207,-3.412466764450073,-0.6968876719474792,125.93897247314452,1.0,10.0,640.0,480.0,0.0,260.77252197265625,267.84002685546875,1.0,430.42532348632807,440.7503356933594,2.0,280.9339294433594,304.32470703125,3.0,406.6959838867188,297.6516418457032,4.0,349.7908935546875,367.9390258789063,5.0,349.1668701171875,440.7503356933594,,,,,,,,,,,,,,,,,,,,,,,,,,,,,,,,,,,,,,,,,,,,,,,
40745,269586.7392,,,,,,Frage 4,,,,,,,,,,,,,,,,,,,,,,,,,,,,,,,,,,,,,,,,,,,,,,,,,,,,,,,,,,,,,,,,,,,,,1.0,-1.0,-1.0,921.0,515.0,-1.0,3.6607666015625,269633.229,-1.0,497.7850646972656,-1.0,-1.0,0.4214742481708526,0.4203793108463287,4.0,0.0,1.0,921.0,515.0,921.0,515.0,497.785064697266,73.4377163734022,7266.85623581207,,,,,,,,,2067.0,4.0,269582.57295,269682.54775,99.9748000000254,9.77886768265368,302.13408086133,10405.2764282909,-12443.5770947793,195.052920769707
40746,269595.0407,,,,,,Frage 4,,,,,,,,,,,,,,,,,,,,,,,,,,,,,,,,,,,,,,,,,,,,,,,,,,,,,,,,,,,,,,,,,,,,,1.0,924.0,436.0,928.0,487.0,-1.0,-1.0,269641.531,496.39263916015625,497.6001586914063,0.6088365912437439,0.4010188579559326,0.4201425015926361,0.4206019639968872,0.0,0.0,1.0,926.0,461.5,926.0,461.5,496.996398925781,101.253830573421,3350.73350599459,,,,,,,,,2067.0,4.0,269582.57295,269682.54775,99.9748000000254,9.77886768265368,302.13408086133,10405.2764282909,-12443.5770947793,195.052920769707
40747,269603.377,,,,,,Frage 4,,,,,,,,,,,,,,,,,,,,,,,,,,,,,,,,,,,,,,,,,,,,,,,,,,,,,,,,,,,,,,,,,,,,,1.0,905.0,446.0,937.0,490.0,-1.0,-1.0,269649.864,496.44439697265625,497.56451416015625,0.6082000136375427,0.4006042182445526,0.4194852113723754,0.4205049872398376,0.0,0.0,1.0,921.0,468.0,921.0,468.0,497.004455566406,155.994074691951,6566.49162323229,,,,,,,,,2067.0,4.0,269582.57295,269682.54775,99.9748000000254,9.77886768265368,302.13408086133,10405.2764282909,-12443.5770947793,195.052920769707
40748,269611.7089,,,,,,Frage 4,,,,,,,,,,,,,,,,,,,,,,,,,,,,,,,,,,,,,,,,,,,,,,,,,,,,,,,,,,,,,,,,,,,,,1.0,-1.0,-1.0,877.0,515.0,-1.0,3.633865356445313,269658.199,-1.0,497.5560607910156,-1.0,-1.0,0.4188788533210754,0.4202322661876678,4.0,0.0,1.0,877.0,515.0,877.0,515.0,497.556060791016,193.550690000489,4507.56913889033,,,,,,,,,2067.0,4.0,269582.57295,269682.54775,99.9748000000254,9.77886768265368,302.13408086133,10405.2764282909,-12443.5770947793,195.052920769707
40749,269613.4679,,,,,,Frage 4,1.0,11.0,15.41411018371582,0.0248832926154136,1.880182266235352,0.3147175908088684,15.641105651855469,0.0984359681606292,0.1088405698537826,99.14476013183594,48.06085205078125,0.249296948313713,1.8055260181427,68.71778869628906,97.928466796875,1.8055260181427,0.4074835479259491,62.579265594482415,0.0092031517997384,19.45807647705078,0.0338425524532794,0.0002409050503047,0.1631721407175064,15.702242851257324,0.0001547506108181,7.265031308634207e-05,0.004715546965599,0.5242420434951782,0.249296948313713,84.93228149414062,89.90190124511719,2.2601115703582764,27.779075622558597,0.0,43.94315719604492,0.0,12.0,-27.17293930053711,-2.7202792167663574,-1.5600707530975342,125.22364807128906,1.0,11.0,640.0,480.0,0.0,259.76025390625,267.2861328125,1.0,429.1657104492188,440.2958679199218,2.0,279.3829650878906,304.2149963378906,3.0,404.35855102539057,296.3368225097656,4.0,347.8622741699219,367.107666015625,5.0,349.6473999023437,440.2958679199218,,,,,,,,,,,,,,,,,,,,,,,,,,,,,,,,,,,,,,,,,,,,,,,
40750,269620.0717,,,,,,Frage 4,,,,,,,,,,,,,,,,,,,,,,,,,,,,,,,,,,,,,,,,,,,,,,,,,,,,,,,,,,,,,,,,,,,,,1.0,877.0,487.0,784.0,449.0,-1.0,-1.0,269666.561,496.4947204589844,497.4173583984375,0.6067838072776794,0.4002101421356201,0.4183051288127899,0.420255035161972,0.0,0.0,1.0,830.5,468.0,830.5,468.0,496.956039428711,280.567935714421,10405.2764282909,,,,,,,,,2067.0,4.0,269582.57295,269682.54775,99.9748000000254,9.77886768265368,302.13408086133,10405.2764282909,-12443.5770947793,195.052920769707
40751,269628.3989,,,,,,Frage 4,,,,,,,,,,,,,,,,,,,,,,,,,,,,,,,,,,,,,,,,,,,,,,,,,,,,,,,,,,,,,,,,,,,,,1.0,763.0,446.0,754.0,469.0,-1.0,-1.0,269674.888,496.6588439941406,497.59323120117193,0.6062889695167542,0.3999100923538208,0.4180580973625183,0.4200160503387451,0.0,0.0,1.0,758.5,457.5,758.5,457.5,497.126037597656,302.13408086133,2589.84354247641,,,,,,,,,2067.0,4.0,269582.57295,269682.54775,99.9748000000254,9.77886768265368,302.13408086133,10405.2764282909,-12443.5770947793,195.052920769707
40752,269636.7057,,,,,,Frage 4,,,,,,,,,,,,,,,,,,,,,,,,,,,,,,,,,,,,,,,,,,,,,,,,,,,,,,,,,,,,,,,,,,,,,1.0,-1.0,-1.0,688.0,465.0,-1.0,3.5432281494140625,269683.196,-1.0,497.9862060546875,-1.0,-1.0,0.4176254272460937,0.41972017288208,4.0,0.0,1.0,688.0,465.0,688.0,465.0,497.986206054688,198.767774650165,-12443.5770947793,,,,,,,,,2067.0,4.0,269582.57295,269682.54775,99.9748000000254,9.77886768265368,302.13408086133,10405.2764282909,-12443.5770947793,195.052920769707
40753,269645.0647,,,,,,Frage 4,,,,,,,,,,,,,,,,,,,,,,,,,,,,,,,,,,,,,,,,,,,,,,,,,,,,,,,,,,,,,,,,,,,,,1.0,725.0,430.0,613.0,421.0,-1.0,-1.0,269691.554,496.8851013183594,498.1279296875,0.6049041152000427,0.3996609449386596,0.4166562855243682,0.4197652637958526,0.0,0.0,1.0,669.0,425.5,669.0,425.5,497.50651550293,179.532268261873,-2301.17315328382,,,,,,,,,2067.0,4.0,269582.57295,269682.54775,99.9748000000254,9.77886768265368,302.13408086133,10405.2764282909,-12443.5770947793,195.052920769707
40754,269646.3042,,,,,,Frage 4,1.0,12.0,10.615455627441406,0.0280392970889806,1.0917302370071411,0.3345783948898315,15.68272590637207,0.098233588039875,0.1470211893320083,99.28919982910156,48.56517791748047,0.2352645397186279,1.6343209743499756,68.6345443725586,97.73078918457033,1.6343209743499756,0.5037190318107605,62.33441162109375,0.0085511226207017,27.300365447998047,0.0154374996200203,0.0004234770894981,0.178186297416687,22.816612243652344,0.0001218443358084,6.932732503628358e-05,0.0046474747359752,0.6673734784126281,0.2352645397186279,76.4207763671875,92.46695709228516,1.4130674600601196,27.931543350219727,1.2947111129760742,32.15509414672852,0.0,12.0,-25.505226135253903,-3.18607759475708,-1.6661407947540283,125.5251235961914,1.0,12.0,640.0,480.0,0.0,257.52703857421875,267.0247802734375,1.0,427.4829711914063,440.6736145019531,2.0,277.20947265625,305.4700927734375,3.0,402.38323974609375,296.08477783203125,4.0,346.3660583496094,365.7825317382813,5.0,347.9223022460937,440.6736145019531,,,,,,,,,,,,,,,,,,,,,,,,,,,,,,,,,,,,,,,,,,,,,,,
40755,269653.3976,,,,,,Frage 4,,,,,,,,,,,,,,,,,,,,,,,,,,,,,,,,,,,,,,,,,,,,,,,,,,,,,,,,,,,,,,,,,,,,,1.0,-1.0,-1.0,613.0,421.0,-1.0,-1.0,269699.887,-1.0,498.0377502441406,-1.0,-1.0,0.4161697626113891,0.4194838106632232,4.0,0.0,1.0,613.0,421.0,613.0,421.0,498.037750244141,113.997249130311,-7864.61125553721,,,,,,,,,2067.0,4.0,269582.57295,269682.54775,99.9748000000254,9.77886768265368,302.13408086133,10405.2764282909,-12443.5770947793,195.052920769707
40756,269661.7045,,,,,,Frage 4,,,,,,,,,,,,,,,,,,,,,,,,,,,,,,,,,,,,,,,,,,,,,,,,,,,,,,,,,,,,,,,,,,,,,1.0,-1.0,-1.0,614.0,420.0,-1.0,3.5050048828125,269708.194,-1.0,497.9143676757813,-1.0,-1.0,0.4154704809188842,0.4192731082439422,4.0,0.0,1.0,614.0,420.0,614.0,420.0,497.914367675781,130.389246656443,1973.29900759571,,,,,,,,,2067.0,4.0,269582.57295,269682.54775,99.9748000000254,9.77886768265368,302.13408086133,10405.2764282909,-12443.5770947793,195.052920769707
40757,269670.2346,,,,,,Frage 4,,,,,,,,,,,,,,,,,,,,,,,,,,,,,,,,,,,,,,,,,,,,,,,,,,,,,,,,,,,,,,,,,,,,,1.0,711.0,433.0,634.0,456.0,-1.0,-1.0,269716.724,497.0439147949218,497.43795776367193,0.6029599905014038,0.3992648422718048,0.4147512316703796,0.4193154871463775,0.0,0.0,1.0,672.5,444.5,672.5,444.5,497.240936279297,101.451240951113,-3392.45796710697,,,,,,,,,2067.0,4.0,269582.57295,269682.54775,99.9748000000254,9.77886768265368,302.13408086133,10405.2764282909,-12443.5770947793,195.052920769707
40758,269677.6967,,,,,,Frage 4,1.0,13.0,7.031033039093018,0.0384552627801895,0.8746504783630371,0.3297773301601409,18.77445411682129,0.0922961682081222,0.2240326702594757,99.39642333984376,50.90146255493164,0.2540043890476226,1.4328461885452273,62.45109558105469,97.8530044555664,1.4328461885452273,0.5814970135688781,62.49275970458984,0.0082968464121222,35.74896240234375,0.0144511824473738,0.0007508101407438,0.2014725655317306,32.8428955078125,9.983703785110264e-05,5.5670498113613576e-05,0.0040732119232416,0.993960440158844,0.2540043890476226,66.29876708984375,94.35708618164062,0.9620309472084044,29.79710578918457,5.651331901550293,28.119935989379883,0.0,12.0,-26.028644561767575,-2.903019666671753,-2.064145803451538,123.86627960205078,1.0,13.0,640.0,480.0,0.0,255.68539428710935,267.3164367675781,1.0,425.00201416015625,440.3778076171875,2.0,275.5646667480469,305.66558837890625,3.0,399.0308837890625,295.71826171875,4.0,343.8384704589844,366.1372985839844,5.0,346.435546875,440.3778076171875,,,,,,,,,,,,,,,,,,,,,,,,,,,,,,,,,,,,,,,,,,,,,,,
40759,269678.3657,,,,,,Frage 4,,,,,,,,,,,,,,,,,,,,,,,,,,,,,,,,,,,,,,,,,,,,,,,,,,,,,,,,,,,,,,,,,,,,,1.0,685.0,435.0,629.0,453.0,-1.0,-1.0,269724.856,497.1127014160156,497.4049072265625,0.6025447845458984,0.3990186750888824,0.4144176542758941,0.4190257787704467,0.0,0.0,1.0,657.0,444.0,657.0,444.0,497.258804321289,96.4394557921876,-616.372343093296,,,,,,,,,2067.0,4.0,269582.57295,269682.54775,99.9748000000254,9.77886768265368,302.13408086133,10405.2764282909,-12443.5770947793,195.052920769707
40760,269686.7298,,,,,,Frage 4,,,,,,,,,,,,,,,,,,,,,,,,,,,,,,,,,,,,,,,,,,,,,,,,,,,,,,,,,,,,,,,,,,,,,1.0,-1.0,-1.0,629.0,459.0,-1.0,3.490219116210937,269733.219,-1.0,497.427734375,-1.0,-1.0,0.4140247106552124,0.418877363204956,4.0,0.0,1.0,629.0,459.0,629.0,459.0,497.427734375,17.9160751178791,-9388.14465092446,396.0,1.0,631.047248779774,462.735153524987,269682.54775,269840.8659,158.318149999948,0.476029466553606,,,,,,,,,,
40761,269695.0589,,,,,,Frage 4,,,,,,,,,,,,,,,,,,,,,,,,,,,,,,,,,,,,,,,,,,,,,,,,,,,,,,,,,,,,,,,,,,,,,1.0,699.0,439.0,625.0,463.0,-1.0,-1.0,269741.549,497.2209777832031,497.288330078125,0.6017754673957824,0.3991301357746124,0.4134530425071716,0.419022798538208,0.0,0.0,1.0,662.0,451.0,662.0,451.0,497.254653930664,74.7859638439172,6827.8551975389,396.0,1.0,631.047248779774,462.735153524987,269682.54775,269840.8659,158.318149999948,0.476029466553606,,,,,,,,,,
40762,269703.3654,,,,,,Frage 4,,,,,,,,,,,,,,,,,,,,,,,,,,,,,,,,,,,,,,,,,,,,,,,,,,,,,,,,,,,,,,,,,,,,,1.0,705.0,464.0,622.0,434.0,-1.0,-1.0,269749.854,497.2986145019531,497.281494140625,0.6014589071273803,0.3990099430084228,0.4132675528526306,0.4188981652259826,0.0,0.0,1.0,663.5,449.0,663.5,449.0,497.290054321289,91.8217365478096,2050.89661155481,396.0,1.0,631.047248779774,462.735153524987,269682.54775,269840.8659,158.318149999948,0.476029466553606,,,,,,,,,,
40763,269711.7502,,,,,,Frage 4,,,,,,,,,,,,,,,,,,,,,,,,,,,,,,,,,,,,,,,,,,,,,,,,,,,,,,,,,,,,,,,,,,,,,1.0,-1.0,-1.0,620.0,465.0,-1.0,3.4603271484375,269758.218,-1.0,497.2898559570313,-1.0,-1.0,0.4128853380680084,0.4187919199466705,4.0,0.0,1.0,620.0,465.0,620.0,465.0,497.289855957031,31.7269807237448,-7167.10664822848,396.0,1.0,631.047248779774,462.735153524987,269682.54775,269840.8659,158.318149999948,0.476029466553606,,,,,,,,,,
40764,269720.0589,,,,,,Frage 4,,,,,,,,,,,,,,,,,,,,,,,,,,,,,,,,,,,,,,,,,,,,,,,,,,,,,,,,,,,,,,,,,,,,,1.0,699.0,461.0,620.0,466.0,-1.0,-1.0,269766.549,497.448974609375,497.15969848632807,0.6007258892059326,0.3993937671184539,0.4123611748218536,0.4190478920936584,0.0,0.0,1.0,659.5,463.5,659.5,463.5,497.304336547852,88.5075577351946,6833.87016157641,396.0,1.0,631.047248779774,462.735153524987,269682.54775,269840.8659,158.318149999948,0.476029466553606,,,,,,,,,,
40765,269725.5301,,,,,,Frage 4,1.0,14.0,4.303351879119873,0.0716549754142761,0.6973857283592224,0.3370946645736694,12.772518157958984,0.0858453884720802,0.3083901703357696,98.910888671875,47.65289306640625,0.3223484456539154,1.3431724309921265,74.4549560546875,97.89446258544922,1.3431724309921265,0.5647346377372741,54.64493942260742,0.0077539654448628,40.54029846191406,0.0068274531513452,0.0011715503642335,0.213973194360733,40.53681182861328,7.759346772218123e-05,6.317678344203159e-05,0.0038096057251095,1.4846357107162476,0.3223484456539154,53.55382537841797,94.798583984375,0.6232126951217651,29.691606521606445,11.454717636108398,23.53317642211914,0.0,12.0,-25.316221237182617,-2.803406238555908,-2.592844724655152,124.62598419189452,1.0,14.0,640.0,480.0,0.0,253.8538360595703,266.7143249511719,1.0,423.65774536132807,440.3657836914063,2.0,273.1302185058594,306.05889892578125,3.0,397.2457885742188,294.79119873046875,4.0,342.1241455078125,365.2492065429688,5.0,345.891357421875,440.3657836914063,,,,,,,,,,,,,,,,,,,,,,,,,,,,,,,,,,,,,,,,,,,,,,,
40766,269728.3592,,,,,,Frage 4,,,,,,,,,,,,,,,,,,,,,,,,,,,,,,,,,,,,,,,,,,,,,,,,,,,,,,,,,,,,,,,,,,,,,1.0,693.0,440.0,626.0,459.0,-1.0,-1.0,269774.849,497.57427978515625,497.1593933105469,0.6003665924072265,0.3994199335575103,0.412200391292572,0.4190244078636169,0.0,0.0,1.0,659.5,449.5,659.5,449.5,497.366836547852,71.6390924113671,-2032.27176413168,396.0,1.0,631.047248779774,462.735153524987,269682.54775,269840.8659,158.318149999948,0.476029466553606,,,,,,,,,,
40767,269736.7258,,,,,,Frage 4,,,,,,,,,,,,,,,,,,,,,,,,,,,,,,,,,,,,,,,,,,,,,,,,,,,,,,,,,,,,,,,,,,,,,1.0,-1.0,-1.0,625.0,460.0,-1.0,3.447128295898437,269783.214,-1.0,497.1633605957031,-1.0,-1.0,0.4117523431777954,0.4191597700119018,4.0,0.0,1.0,625.0,460.0,625.0,460.0,497.163360595703,12.7572265830134,-7037.7292840932,396.0,1.0,631.047248779774,462.735153524987,269682.54775,269840.8659,158.318149999948,0.476029466553606,,,,,,,,,,
40768,269745.0271,,,,,,Frage 4,,,,,,,,,,,,,,,,,,,,,,,,,,,,,,,,,,,,,,,,,,,,,,,,,,,,,,,,,,,,,,,,,,,,,1.0,698.0,428.0,626.0,460.0,-1.0,-1.0,269791.516,498.02728271484375,497.02874755859375,0.5995774269104003,0.4000931978225708,0.4112040102481842,0.4195887148380279,0.0,0.0,1.0,662.0,444.0,662.0,444.0,497.528015136719,83.4406509059913,8514.74158541999,396.0,1.0,631.047248779774,462.735153524987,269682.54775,269840.8659,158.318149999948,0.476029466553606,,,,,,,,,,
40769,269753.3959,,,,,,Frage 4,,,,,,,,,,,,,,,,,,,,,,,,,,,,,,,,,,,,,,,,,,,,,,,,,,,,,,,,,,,,,,,,,,,,,1.0,702.0,427.0,622.0,462.0,-1.0,-1.0,269799.886,498.3215637207031,497.0269165039063,0.5992398858070374,0.4003622233867645,0.4110772609710693,0.4198915660381317,0.0,0.0,1.0,662.0,444.5,662.0,444.5,497.674240112305,87.4795343009401,482.612010676609,396.0,1.0,631.047248779774,462.735153524987,269682.54775,269840.8659,158.318149999948,0.476029466553606,,,,,,,,,,
40770,269757.5142,,,,,,Frage 4,1.0,15.0,1.9884768724441528,0.1751259416341781,0.4798807203769683,0.3559436500072479,7.578934192657471,0.0851764902472496,0.380574882030487,98.01280212402345,43.05174255371094,0.4219974279403686,1.180208683013916,84.84213256835938,97.96526336669922,1.180208683013916,0.5219285488128662,47.99723815917969,0.0067417989484965,48.899368286132805,0.0062423450872302,0.0021659093908965,0.2607069313526153,45.59689331054688,6.52091548545286e-05,0.0001492750743636,0.0036242231726646,2.577893018722534,0.4219974279403686,34.135196685791016,93.84919738769533,0.4690086841583252,27.873193740844727,18.61990737915039,15.604501724243164,0.0,12.0,-23.2623291015625,-2.628749132156372,-2.2822482585906982,122.9834213256836,1.0,15.0,640.0,480.0,0.0,252.1094970703125,265.6524658203125,1.0,422.2739868164063,440.415771484375,2.0,272.69891357421875,305.0434265136719,3.0,395.236328125,294.5790100097656,4.0,340.37310791015625,362.9005737304688,5.0,343.6400146484375,440.415771484375,,,,,,,,,,,,,,,,,,,,,,,,,,,,,,,,,,,,,,,,,,,,,,,
40771,269761.7269,,,,,,Frage 4,,,,,,,,,,,,,,,,,,,,,,,,,,,,,,,,,,,,,,,,,,,,,,,,,,,,,,,,,,,,,,,,,,,,,1.0,-1.0,-1.0,625.0,464.0,-1.0,3.4577789306640625,269808.216,-1.0,497.0656433105469,-1.0,-1.0,0.4106816351413726,0.4202450513839721,4.0,0.0,1.0,625.0,464.0,625.0,464.0,497.065643310547,26.2498225311875,-7349.62330689131,396.0,1.0,631.047248779774,462.735153524987,269682.54775,269840.8659,158.318149999948,0.476029466553606,,,,,,,,,,
40772,269770.0233,,,,,,Frage 4,,,,,,,,,,,,,,,,,,,,,,,,,,,,,,,,,,,,,,,,,,,,,,,,,,,,,,,,,,,,,,,,,,,,,1.0,689.0,433.0,623.0,434.0,-1.0,-1.0,269816.513,498.9461059570313,496.9649658203125,0.5985478162765502,0.4015334248542785,0.4102542996406555,0.4210907816886901,0.0,0.0,1.0,656.0,433.5,656.0,433.5,497.955535888672,72.7560287716785,5605.58871806277,396.0,1.0,631.047248779774,462.735153524987,269682.54775,269840.8659,158.318149999948,0.476029466553606,,,,,,,,,,
40773,269778.3559,,,,,,Frage 4,,,,,,,,,,,,,,,,,,,,,,,,,,,,,,,,,,,,,,,,,,,,,,,,,,,,,,,,,,,,,,,,,,,,,1.0,690.0,437.0,622.0,459.0,-1.0,-1.0,269824.84500000003,499.3073425292969,496.9742431640625,0.5984468460083007,0.4019250869750976,0.4102733433246612,0.4216266572475433,0.0,0.0,1.0,656.0,448.0,656.0,448.0,498.14079284668,72.8647523287937,13.047975075587,396.0,1.0,631.047248779774,462.735153524987,269682.54775,269840.8659,158.318149999948,0.476029466553606,,,,,,,,,,
40774,269786.6909,,,,,,Frage 4,,,,,,,,,,,,,,,,,,,,,,,,,,,,,,,,,,,,,,,,,,,,,,,,,,,,,,,,,,,,,,,,,,,,,1.0,-1.0,-1.0,621.0,438.0,-1.0,3.45526123046875,269833.18,-1.0,496.99847412109375,-1.0,-1.0,0.4101878404617309,0.422119528055191,4.0,0.0,1.0,621.0,438.0,621.0,438.0,496.998474121094,77.2358738632308,524.429698195165,396.0,1.0,631.047248779774,462.735153524987,269682.54775,269840.8659,158.318149999948,0.476029466553606,,,,,,,,,,
40775,269789.5644,,,,,,Frage 4,1.0,16.0,1.5235109329223633,0.2255168706178665,0.3760619461536407,0.3644773066043853,5.1544389724731445,0.0827873647212982,0.4513862431049346,96.70823669433594,39.80208206176758,0.5310894846916198,1.108769416809082,89.69112396240233,97.77077484130861,1.108769416809082,0.4536019563674926,42.39290237426758,0.0066927894949913,52.214221954345696,0.004484464880079,0.0030282880179584,0.3081369400024414,49.72935485839844,4.9954043788602576e-05,0.0002311482530785,0.0027287953998893,3.7549526691436768,0.5310894846916198,28.597261428833008,93.00608825683594,0.4987867772579193,27.03292655944824,20.412403106689453,10.695934295654297,0.0,12.0,-23.83578872680664,-3.095151424407959,-2.693474531173706,124.28793334960938,1.0,16.0,640.0,480.0,0.0,251.0783233642578,264.7658386230469,1.0,421.8003845214844,439.70132446289057,2.0,270.9254150390625,305.0455017089844,3.0,394.6356506347656,293.0760498046875,4.0,340.0762939453125,362.68460083007807,5.0,343.7569885253906,439.70132446289057,,,,,,,,,,,,,,,,,,,,,,,,,,,,,,,,,,,,,,,,,,,,,,,
40776,269795.0506,,,,,,Frage 4,,,,,,,,,,,,,,,,,,,,,,,,,,,,,,,,,,,,,,,,,,,,,,,,,,,,,,,,,,,,,,,,,,,,,1.0,-1.0,-1.0,623.0,465.0,-1.0,-1.0,269841.54,-1.0,496.8812255859375,-1.0,-1.0,0.4100832939147949,0.4230183064937591,4.0,0.0,1.0,623.0,465.0,623.0,465.0,496.881225585938,90.6467827454756,1604.23327179165,396.0,1.0,631.047248779774,462.735153524987,269682.54775,269840.8659,158.318149999948,0.476029466553606,,,,,,,,,,
40777,269803.3521,,,,,,Frage 4,,,,,,,,,,,,,,,,,,,,,,,,,,,,,,,,,,,,,,,,,,,,,,,,,,,,,,,,,,,,,,,,,,,,,1.0,693.0,445.0,626.0,473.0,-1.0,-1.0,269849.841,500.27435302734375,496.89791870117193,0.5985324382781982,0.4037781059741973,0.4104340672492981,0.4234057664871215,0.0,0.0,1.0,659.5,459.0,659.5,459.0,498.586135864258,8.63026289099632,-9879.72292410594,396.0,1.0,631.047248779774,462.735153524987,269682.54775,269840.8659,158.318149999948,0.476029466553606,,,,,,,,,,
40778,269811.688,,,,,,Frage 4,,,,,,,,,,,,,,,,,,,,,,,,,,,,,,,,,,,,,,,,,,,,,,,,,,,,,,,,,,,,,,,,,,,,,1.0,-1.0,-1.0,624.0,469.0,-1.0,3.424285888671875,269858.178,-1.0,496.91790771484375,-1.0,-1.0,0.4106122255325317,0.4237652122974395,4.0,0.0,1.0,624.0,469.0,624.0,469.0,496.917907714844,18.1063657852445,1136.78221838576,396.0,1.0,631.047248779774,462.735153524987,269682.54775,269840.8659,158.318149999948,0.476029466553606,,,,,,,,,,
40779,269820.0466,,,,,,Frage 4,,,,,,,,,,,,,,,,,,,,,,,,,,,,,,,,,,,,,,,,,,,,,,,,,,,,,,,,,,,,,,,,,,,,,1.0,717.0,459.0,619.0,463.0,-1.0,-1.0,269866.536,500.80218505859375,496.7708435058594,0.598928153514862,0.4050616025924682,0.4107384383678436,0.4242829084396362,0.0,0.0,1.0,668.0,461.0,668.0,461.0,498.786514282227,89.6828100038451,8563.20965458226,396.0,1.0,631.047248779774,462.735153524987,269682.54775,269840.8659,158.318149999948,0.476029466553606,,,,,,,,,,
40780,269821.8911,,,,,,Frage 4,1.0,17.0,1.3005931377410889,0.2875846922397613,0.3122916519641876,0.3654500246047973,3.3391804695129395,0.0808576196432113,0.5189116597175598,94.01738739013673,36.14372253417969,0.732495903968811,1.0922132730484009,93.32164001464845,97.51152038574217,1.0922132730484009,0.3666706979274749,36.543575286865234,0.0073653194122016,51.45393371582031,0.0108878947794437,0.0032642693258821,0.2936199009418487,53.19270706176758,4.5045013393973925e-05,0.0004279616696294,0.0021896744146943,4.534551620483398,0.732495903968811,25.806650161743164,91.06948852539062,0.5876600742340087,25.94370651245117,21.921049118041992,7.437571048736573,0.0,12.0,-21.10262680053711,-3.658498287200928,-3.111963987350464,126.79213714599608,1.0,17.0,640.0,480.0,0.0,249.6583709716797,264.1605224609375,1.0,420.20260620117193,439.8249206542969,2.0,267.63037109375,304.6242980957032,3.0,393.9156494140625,293.2984619140625,4.0,339.17486572265625,359.98291015625,5.0,343.24542236328125,439.8249206542969,,,,,,,,,,,,,,,,,,,,,,,,,,,,,,,,,,,,,,,,,,,,,,,
40781,269828.3795,,,,,,Frage 4,,,,,,,,,,,,,,,,,,,,,,,,,,,,,,,,,,,,,,,,,,,,,,,,,,,,,,,,,,,,,,,,,,,,,1.0,706.0,443.0,624.0,467.0,-1.0,-1.0,269874.868,501.0686340332031,496.72561645507807,0.59930282831192,0.4052212238311767,0.4112156331539154,0.4243156313896179,0.0,0.0,1.0,665.0,455.0,665.0,455.0,498.897125244141,86.1832257431458,-419.97194982634,396.0,1.0,631.047248779774,462.735153524987,269682.54775,269840.8659,158.318149999948,0.476029466553606,,,,,,,,,,
40782,269836.6852,,,,,,Frage 4,,,,,,,,,,,,,,,,,,,,,,,,,,,,,,,,,,,,,,,,,,,,,,,,,,,,,,,,,,,,,,,,,,,,,1.0,-1.0,-1.0,627.0,468.0,-1.0,3.4559478759765625,269883.175,-1.0,496.6872863769531,-1.0,-1.0,0.4114180207252502,0.4243342876434326,4.0,0.0,1.0,627.0,468.0,627.0,468.0,496.687286376953,26.8510553858536,-7143.54844951113,396.0,1.0,631.047248779774,462.735153524987,269682.54775,269840.8659,158.318149999948,0.476029466553606,,,,,,,,,,
40783,269845.0466,,,,,,Frage 4,,,,,,,,,,,,,,,,,,,,,,,,,,,,,,,,,,,,,,,,,,,,,,,,,,,,,,,,,,,,,,,,,,,,,1.0,698.0,427.0,627.0,458.0,-1.0,-1.0,269891.536,501.54827880859375,496.4909973144531,0.5997679233551025,0.405848205089569,0.4115906655788421,0.4244717955589294,0.0,0.0,1.0,662.5,442.5,662.5,442.5,499.019638061524,91.831058706956,7771.42623497818,,,,,,,,,2068.0,5.0,269840.8659,269874.19505,33.329150000005,1.40300718303465,96.2483632813776,7771.42623497818,-1176.04262972285,155.071525864539
40784,269853.3391,,,,,,Frage 4,1.0,18.0,1.138752579689026,0.2490584999322891,0.2636798918247222,0.3531329333782196,4.618813514709473,0.0794200077652931,0.7027121186256408,95.52730560302734,38.9084587097168,1.0723354816436768,0.9654985070228576,90.76236724853517,97.36321258544922,0.9654985070228576,0.3625283539295196,39.98434448242188,0.0088254511356353,48.95152282714844,0.0068748448975384,0.0033206783700734,0.3003332912921905,60.51158142089844,3.9245522202691057e-05,0.0004647042660508,0.0016316391993314,5.164230346679688,1.0723354816436768,24.55966186523437,91.44667053222656,0.8541310429573059,27.22218132019043,21.495014190673828,4.379437446594238,0.0,12.0,-23.710081100463867,-3.9555618762969966,-2.933535099029541,128.72398376464844,1.0,18.0,640.0,480.0,0.0,249.18692016601565,265.00518798828125,1.0,418.85546875,438.3836059570313,2.0,265.9213256835937,305.7377319335937,3.0,394.0271606445313,293.1376953125,4.0,338.6473388671875,362.0987548828125,5.0,342.1150817871094,438.3836059570313,,,,,,,,,,,,,,,,,,,,,,,,,,,,,,,,,,,,,,,,,,,,,,,
40785,269853.3745,,,,,,Frage 4,,,,,,,,,,,,,,,,,,,,,,,,,,,,,,,,,,,,,,,,,,,,,,,,,,,,,,,,,,,,,,,,,,,,,1.0,700.0,425.0,626.0,460.0,-1.0,-1.0,269899.864,501.8034057617188,496.4249877929688,0.600151777267456,0.4056884050369262,0.4120917916297912,0.4241510033607482,0.0,0.0,1.0,663.0,442.5,663.0,442.5,499.114196777344,92.5574671692699,87.2258867561004,,,,,,,,,2068.0,5.0,269840.8659,269874.19505,33.329150000005,1.40300718303465,96.2483632813776,7771.42623497818,-1176.04262972285,155.071525864539
40786,269861.6835,,,,,,Frage 4,,,,,,,,,,,,,,,,,,,,,,,,,,,,,,,,,,,,,,,,,,,,,,,,,,,,,,,,,,,,,,,,,,,,,1.0,-1.0,-1.0,622.0,461.0,-1.0,3.4605255126953125,269908.172,-1.0,496.3716735839844,-1.0,-1.0,0.4123183488845825,0.4238884449005127,4.0,0.0,1.0,622.0,461.0,622.0,461.0,496.371673583984,82.7857289588929,-1176.04262972285,,,,,,,,,2068.0,5.0,269840.8659,269874.19505,33.329150000005,1.40300718303465,96.2483632813776,7771.42623497818,-1176.04262972285,155.071525864539
40787,269870.0137,,,,,,Frage 4,,,,,,,,,,,,,,,,,,,,,,,,,,,,,,,,,,,,,,,,,,,,,,,,,,,,,,,,,,,,,,,,,,,,,1.0,-1.0,-1.0,627.0,459.0,-1.0,-1.0,269916.503,-1.0,496.1795349121094,-1.0,-1.0,0.412523329257965,0.4236092567443847,4.0,0.0,1.0,627.0,459.0,627.0,459.0,496.179534912109,96.2483632813776,1616.12378123491,,,,,,,,,2068.0,5.0,269840.8659,269874.19505,33.329150000005,1.40300718303465,96.2483632813776,7771.42623497818,-1176.04262972285,155.071525864539
40788,269878.3764,,,,,,Frage 4,,,,,,,,,,,,,,,,,,,,,,,,,,,,,,,,,,,,,,,,,,,,,,,,,,,,,,,,,,,,,,,,,,,,,1.0,706.0,431.0,624.0,457.0,-1.0,-1.0,269924.866,502.425048828125,496.13522338867193,0.6011596322059631,0.4052473306655883,0.4130125343799591,0.4231388568878173,0.0,0.0,1.0,665.0,444.0,665.0,444.0,499.280136108398,8.43223366484688,-10500.9302756948,,,,,,,,,,,,,,,,,,
40789,269886.2459,,,,,,Frage 4,1.0,19.0,1.02522873878479,0.1390917599201202,0.2830768227577209,0.3383255898952484,6.959600925445557,0.0746548473834991,0.9918875098228453,97.03067016601561,42.577938079833984,1.3387798070907593,0.9301902651786804,86.08079528808595,98.13291931152345,0.9301902651786804,0.3242426514625549,42.77992630004882,0.0107561564072966,39.56193923950195,0.0127745047211647,0.0033083511516451,0.2941648364067077,68.89794158935547,3.162929351674393e-05,0.0001865341910161,0.0010862073395401,5.028565883636475,1.3387798070907593,22.08527183532715,93.94335174560547,1.224528193473816,29.697536468505856,17.748395919799805,5.415015697479248,0.0,12.0,-25.342973709106445,-2.1902701854705806,-2.847900629043579,128.2024383544922,1.0,19.0,640.0,480.0,0.0,249.2267303466797,266.2467956542969,1.0,417.67819213867193,438.1090698242188,2.0,265.70391845703125,305.6852722167969,3.0,393.3828125,294.1109619140625,4.0,336.2696533203125,363.9847412109375,5.0,341.2706298828125,438.1090698242188,,,,,,,,,,,,,,,,,,,,,,,,,,,,,,,,,,,,,,,,,,,,,,,
40790,269886.7108,,,,,,Frage 4,,,,,,,,,,,,,,,,,,,,,,,,,,,,,,,,,,,,,,,,,,,,,,,,,,,,,,,,,,,,,,,,,,,,,1.0,-1.0,-1.0,623.0,458.0,-1.0,3.4675750732421875,269933.2,-1.0,496.10598754882807,-1.0,-1.0,0.4131449460983276,0.4226249456405639,4.0,0.0,1.0,623.0,458.0,623.0,458.0,496.105987548828,39.8127505266823,3765.18008037337,,,,,,,,,2069.0,6.0,269882.5436,269982.52525,99.9816500000306,1.64253199104166,105.664993235583,7199.78630632405,-6432.20988841994,327.002294898784
