Row,Timestamp,EventSource,SlideEvent,StimType,Duration,CollectionPhase,SourceStimuliName,EventSource.1,SampleNumber,Anger,Contempt,Disgust,Fear,Joy,Sadness,Surprise,Engagement,Valence,Sentimentality,Confusion,Neutral,Attention,Brow Furrow,Brow Raise,Cheek Raise,Chin Raise,Dimpler,Eye Closure,Eye Widen,Inner Brow Raise,Jaw Drop,Lip Corner Depressor,Lip Press,Lip Pucker,Lip Stretch,Lip Suck,Lid Tighten,Mouth Open,Nose Wrinkle,Smile,Smirk,Upper Lip Raise,Blink,BlinkRate,Pitch,Yaw,Roll,Interocular Distance,EventSource.2,SampleNumber.1,width,height,feature id_1,feature-x_1,feature-y_1,feature id_2,feature-x_2,feature-y_2,feature id_3,feature-x_3,feature-y_3,feature id_4,feature-x_4,feature-y_4,feature id_5,feature-x_5,feature-y_5,feature id_6,feature-x_6,feature-y_6,EventSource.3,CPU Sys,Memory Sys,CPU Proc,Memory Proc,EventSource.4,ET_GazeLeftx,ET_GazeLefty,ET_GazeRightx,ET_GazeRighty,ET_PupilLeft,ET_PupilRight,ET_TimeSignal,ET_DistanceLeft,ET_DistanceRight,ET_CameraLeftX,ET_CameraLeftY,ET_CameraRightX,ET_CameraRightY,ET_ValidityLeft,ET_ValidityRight,EventSource.5,Gaze X,Gaze Y,Interpolated Gaze X,Interpolated Gaze Y,Interpolated Distance,Gaze Velocity,Gaze Acceleration,Fixation Index,Fixation Index by Stimulus,Fixation X,Fixation Y,Fixation Start,Fixation End,Fixation Duration,Fixation Dispersion,Saccade Index,Saccade Index by Stimulus,Saccade Start,Saccade End,Saccade Duration,Saccade Amplitude,Saccade Peak Velocity,Saccade Peak Acceleration,Saccade Peak Deceleration,Saccade Direction
1,34.4088,1.0,StartSlide,TestImage,90000.0,StimuliDisplay,Frage 1,,,,,,,,,,,,,,,,,,,,,,,,,,,,,,,,,,,,,,,,,,,,,,,,,,,,,,,,,,,,,,,,,,,,,,,,,,,,,,,,,,,,,,,,,,,,,,,,,,,,,,,,,,,,,,
2,36.8241,,,,,,Frage 1,,,,,,,,,,,,,,,,,,,,,,,,,,,,,,,,,,,,,,,,,,,,,,,,,,,,,,,,,,,,,,,,,,,,,1.0,-1.0,-1.0,-1.0,-1.0,-1.0,-1.0,83.31399999999849,-1.0,-1.0,-1.0,-1.0,-1.0,-1.0,4.0,4.0,1.0,,,,,,,,,,,,,,,,,,,,,,,,,
3,45.1575,,,,,,Frage 1,,,,,,,,,,,,,,,,,,,,,,,,,,,,,,,,,,,,,,,,,,,,,,,,,,,,,,,,,,,,,,,,,,,,,1.0,-1.0,-1.0,-1.0,-1.0,-1.0,-1.0,91.64500000000407,-1.0,-1.0,-1.0,-1.0,-1.0,-1.0,4.0,4.0,1.0,,,,,,,,,,,,,,,,,,,,,,,,,
4,53.4863,,,,,,Frage 1,,,,,,,,,,,,,,,,,,,,,,,,,,,,,,,,,,,,,,,,,,,,,,,,,,,,,,,,,,,,,,,,,,,,,1.0,-1.0,-1.0,-1.0,-1.0,-1.0,-1.0,99.97600000000966,-1.0,-1.0,-1.0,-1.0,-1.0,-1.0,4.0,4.0,1.0,,,,,,,,,,,,,,,,,,,,,,,,,
5,60.2454,,,,,,Frage 1,1.0,-1.0,0.1832442283630371,0.3944893479347229,0.0438601523637771,0.412927508354187,0.0427673645317554,0.7280260324478149,0.2940395474433898,1.20310640335083,0.0,0.1792452931404113,1.9390493631362915,98.5439453125,2.5528924465179443,1.9390493631362915,0.1301205158233642,9.822264671325684,0.0538243129849433,3.811733484268189,0.0846491456031799,0.0068232156336307,38.15323638916016,1.8794224262237549,0.0052922801114618,0.1325371861457824,0.0525594875216484,0.10937961935997,0.1025835201144218,22.8206844329834,0.0845379084348678,8.646987915039062,0.1792452931404113,6.464372158050537,16.135055541992188,0.0,12.0,-19.97835922241211,-40.210411071777344,10.020544052124023,77.71092987060547,1.0,-1.0,640.0,480.0,0.0,286.8877258300781,221.9947509765625,1.0,435.86956787109375,370.9873046875,2.0,329.6392822265625,261.4336242675781,3.0,406.28909301757807,248.63536071777344,4.0,392.0103149414063,304.88641357421875,5.0,348.20758056640625,370.9873046875,,,,,,,,,,,,,,,,,,,,,,,,,,,,,,,,,,,,,,,,,,,,,,,
6,61.8159,,,,,,Frage 1,,,,,,,,,,,,,,,,,,,,,,,,,,,,,,,,,,,,,,,,,,,,,,,,,,,,,,,,,,,,,,,,,,,,,1.0,-1.0,-1.0,-1.0,-1.0,-1.0,-1.0,108.30500000000757,-1.0,-1.0,-1.0,-1.0,-1.0,-1.0,4.0,4.0,1.0,,,,,,,,,,,,,,,,,,,,,,,,,
7,70.1501,,,,,,Frage 1,,,,,,,,,,,,,,,,,,,,,,,,,,,,,,,,,,,,,,,,,,,,,,,,,,,,,,,,,,,,,,,,,,,,,1.0,-1.0,-1.0,-1.0,-1.0,-1.0,-1.0,116.63900000001011,-1.0,-1.0,-1.0,-1.0,-1.0,-1.0,4.0,4.0,1.0,,,,,,,,,,,,,,,,,,,,,,,,,
8,78.4873,,,,,,Frage 1,,,,,,,,,,,,,,,,,,,,,,,,,,,,,,,,,,,,,,,,,,,,,,,,,,,,,,,,,,,,,,,,,,,,,1.0,-1.0,-1.0,-1.0,-1.0,-1.0,-1.0,124.97699999999897,-1.0,-1.0,-1.0,-1.0,-1.0,-1.0,4.0,4.0,1.0,,,,,,,,,,,,,,,,,,,,,,,,,
9,86.7924,,,,,,Frage 1,,,,,,,,,,,,,,,,,,,,,,,,,,,,,,,,,,,,,,,,,,,,,,,,,,,,,,,,,,,,,,,,,,,,,1.0,-1.0,-1.0,-1.0,-1.0,-1.0,-1.0,133.27999999999884,-1.0,-1.0,-1.0,-1.0,-1.0,-1.0,4.0,4.0,1.0,,,,,,,,,,,,,,,,,,,,,,,,,
10,92.1342,,,,,,Frage 1,1.0,-1.0,0.1549237370491027,0.3422876298427581,0.0406488440930843,0.4340959787368774,0.0423949249088764,0.775791585445404,0.3332290649414062,1.3741759061813354,0.0,0.2421518415212631,1.7645413875579834,98.44842529296876,0.789269745349884,1.7645413875579834,0.15424744784832,9.543877601623535,0.0605728365480899,5.02228307723999,0.0174162797629833,0.0117329228669404,40.00212478637695,3.01371431350708,0.0060016107745468,0.1408950239419937,0.0492369569838047,0.1497363001108169,0.1501399427652359,19.98377799987793,0.0838401168584823,9.018860816955566,0.2421518415212631,5.214669227600098,14.896025657653809,0.0,12.0,-16.592370986938477,-46.16946792602539,11.121515274047852,67.48423767089844,1.0,-1.0,640.0,480.0,0.0,287.4460144042969,219.04595947265625,1.0,438.35302734375,372.5001220703125,2.0,336.63916015625,256.0850830078125,3.0,403.47802734375,246.7744598388672,4.0,395.66900634765625,302.6381225585937,5.0,348.58135986328125,372.5001220703125,,,,,,,,,,,,,,,,,,,,,,,,,,,,,,,,,,,,,,,,,,,,,,,
11,95.1213,,,,,,Frage 1,,,,,,,,,,,,,,,,,,,,,,,,,,,,,,,,,,,,,,,,,,,,,,,,,,,,,,,,,,,,,,,,,,,,,1.0,-1.0,-1.0,-1.0,-1.0,-1.0,-1.0,141.61100000000442,-1.0,-1.0,-1.0,-1.0,-1.0,-1.0,4.0,4.0,1.0,,,,,,,,,,,,,,,,,,,,,,,,,
12,95.1303,1.0,StartMedia,TestImage,90000.0,StimuliDisplay,Frage 1,,,,,,,,,,,,,,,,,,,,,,,,,,,,,,,,,,,,,,,,,,,,,,,,,,,,,,,,,,,,,,,,,,,,,,,,,,,,,,,,,,,,,,,,,,,,,,,,,,,,,,,,,,,,,,
13,103.4784,,,,,,Frage 1,,,,,,,,,,,,,,,,,,,,,,,,,,,,,,,,,,,,,,,,,,,,,,,,,,,,,,,,,,,,,,,,,,,,,1.0,-1.0,-1.0,-1.0,-1.0,-1.0,-1.0,149.96800000000803,-1.0,-1.0,-1.0,-1.0,-1.0,-1.0,4.0,4.0,1.0,,,,,,,,,,,,,,,,,,,,,,,,,
14,111.8389,,,,,,Frage 1,,,,,,,,,,,,,,,,,,,,,,,,,,,,,,,,,,,,,,,,,,,,,,,,,,,,,,,,,,,,,,,,,,,,,1.0,-1.0,-1.0,-1.0,-1.0,-1.0,-1.0,158.3280000000086,-1.0,-1.0,-1.0,-1.0,-1.0,-1.0,4.0,4.0,1.0,,,,,,,,,,,,,,,,,,,,,,,,,
15,120.1411,,,,,,Frage 1,,,,,,,,,,,,,,,,,,,,,,,,,,,,,,,,,,,,,,,,,,,,,,,,,,,,,,,,,,,,,,,,,,,,,1.0,-1.0,-1.0,-1.0,-1.0,-1.0,-1.0,166.6310000000085,-1.0,-1.0,-1.0,-1.0,-1.0,-1.0,4.0,4.0,1.0,,,,,,,,,,,,,,,,,,,,,,,,,
16,128.5256,,,,,,Frage 1,,,,,,,,,,,,,,,,,,,,,,,,,,,,,,,,,,,,,,,,,,,,,,,,,,,,,,,,,,,,,,,,,,,,,1.0,-1.0,-1.0,-1.0,-1.0,-1.0,-1.0,175.01400000001013,-1.0,-1.0,-1.0,-1.0,-1.0,-1.0,4.0,4.0,1.0,,,,,,,,,,,,,,,,,,,,,,,,,
17,133.7634,,,,,,Frage 1,1.0,0.0,0.1252329498529434,0.2871434092521667,0.0370209477841854,0.4120139777660369,0.0430666916072368,0.732228934764862,0.3515319526195526,1.3149105310440063,0.0,0.3281613588333129,2.0087661743164062,98.53553771972656,0.4105084240436554,2.0087661743164062,0.2122364193201065,9.651943206787108,0.0570979863405227,4.8581719398498535,0.0269809532910585,0.0219340808689594,39.310443878173835,4.924896717071533,0.0061361966654658,0.135793998837471,0.0562067218124866,0.112594686448574,0.2352447211742401,16.367639541625977,0.104781225323677,11.135908126831056,0.3281613588333129,3.572997093200684,10.723668098449709,0.0,12.0,-17.8541316986084,-49.457077026367195,10.499094009399414,66.7751693725586,1.0,0.0,640.0,480.0,0.0,289.2064208984375,217.26535034179688,1.0,442.09228515625,372.53469848632807,2.0,339.6151733398437,253.57632446289065,3.0,405.7790832519531,244.5618896484375,4.0,401.9080810546875,304.1601867675781,5.0,351.55377197265625,372.53469848632807,,,,,,,,,,,,,,,,,,,,,,,,,,,,,,,,,,,,,,,,,,,,,,,
18,136.8085,,,,,,Frage 1,,,,,,,,,,,,,,,,,,,,,,,,,,,,,,,,,,,,,,,,,,,,,,,,,,,,,,,,,,,,,,,,,,,,,1.0,-1.0,-1.0,-1.0,-1.0,-1.0,-1.0,183.29899999999907,-1.0,-1.0,-1.0,-1.0,-1.0,-1.0,4.0,4.0,1.0,,,,,,,,,,,,,,,,,,,,,,,,,
19,145.1446,,,,,,Frage 1,,,,,,,,,,,,,,,,,,,,,,,,,,,,,,,,,,,,,,,,,,,,,,,,,,,,,,,,,,,,,,,,,,,,,1.0,-1.0,-1.0,-1.0,-1.0,-1.0,-1.0,191.63400000000547,-1.0,-1.0,-1.0,-1.0,-1.0,-1.0,4.0,4.0,1.0,,,,,,,,,,,,,,,,,,,,,,,,,
20,153.4494,,,,,,Frage 1,,,,,,,,,,,,,,,,,,,,,,,,,,,,,,,,,,,,,,,,,,,,,,,,,,,,,,,,,,,,,,,,,,,,,1.0,-1.0,-1.0,-1.0,-1.0,-1.0,-1.0,199.9389999999985,-1.0,-1.0,-1.0,-1.0,-1.0,-1.0,4.0,4.0,1.0,,,,,,,,,,,,,,,,,,,,,,,,,
21,161.8,,,,,,Frage 1,,,,,,,,,,,,,,,,,,,,,,,,,,,,,,,,,,,,,,,,,,,,,,,,,,,,,,,,,,,,,,,,,,,,,1.0,-1.0,-1.0,-1.0,-1.0,-1.0,-1.0,208.29000000000812,-1.0,-1.0,-1.0,-1.0,-1.0,-1.0,4.0,4.0,1.0,,,,,,,,,,,,,,,,,,,,,,,,,
22,170.1879,,,,,,Frage 1,,,,,,,,,,,,,,,,,,,,,,,,,,,,,,,,,,,,,,,,,,,,,,,,,,,,,,,,,,,,,,,,,,,,,1.0,-1.0,-1.0,-1.0,-1.0,-1.0,-1.0,216.67700000001057,-1.0,-1.0,-1.0,-1.0,-1.0,-1.0,4.0,4.0,1.0,,,,,,,,,,,,,,,,,,,,,,,,,
23,178.4824,,,,,,Frage 1,,,,,,,,,,,,,,,,,,,,,,,,,,,,,,,,,,,,,,,,,,,,,,,,,,,,,,,,,,,,,,,,,,,,,1.0,-1.0,-1.0,-1.0,-1.0,-1.0,-1.0,224.97200000000885,-1.0,-1.0,-1.0,-1.0,-1.0,-1.0,4.0,4.0,1.0,,,,,,,,,,,,,,,,,,,,,,,,,
24,186.8184,,,,,,Frage 1,,,,,,,,,,,,,,,,,,,,,,,,,,,,,,,,,,,,,,,,,,,,,,,,,,,,,,,,,,,,,,,,,,,,,1.0,-1.0,-1.0,-1.0,-1.0,-1.0,-1.0,233.3080000000045,-1.0,-1.0,-1.0,-1.0,-1.0,-1.0,4.0,4.0,1.0,,,,,,,,,,,,,,,,,,,,,,,,,
25,195.1132,,,,,,Frage 1,,,,,,,,,,,,,,,,,,,,,,,,,,,,,,,,,,,,,,,,,,,,,,,,,,,,,,,,,,,,,,,,,,,,,1.0,-1.0,-1.0,-1.0,-1.0,-1.0,-1.0,241.60199999999892,-1.0,-1.0,-1.0,-1.0,-1.0,-1.0,4.0,4.0,1.0,,,,,,,,,,,,,,,,,,,,,,,,,
26,203.4708,,,,,,Frage 1,,,,,,,,,,,,,,,,,,,,,,,,,,,,,,,,,,,,,,,,,,,,,,,,,,,,,,,,,,,,,,,,,,,,,1.0,-1.0,-1.0,-1.0,-1.0,-1.0,-1.0,249.96100000001024,-1.0,-1.0,-1.0,-1.0,-1.0,-1.0,4.0,4.0,1.0,,,,,,,,,,,,,,,,,,,,,,,,,
27,211.8402,,,,,,Frage 1,,,,,,,,,,,,,,,,,,,,,,,,,,,,,,,,,,,,,,,,,,,,,,,,,,,,,,,,,,,,,,,,,,,,,1.0,-1.0,-1.0,-1.0,-1.0,-1.0,-1.0,258.33000000000175,-1.0,-1.0,-1.0,-1.0,-1.0,-1.0,4.0,4.0,1.0,,,,,,,,,,,,,,,,,,,,,,,,,
28,220.1399,,,,,,Frage 1,,,,,,,,,,,,,,,,,,,,,,,,,,,,,,,,,,,,,,,,,,,,,,,,,,,,,,,,,,,,,,,,,,,,,1.0,-1.0,-1.0,-1.0,-1.0,-1.0,-1.0,266.63000000000466,-1.0,-1.0,-1.0,-1.0,-1.0,-1.0,4.0,4.0,1.0,,,,,,,,,,,,,,,,,,,,,,,,,
29,228.4914,,,,,,Frage 1,,,,,,,,,,,,,,,,,,,,,,,,,,,,,,,,,,,,,,,,,,,,,,,,,,,,,,,,,,,,,,,,,,,,,1.0,-1.0,-1.0,-1.0,-1.0,-1.0,-1.0,274.9800000000105,-1.0,-1.0,-1.0,-1.0,-1.0,-1.0,4.0,4.0,1.0,,,,,,,,,,,,,,,,,,,,,,,,,
30,236.773,,,,,,Frage 1,,,,,,,,,,,,,,,,,,,,,,,,,,,,,,,,,,,,,,,,,,,,,,,,,,,,,,,,,,,,,,,,,,,,,1.0,-1.0,-1.0,-1.0,-1.0,-1.0,-1.0,283.2630000000063,-1.0,-1.0,-1.0,-1.0,-1.0,-1.0,4.0,4.0,1.0,,,,,,,,,,,,,,,,,,,,,,,,,
31,245.1058,,,,,,Frage 1,,,,,,,,,,,,,,,,,,,,,,,,,,,,,,,,,,,,,,,,,,,,,,,,,,,,,,,,,,,,,,,,,,,,,1.0,-1.0,-1.0,-1.0,-1.0,-1.0,-1.0,291.596000000005,-1.0,-1.0,-1.0,-1.0,-1.0,-1.0,4.0,4.0,1.0,,,,,,,,,,,,,,,,,,,,,,,,,
32,253.541,,,,,,Frage 1,,,,,,,,,,,,,,,,,,,,,,,,,,,,,,,,,,,,,,,,,,,,,,,,,,,,,,,,,,,,,,,,,,,,,1.0,-1.0,-1.0,49.0,543.0,-1.0,-1.0,300.02999999999884,-1.0,686.1798706054688,-1.0,-1.0,0.536666452884674,0.5559048652648925,4.0,0.0,1.0,49.0,543.0,49.0,543.0,686.179870605469,,,,,,,,,,,,,,,,,,,,
33,261.7896,,,,,,Frage 1,,,,,,,,,,,,,,,,,,,,,,,,,,,,,,,,,,,,,,,,,,,,,,,,,,,,,,,,,,,,,,,,,,,,,1.0,89.0,455.0,-1.0,-1.0,4.574996948242188,-1.0,308.27999999999884,687.7696533203125,-1.0,0.6454296112060546,0.5667151808738708,-1.0,-1.0,0.0,4.0,1.0,89.0,455.0,89.0,455.0,687.769653320313,314.043964853794,,,,,,,,,,1.0,1.0,257.6653,315.9738,58.3085,14.8746760728024,581.213617866859,32049.7178552398,-28922.9789839447,11.4850293875411
34,270.1257,,,,,,Frage 1,,,,,,,,,,,,,,,,,,,,,,,,,,,,,,,,,,,,,,,,,,,,,,,,,,,,,,,,,,,,,,,,,,,,,1.0,-1.0,-1.0,-1.0,-1.0,-1.0,-1.0,316.61500000000524,-1.0,-1.0,-1.0,-1.0,-1.0,-1.0,4.0,4.0,1.0,,,276.0,537.0,688.127044677734,581.213617866859,32049.7178552398,,,,,,,,,1.0,1.0,257.6653,315.9738,58.3085,14.8746760728024,581.213617866859,32049.7178552398,-28922.9789839447,11.4850293875411
35,278.5056,,,,,,Frage 1,,,,,,,,,,,,,,,,,,,,,,,,,,,,,,,,,,,,,,,,,,,,,,,,,,,,,,,,,,,,,,,,,,,,,1.0,-1.0,-1.0,463.0,619.0,-1.0,-1.0,324.9950000000099,-1.0,688.4844360351562,-1.0,-1.0,0.5247054696083068,0.55545574426651,4.0,0.0,1.0,463.0,619.0,463.0,619.0,688.484436035156,377.286729158785,-24335.2413164922,,,,,,,,,1.0,1.0,257.6653,315.9738,58.3085,14.8746760728024,581.213617866859,32049.7178552398,-28922.9789839447,11.4850293875411
36,286.7855,,,,,,Frage 1,,,,,,,,,,,,,,,,,,,,,,,,,,,,,,,,,,,,,,,,,,,,,,,,,,,,,,,,,,,,,,,,,,,,,1.0,-1.0,-1.0,534.0,544.0,-1.0,4.9931640625,333.275999999998,-1.0,688.6004638671875,-1.0,-1.0,0.5201478004455566,0.5558791756629943,4.0,0.0,1.0,534.0,544.0,534.0,544.0,688.600463867188,137.807355469621,-28922.9789839447,,,,,,,,,1.0,1.0,257.6653,315.9738,58.3085,14.8746760728024,581.213617866859,32049.7178552398,-28922.9789839447,11.4850293875411
37,295.1031,,,,,,Frage 1,,,,,,,,,,,,,,,,,,,,,,,,,,,,,,,,,,,,,,,,,,,,,,,,,,,,,,,,,,,,,,,,,,,,,1.0,-1.0,-1.0,-1.0,-1.0,-1.0,-1.0,341.59000000001106,-1.0,-1.0,-1.0,-1.0,-1.0,-1.0,4.0,4.0,1.0,,,514.75,544.0,688.874252319336,57.4559151100416,-9660.41170044004,,,,,,,,,1.0,1.0,257.6653,315.9738,58.3085,14.8746760728024,581.213617866859,32049.7178552398,-28922.9789839447,11.4850293875411
38,303.4604,,,,,,Frage 1,,,,,,,,,,,,,,,,,,,,,,,,,,,,,,,,,,,,,,,,,,,,,,,,,,,,,,,,,,,,,,,,,,,,,1.0,400.0,518.0,591.0,570.0,-1.0,-1.0,349.9499999999971,689.7112426757812,688.5848388671875,0.6299212574958801,0.5628383159637451,0.5106592774391174,0.5562610626220703,0.0,0.0,1.0,495.5,544.0,495.5,544.0,689.148040771484,214.75051305575,18821.2219192452,,,,,,,,,1.0,1.0,257.6653,315.9738,58.3085,14.8746760728024,581.213617866859,32049.7178552398,-28922.9789839447,11.4850293875411
39,311.8212,,,,,,Frage 1,,,,,,,,,,,,,,,,,,,,,,,,,,,,,,,,,,,,,,,,,,,,,,,,,,,,,,,,,,,,,,,,,,,,,1.0,655.0,570.0,-1.0,-1.0,4.7613525390625,-1.0,358.3110000000015,689.8750610351562,-1.0,0.6270267367362976,0.5619144439697265,-1.0,-1.0,0.0,4.0,1.0,655.0,570.0,655.0,570.0,689.875061035156,241.614397588937,3213.07584599408,,,,,,,,,1.0,1.0,257.6653,315.9738,58.3085,14.8746760728024,581.213617866859,32049.7178552398,-28922.9789839447,11.4850293875411
40,320.1264,,,,,,Frage 1,,,,,,,,,,,,,,,,,,,,,,,,,,,,,,,,,,,,,,,,,,,,,,,,,,,,,,,,,,,,,,,,,,,,,1.0,-1.0,-1.0,-1.0,-1.0,-1.0,-1.0,366.616000000009,-1.0,-1.0,-1.0,-1.0,-1.0,-1.0,4.0,4.0,1.0,,,652.0,579.0,689.581253051758,29.2140316275986,-25574.3830324782,,,,,,,,,,,,,,,,,,
41,328.428,,,,,,Frage 1,,,,,,,,,,,,,,,,,,,,,,,,,,,,,,,,,,,,,,,,,,,,,,,,,,,,,,,,,,,,,,,,,,,,,1.0,690.0,605.0,608.0,571.0,-1.0,-1.0,374.9180000000051,690.10302734375,688.4718627929688,0.6201286315917968,0.5608306527137756,0.4959513843059539,0.5570544600486755,0.0,0.0,1.0,649.0,588.0,649.0,588.0,689.287445068359,59.733598819875,3676.34759471383,,,,,,,,,2.0,2.0,324.2772,474.2766,149.9994,2.07085168549857,281.23991031659,10905.2075115637,-19726.1779548616,30.1013045655997
42,336.7622,,,,,,Frage 1,,,,,,,,,,,,,,,,,,,,,,,,,,,,,,,,,,,,,,,,,,,,,,,,,,,,,,,,,,,,,,,,,,,,,1.0,686.0,598.0,-1.0,-1.0,4.6813507080078125,-1.0,383.2520000000077,690.2542724609375,-1.0,0.6166314482688903,0.5605803728103637,-1.0,-1.0,0.0,4.0,1.0,686.0,598.0,686.0,598.0,690.254272460938,129.88673169356,8417.50052478763,,,,,,,,,2.0,2.0,324.2772,474.2766,149.9994,2.07085168549857,281.23991031659,10905.2075115637,-19726.1779548616,30.1013045655997
43,339.4549,,,,,,Frage 1,1.0,1.0,0.1021565496921539,0.250413954257965,0.0346695594489574,0.4258285760879516,0.0446226447820663,0.7677069306373596,0.4097221791744232,1.4447962045669556,0.0,0.4192571341991424,2.1716580390930176,98.46458435058592,0.3579678237438201,2.1716580390930176,0.3054945468902587,10.099024772644045,0.0735968500375747,5.196994781494141,0.0380867570638656,0.0524161010980606,40.451171875,7.350741386413574,0.0087480638176202,0.2459571957588195,0.0685269311070442,0.1234954819083213,0.3336488306522369,12.144268989562988,0.1360712200403213,11.814650535583496,0.4192571341991424,2.3292953968048096,9.141119956970215,0.0,12.0,-13.018187522888184,-50.14448165893555,10.292098999023438,64.65823364257812,1.0,1.0,640.0,480.0,0.0,289.2343444824219,211.87496948242188,1.0,447.8597412109375,375.6047973632813,2.0,343.3202209472656,250.75250244140625,3.0,407.26654052734375,241.1840667724609,4.0,404.4212036132813,297.20928955078125,5.0,355.0543212890625,375.6047973632813,,,,,,,,,,,,,,,,,,,,,,,,,,,,,,,,,,,,,,,,,,,,,,,
44,341.4559,,,,,,Frage 1,1.0,2.0,,,,,,,,,,,,,,,,,,,,,,,,,,,,,,,,,,,,,,,,1.0,2.0,640.0,480.0,,,,,,,,,,,,,,,,,,,,,,,,,,,,,,,,,,,,,,,,,,,,,,,,,,,,,,,,,,,,,,,,,
45,345.124,,,,,,Frage 1,,,,,,,,,,,,,,,,,,,,,,,,,,,,,,,,,,,,,,,,,,,,,,,,,,,,,,,,,,,,,,,,,,,,,1.0,-1.0,-1.0,730.0,614.0,-1.0,-1.0,391.6140000000014,-1.0,688.3209838867188,-1.0,-1.0,0.4858273267745971,0.5580614805221557,4.0,0.0,1.0,730.0,614.0,730.0,614.0,688.320983886719,221.073895863754,10905.2075115637,,,,,,,,,2.0,2.0,324.2772,474.2766,149.9994,2.07085168549857,281.23991031659,10905.2075115637,-19726.1779548616,30.1013045655997
46,353.4266,,,,,,Frage 1,,,,,,,,,,,,,,,,,,,,,,,,,,,,,,,,,,,,,,,,,,,,,,,,,,,,,,,,,,,,,,,,,,,,,1.0,599.0,483.0,-1.0,-1.0,-1.0,-1.0,399.91599999999744,690.4561157226562,-1.0,0.6093958020210266,0.5598492622375488,-1.0,-1.0,0.0,4.0,1.0,599.0,483.0,599.0,483.0,690.456115722656,271.6041221387,6086.07258870066,,,,,,,,,2.0,2.0,324.2772,474.2766,149.9994,2.07085168549857,281.23991031659,10905.2075115637,-19726.1779548616,30.1013045655997
47,361.7862,,,,,,Frage 1,,,,,,,,,,,,,,,,,,,,,,,,,,,,,,,,,,,,,,,,,,,,,,,,,,,,,,,,,,,,,,,,,,,,,1.0,605.0,488.0,-1.0,-1.0,4.669937133789063,-1.0,408.275999999998,690.58984375,-1.0,0.6059877872467041,0.5596811175346375,-1.0,-1.0,0.0,4.0,1.0,605.0,488.0,605.0,488.0,690.58984375,281.23991031659,1152.66139263725,,,,,,,,,2.0,2.0,324.2772,474.2766,149.9994,2.07085168549857,281.23991031659,10905.2075115637,-19726.1779548616,30.1013045655997
48,370.0922,,,,,,Frage 1,,,,,,,,,,,,,,,,,,,,,,,,,,,,,,,,,,,,,,,,,,,,,,,,,,,,,,,,,,,,,,,,,,,,,1.0,-1.0,-1.0,717.0,624.0,-1.0,-1.0,416.58200000000943,-1.0,688.0681762695312,-1.0,-1.0,0.4718298017978668,0.559693157672882,4.0,0.0,1.0,717.0,624.0,717.0,624.0,688.068176269531,244.991048009975,-4364.17798057015,,,,,,,,,2.0,2.0,324.2772,474.2766,149.9994,2.07085168549857,281.23991031659,10905.2075115637,-19726.1779548616,30.1013045655997
49,378.4553,,,,,,Frage 1,,,,,,,,,,,,,,,,,,,,,,,,,,,,,,,,,,,,,,,,,,,,,,,,,,,,,,,,,,,,,,,,,,,,,1.0,712.0,604.0,738.0,583.0,-1.0,-1.0,424.945000000007,690.7478637695312,687.9880981445312,0.5991191267967224,0.5593488216400146,0.4676635563373565,0.5605222582817077,0.0,0.0,1.0,725.0,593.5,725.0,593.5,689.367980957031,80.0190491556713,-19726.1779548616,,,,,,,,,2.0,2.0,324.2772,474.2766,149.9994,2.07085168549857,281.23991031659,10905.2075115637,-19726.1779548616,30.1013045655997
50,386.7562,,,,,,Frage 1,,,,,,,,,,,,,,,,,,,,,,,,,,,,,,,,,,,,,,,,,,,,,,,,,,,,,,,,,,,,,,,,,,,,,1.0,730.0,598.0,732.0,550.0,4.644744873046875,4.7831878662109375,433.2459999999992,690.867919921875,687.926513671875,0.5959608554840087,0.5589550733566284,0.4635711908340454,0.5610013008117675,0.0,0.0,1.0,731.0,574.0,731.0,574.0,689.397216796875,67.5110908383716,-1506.81953972458,,,,,,,,,2.0,2.0,324.2772,474.2766,149.9994,2.07085168549857,281.23991031659,10905.2075115637,-19726.1779548616,30.1013045655997
51,395.0875,,,,,,Frage 1,,,,,,,,,,,,,,,,,,,,,,,,,,,,,,,,,,,,,,,,,,,,,,,,,,,,,,,,,,,,,,,,,,,,,1.0,-1.0,-1.0,715.0,551.0,-1.0,-1.0,441.5770000000048,-1.0,687.7799682617188,-1.0,-1.0,0.4596739411354064,0.5617541074752807,4.0,0.0,1.0,715.0,551.0,715.0,551.0,687.779968261719,31.3947452558726,-4335.01921458824,,,,,,,,,2.0,2.0,324.2772,474.2766,149.9994,2.07085168549857,281.23991031659,10905.2075115637,-19726.1779548616,30.1013045655997
52,403.511,,,,,,Frage 1,,,,,,,,,,,,,,,,,,,,,,,,,,,,,,,,,,,,,,,,,,,,,,,,,,,,,,,,,,,,,,,,,,,,,1.0,712.0,576.0,709.0,574.0,-1.0,-1.0,449.997000000003,690.986328125,687.7047119140625,0.5896976590156555,0.5587552785873413,0.4561842679977417,0.5622878074645996,0.0,0.0,1.0,710.5,575.0,710.5,575.0,689.345520019531,40.7403506990176,1109.46820717575,,,,,,,,,2.0,2.0,324.2772,474.2766,149.9994,2.07085168549857,281.23991031659,10905.2075115637,-19726.1779548616,30.1013045655997
53,411.7539,,,,,,Frage 1,,,,,,,,,,,,,,,,,,,,,,,,,,,,,,,,,,,,,,,,,,,,,,,,,,,,,,,,,,,,,,,,,,,,,1.0,707.0,589.0,740.0,563.0,4.547332763671875,4.675018310546875,458.24400000000605,691.0733032226562,687.6420288085938,0.5870652198791503,0.5589359998703002,0.4529700577259063,0.5630579590797424,0.0,0.0,1.0,723.5,576.0,723.5,576.0,689.357666015625,73.5593335233202,3981.48501429142,,,,,,,,,2.0,2.0,324.2772,474.2766,149.9994,2.07085168549857,281.23991031659,10905.2075115637,-19726.1779548616,30.1013045655997
54,420.1313,,,,,,Frage 1,,,,,,,,,,,,,,,,,,,,,,,,,,,,,,,,,,,,,,,,,,,,,,,,,,,,,,,,,,,,,,,,,,,,,1.0,-1.0,-1.0,695.0,530.0,-1.0,-1.0,466.6180000000022,-1.0,687.5094604492188,-1.0,-1.0,0.4501012563705444,0.5637060403823853,4.0,0.0,1.0,695.0,530.0,695.0,530.0,687.509460449219,83.4312642415934,1178.40030537795,,,,,,,,,2.0,2.0,324.2772,474.2766,149.9994,2.07085168549857,281.23991031659,10905.2075115637,-19726.1779548616,30.1013045655997
55,428.4481,,,,,,Frage 1,,,,,,,,,,,,,,,,,,,,,,,,,,,,,,,,,,,,,,,,,,,,,,,,,,,,,,,,,,,,,,,,,,,,,1.0,-1.0,-1.0,695.0,530.0,-1.0,-1.0,474.9380000000092,-1.0,687.4450073242188,-1.0,-1.0,0.4476694464683532,0.5645047426223754,4.0,0.0,1.0,695.0,530.0,695.0,530.0,687.445007324219,46.9107406093406,-4391.17492692537,,,,,,,,,2.0,2.0,324.2772,474.2766,149.9994,2.07085168549857,281.23991031659,10905.2075115637,-19726.1779548616,30.1013045655997
56,436.7793,,,,,,Frage 1,,,,,,,,,,,,,,,,,,,,,,,,,,,,,,,,,,,,,,,,,,,,,,,,,,,,,,,,,,,,,,,,,,,,,1.0,710.0,591.0,694.0,528.0,4.453094482421875,4.5674896240234375,483.2680000000109,691.1961669921875,687.4000854492188,0.5804450511932373,0.5595299005508422,0.4454622268676757,0.5652575492858886,0.0,0.0,1.0,702.0,559.5,702.0,559.5,689.298126220703,116.957419342112,8407.75383291384,,,,,,,,,2.0,2.0,324.2772,474.2766,149.9994,2.07085168549857,281.23991031659,10905.2075115637,-19726.1779548616,30.1013045655997
57,444.4749,,,,,,Frage 1,1.0,3.0,,,,,,,,,,,,,,,,,,,,,,,,,,,,,,,,,,,,,,,,1.0,3.0,640.0,480.0,,,,,,,,,,,,,,,,,,,,,,,,,,,,,,,,,,,,,,,,,,,,,,,,,,,,,,,,,,,,,,,,,
58,445.1725,,,,,,Frage 1,,,,,,,,,,,,,,,,,,,,,,,,,,,,,,,,,,,,,,,,,,,,,,,,,,,,,,,,,,,,,,,,,,,,,1.0,-1.0,-1.0,708.0,605.0,-1.0,-1.0,491.6610000000073,-1.0,687.2849731445312,-1.0,-1.0,0.4435405135154724,0.5659511089324951,4.0,0.0,1.0,708.0,605.0,708.0,605.0,687.284973144531,52.1553306553454,-7720.78452637449,,,,,,,,,2.0,2.0,324.2772,474.2766,149.9994,2.07085168549857,281.23991031659,10905.2075115637,-19726.1779548616,30.1013045655997
59,448.0002,,,,,,Frage 1,1.0,4.0,,,,,,,,,,,,,,,,,,,,,,,,,,,,,,,,,,,,,,,,1.0,4.0,640.0,480.0,,,,,,,,,,,,,,,,,,,,,,,,,,,,,,,,,,,,,,,,,,,,,,,,,,,,,,,,,,,,,,,,,
60,451.7674,,,,,,Frage 1,1.0,5.0,,,,,,,,,,,,,,,,,,,,,,,,,,,,,,,,,,,,,,,,1.0,5.0,640.0,480.0,,,,,,,,,,,,,,,,,,,,,,,,,,,,,,,,,,,,,,,,,,,,,,,,,,,,,,,,,,,,,,,,,
61,453.4159,,,,,,Frage 1,,,,,,,,,,,,,,,,,,,,,,,,,,,,,,,,,,,,,,,,,,,,,,,,,,,,,,,,,,,,,,,,,,,,,1.0,701.0,571.0,696.0,615.0,-1.0,-1.0,499.9060000000026,685.9202880859375,681.998779296875,0.5773026943206787,0.5601211190223693,0.4421642422676086,0.5666000843048095,0.0,0.0,1.0,698.5,593.0,698.5,593.0,683.959533691406,37.6112532883011,-1764.32993267879,,,,,,,,,2.0,2.0,324.2772,474.2766,149.9994,2.07085168549857,281.23991031659,10905.2075115637,-19726.1779548616,30.1013045655997
62,454.4536,,,,,,Frage 1,1.0,6.0,,,,,,,,,,,,,,,,,,,,,,,,,,,,,,,,,,,,,,,,1.0,6.0,640.0,480.0,,,,,,,,,,,,,,,,,,,,,,,,,,,,,,,,,,,,,,,,,,,,,,,,,,,,,,,,,,,,,,,,,
63,457.4496,,,,,,Frage 1,1.0,7.0,,,,,,,,,,,,,,,,,,,,,,,,,,,,,,,,,,,,,,,,1.0,7.0,640.0,480.0,,,,,,,,,,,,,,,,,,,,,,,,,,,,,,,,,,,,,,,,,,,,,,,,,,,,,,,,,,,,,,,,,
64,461.6402,,,,,,Frage 1,1.0,8.0,0.0793591439723968,0.2294516712427139,0.0237384587526321,0.4821404814720153,0.0412596464157104,0.8767233490943908,0.479142278432846,1.784445881843567,0.0,0.5478160381317138,2.3070671558380127,98.24655151367188,0.5230339169502258,2.3070671558380127,0.3695555925369262,8.497241020202637,0.0998345836997032,4.217265129089356,0.0169856045395135,0.1127356588840484,42.90747833251953,8.543230056762694,0.0160713046789169,0.4681049585342407,0.07536331564188,0.1431342512369155,0.5478160381317138,7.002840042114258,0.1859464645385742,9.584821701049805,0.5301039218902587,1.5659686326980593,4.635386943817139,0.0,12.0,-10.91740894317627,-48.24017333984375,7.418264389038087,69.51001739501953,1.0,8.0,640.0,480.0,0.0,290.54693603515625,206.86886596679688,1.0,452.9529418945313,375.98626708984375,2.0,342.2193603515625,249.1786346435547,3.0,410.54150390625,236.38302612304688,4.0,407.4884033203125,290.73956298828125,5.0,362.4889526367188,375.98626708984375,,,,,,,,,,,,,,,,,,,,,,,,,,,,,,,,,,,,,,,,,,,,,,,
65,461.7757,,,,,,Frage 1,,,,,,,,,,,,,,,,,,,,,,,,,,,,,,,,,,,,,,,,,,,,,,,,,,,,,,,,,,,,,,,,,,,,,1.0,712.0,582.0,715.0,581.0,4.318161010742188,4.392822265625,508.26499999999936,679.537841796875,675.688232421875,0.5763388872146606,0.560348391532898,0.441040962934494,0.5672393441200256,0.0,0.0,1.0,713.5,581.5,713.5,581.5,677.613037109375,62.7008314189013,3001.21750886389,,,,,,,,,2.0,2.0,324.2772,474.2766,149.9994,2.07085168549857,281.23991031659,10905.2075115637,-19726.1779548616,30.1013045655997
66,464.6665,,,,,,Frage 1,1.0,9.0,,,,,,,,,,,,,,,,,,,,,,,,,,,,,,,,,,,,,,,,1.0,9.0,640.0,480.0,,,,,,,,,,,,,,,,,,,,,,,,,,,,,,,,,,,,,,,,,,,,,,,,,,,,,,,,,,,,,,,,,
67,470.1095,,,,,,Frage 1,,,,,,,,,,,,,,,,,,,,,,,,,,,,,,,,,,,,,,,,,,,,,,,,,,,,,,,,,,,,,,,,,,,,,1.0,-1.0,-1.0,718.0,628.0,-1.0,-1.0,516.6000000000057,-1.0,668.774169921875,-1.0,-1.0,0.4403311610221862,0.5677067637443542,4.0,0.0,1.0,718.0,628.0,718.0,628.0,668.774169921875,34.2328043320874,-3415.97195598811,,,,,,,,,2.0,2.0,324.2772,474.2766,149.9994,2.07085168549857,281.23991031659,10905.2075115637,-19726.1779548616,30.1013045655997
68,478.4437,,,,,,Frage 1,,,,,,,,,,,,,,,,,,,,,,,,,,,,,,,,,,,,,,,,,,,,,,,,,,,,,,,,,,,,,,,,,,,,,1.0,704.0,582.0,720.0,624.0,-1.0,-1.0,524.9330000000044,668.3515625,664.715576171875,0.5747371912002563,0.5608243942260742,0.4395349323749542,0.5682680010795593,0.0,0.0,1.0,712.0,603.0,712.0,603.0,666.533569335938,21.7897061386979,-1493.01650948976,,,,,,,,,,,,,,,,,,
69,486.7459,,,,,,Frage 1,,,,,,,,,,,,,,,,,,,,,,,,,,,,,,,,,,,,,,,,,,,,,,,,,,,,,,,,,,,,,,,,,,,,,1.0,710.0,590.0,713.0,642.0,4.1378021240234375,4.2249298095703125,533.2350000000006,664.45947265625,660.9487915039064,0.5745289921760559,0.5610655546188354,0.4391825497150421,0.5688024163246154,0.0,0.0,1.0,711.5,616.0,711.5,616.0,662.704132080078,51.2762724804867,3551.65695138502,,,,,,,,,3.0,3.0,482.5948,549.2953,66.7005,9.87765136367508,319.956171690718,27660.8754117633,-16930.6523358325,227.622401460541
70,495.1279,,,,,,Frage 1,,,,,,,,,,,,,,,,,,,,,,,,,,,,,,,,,,,,,,,,,,,,,,,,,,,,,,,,,,,,,,,,,,,,,1.0,-1.0,-1.0,720.0,634.0,-1.0,-1.0,541.6180000000022,-1.0,657.41259765625,-1.0,-1.0,0.4393343925476074,0.5690352320671082,4.0,0.0,1.0,720.0,634.0,720.0,634.0,657.41259765625,52.1959758820387,109.723622232404,,,,,,,,,3.0,3.0,482.5948,549.2953,66.7005,9.87765136367508,319.956171690718,27660.8754117633,-16930.6523358325,227.622401460541
71,503.4087,,,,,,Frage 1,,,,,,,,,,,,,,,,,,,,,,,,,,,,,,,,,,,,,,,,,,,,,,,,,,,,,,,,,,,,,,,,,,,,,1.0,704.0,560.0,685.0,617.0,-1.0,-1.0,549.898000000001,657.5238037109375,654.25537109375,0.5739781260490417,0.561036467552185,0.4391878545284271,0.5691760778427124,0.0,0.0,1.0,694.5,588.5,694.5,588.5,655.889587402344,281.250152991768,27660.8754117633,,,,,,,,,3.0,3.0,482.5948,549.2953,66.7005,9.87765136367508,319.956171690718,27660.8754117633,-16930.6523358325,227.622401460541
72,511.7685,,,,,,Frage 1,,,,,,,,,,,,,,,,,,,,,,,,,,,,,,,,,,,,,,,,,,,,,,,,,,,,,,,,,,,,,,,,,,,,,1.0,566.0,448.0,628.0,572.0,4.1524810791015625,4.16900634765625,558.2580000000016,665.1356201171875,662.9580078125,0.5738681554794312,0.5611206293106079,0.4391832649707794,0.5694929361343383,0.0,0.0,1.0,597.0,510.0,597.0,510.0,664.046813964844,319.956171690718,4630.01730890087,,,,,,,,,3.0,3.0,482.5948,549.2953,66.7005,9.87765136367508,319.956171690718,27660.8754117633,-16930.6523358325,227.622401460541
73,520.0761,,,,,,Frage 1,,,,,,,,,,,,,,,,,,,,,,,,,,,,,,,,,,,,,,,,,,,,,,,,,,,,,,,,,,,,,,,,,,,,,1.0,-1.0,-1.0,517.0,489.0,-1.0,-1.0,566.5660000000062,-1.0,669.8057861328125,-1.0,-1.0,0.4392436146736145,0.5697357654571533,4.0,0.0,1.0,517.0,489.0,517.0,489.0,669.805786132813,179.303084345556,-16930.6523358325,,,,,,,,,3.0,3.0,482.5948,549.2953,66.7005,9.87765136367508,319.956171690718,27660.8754117633,-16930.6523358325,227.622401460541
74,528.4422,,,,,,Frage 1,,,,,,,,,,,,,,,,,,,,,,,,,,,,,,,,,,,,,,,,,,,,,,,,,,,,,,,,,,,,,,,,,,,,,1.0,521.0,423.0,-1.0,-1.0,-1.0,-1.0,574.9310000000114,674.1306762695312,-1.0,0.5735766887664794,0.5614615678787231,-1.0,-1.0,0.0,4.0,1.0,521.0,423.0,521.0,423.0,674.130676269531,289.687532221896,13194.253938674,,,,,,,,,3.0,3.0,482.5948,549.2953,66.7005,9.87765136367508,319.956171690718,27660.8754117633,-16930.6523358325,227.622401460541
75,536.7414,,,,,,Frage 1,,,,,,,,,,,,,,,,,,,,,,,,,,,,,,,,,,,,,,,,,,,,,,,,,,,,,,,,,,,,,,,,,,,,,1.0,415.0,315.0,451.0,323.0,4.1033477783203125,4.1575469970703125,583.2309999999998,676.7362060546875,673.9550170898438,0.5737932920455932,0.561802327632904,0.4394326210021972,0.57022225856781,0.0,0.0,1.0,433.0,319.0,433.0,319.0,675.345611572266,151.985562448608,-16592.1980158675,,,,,,,,,3.0,3.0,482.5948,549.2953,66.7005,9.87765136367508,319.956171690718,27660.8754117633,-16930.6523358325,227.622401460541
76,545.1848,,,,,,Frage 1,,,,,,,,,,,,,,,,,,,,,,,,,,,,,,,,,,,,,,,,,,,,,,,,,,,,,,,,,,,,,,,,,,,,,1.0,462.0,346.0,461.0,338.0,-1.0,-1.0,591.6730000000098,687.6529541015625,683.8325805664064,0.5738189816474915,0.5619251728057861,0.439366340637207,0.5702659487724304,0.0,0.0,1.0,461.5,342.0,461.5,342.0,685.742767333984,79.4592073199094,-8589.7097293387,,,,,,,,,3.0,3.0,482.5948,549.2953,66.7005,9.87765136367508,319.956171690718,27660.8754117633,-16930.6523358325,227.622401460541
77,553.4058,,,,,,Frage 1,,,,,,,,,,,,,,,,,,,,,,,,,,,,,,,,,,,,,,,,,,,,,,,,,,,,,,,,,,,,,,,,,,,,,1.0,-1.0,-1.0,465.0,362.0,-1.0,-1.0,599.8960000000079,-1.0,687.4728393554688,-1.0,-1.0,0.4398039281368255,0.5702800750732421,4.0,0.0,1.0,465.0,362.0,465.0,362.0,687.472839355469,12.6601801932566,-8125.41383367628,,,,,,,,,,,,,,,,,,
78,561.7375,,,,,,Frage 1,,,,,,,,,,,,,,,,,,,,,,,,,,,,,,,,,,,,,,,,,,,,,,,,,,,,,,,,,,,,,,,,,,,,,1.0,450.0,341.0,464.0,357.0,4.138351440429688,4.1682891845703125,608.226999999999,689.625244140625,683.71044921875,0.5747639536857605,0.5619288086891174,0.4405970573425293,0.5701016187667846,0.0,0.0,1.0,457.0,349.0,457.0,349.0,686.667846679688,13.1678747748535,60.9352931090819,,,,,,,,,,,,,,,,,,
79,568.2169,,,,,,Frage 1,1.0,10.0,,,,,,,,,,,,,,,,,,,,,,,,,,,,,,,,,,,,,,,,1.0,10.0,640.0,480.0,,,,,,,,,,,,,,,,,,,,,,,,,,,,,,,,,,,,,,,,,,,,,,,,,,,,,,,,,,,,,,,,,
80,569.2122,,,,,,Frage 1,1.0,11.0,,,,,,,,,,,,,,,,,,,,,,,,,,,,,,,,,,,,,,,,1.0,11.0,640.0,480.0,,,,,,,,,,,,,,,,,,,,,,,,,,,,,,,,,,,,,,,,,,,,,,,,,,,,,,,,,,,,,,,,,
81,570.092,,,,,,Frage 1,,,,,,,,,,,,,,,,,,,,,,,,,,,,,,,,,,,,,,,,,,,,,,,,,,,,,,,,,,,,,,,,,,,,,1.0,-1.0,-1.0,457.0,358.0,-1.0,-1.0,616.5800000000017,-1.0,682.796630859375,-1.0,-1.0,0.4412322342395782,0.5698654651641845,4.0,0.0,1.0,457.0,358.0,457.0,358.0,682.796630859375,37.9545226771121,2966.86191899676,,,,,,,,,,,,,,,,,,
82,572.2042,,,,,,Frage 1,1.0,12.0,,,,,,,,,,,,,,,,,,,,,,,,,,,,,,,,,,,,,,,,1.0,12.0,640.0,480.0,,,,,,,,,,,,,,,,,,,,,,,,,,,,,,,,,,,,,,,,,,,,,,,,,,,,,,,,,,,,,,,,,
83,575.1951,,,,,,Frage 1,1.0,13.0,0.0528830327093601,0.1552241593599319,0.0174423400312662,1.0165985822677612,0.0435895211994647,1.672260284423828,1.288177490234375,10.386270523071287,0.0,6.431999683380127,1.998174071311951,96.6554718017578,30.203481674194336,1.998174071311951,5.334288597106934,6.431999683380127,1.7247110605239868,0.0,0.0303202532231807,1.0607061386108398,58.37176132202149,11.097810745239258,0.1595982909202575,2.717395782470703,0.3252233266830444,0.0684146285057067,8.143495559692385,0.4307383298873901,0.383693903684616,4.238902568817139,2.070268154144287,0.208670973777771,8.78256893157959,0.0,12.0,-21.696590423583984,-26.188135147094727,-0.1187927052378654,95.87905120849608,1.0,13.0,640.0,480.0,0.0,276.53125,195.2675018310547,1.0,441.8917236328125,364.3748779296875,2.0,311.0001525878906,239.9228363037109,3.0,404.861083984375,220.35455322265625,4.0,380.8763427734375,287.1386413574219,5.0,361.7732849121094,364.3748779296875,,,,,,,,,,,,,,,,,,,,,,,,,,,,,,,,,,,,,,,,,,,,,,,
84,578.4042,,,,,,Frage 1,,,,,,,,,,,,,,,,,,,,,,,,,,,,,,,,,,,,,,,,,,,,,,,,,,,,,,,,,,,,,,,,,,,,,1.0,457.0,374.0,-1.0,-1.0,-1.0,-1.0,624.8940000000001,689.8360595703125,-1.0,0.5760794878005981,0.561826467514038,-1.0,-1.0,0.0,4.0,1.0,457.0,374.0,457.0,374.0,689.836059570313,18.5846772016321,-2330.29107522437,,,,,,,,,,,,,,,,,,
85,586.8446,,,,,,Frage 1,,,,,,,,,,,,,,,,,,,,,,,,,,,,,,,,,,,,,,,,,,,,,,,,,,,,,,,,,,,,,,,,,,,,,1.0,469.0,381.0,455.0,358.0,4.077392578125,4.11016845703125,633.3340000000026,690.07861328125,683.5838012695312,0.5769579410552979,0.5616918206214904,0.4427759945392608,0.5693021416664124,0.0,0.0,1.0,462.0,369.5,462.0,369.5,686.831207275391,32.3110807322499,1626.27405462036,,,,,,,,,4.0,4.0,582.6244,615.92035,33.2959500000002,1.08000274286063,56.2133697176899,2895.80802091567,-2061.25049892968,280.366322603451
86,588.1602,,,,,,Frage 1,1.0,14.0,0.0741711482405662,0.1307050883769989,0.0471962168812751,0.95388925075531,0.0421406552195549,0.8276305198669432,1.7762670516967771,4.990234851837158,0.0,5.356888294219971,1.5499477386474607,96.4474639892578,94.81099700927734,1.5499477386474607,13.998583793640137,5.356888294219971,0.2118191421031951,0.0,0.0050691296346485,1.048574447631836,46.4155387878418,22.23167991638184,0.1364177465438842,0.0112182525917887,1.063713788986206,0.013790532015264,10.250277519226074,0.7956565618515014,1.7928366661071775,1.9287893772125244,2.3130006790161133,0.9036927223205566,27.25248336791992,0.0,12.0,-7.623995304107666,-7.473281383514403,-3.780313730239868,103.9892120361328,1.0,14.0,640.0,480.0,0.0,257.4635009765625,202.22689819335935,1.0,415.22561645507807,369.3201293945313,2.0,280.554931640625,241.30972290039065,3.0,384.080322265625,231.49899291992188,4.0,342.9530029296875,282.302978515625,5.0,344.3984375,369.3201293945313,,,,,,,,,,,,,,,,,,,,,,,,,,,,,,,,,,,,,,,,,,,,,,,
87,595.0987,,,,,,Frage 1,,,,,,,,,,,,,,,,,,,,,,,,,,,,,,,,,,,,,,,,,,,,,,,,,,,,,,,,,,,,,,,,,,,,,1.0,-1.0,-1.0,461.0,353.0,-1.0,-1.0,641.5880000000034,-1.0,687.0073852539064,-1.0,-1.0,0.4433807730674743,0.5690218210220336,4.0,0.0,1.0,461.0,353.0,461.0,353.0,687.007385253906,56.2133697176899,2895.80802091567,,,,,,,,,4.0,4.0,582.6244,615.92035,33.2959500000002,1.08000274286063,56.2133697176899,2895.80802091567,-2061.25049892968,280.366322603451
88,603.4083,,,,,,Frage 1,,,,,,,,,,,,,,,,,,,,,,,,,,,,,,,,,,,,,,,,,,,,,,,,,,,,,,,,,,,,,,,,,,,,,1.0,482.0,349.0,468.0,321.0,-1.0,-1.0,649.8969999999972,692.615234375,688.4303588867188,0.5783238410949707,0.5613507628440856,0.4442248046398162,0.5686640739440918,0.0,0.0,1.0,475.0,335.0,475.0,335.0,690.522796630859,39.0852025717837,-2061.25049892968,,,,,,,,,4.0,4.0,582.6244,615.92035,33.2959500000002,1.08000274286063,56.2133697176899,2895.80802091567,-2061.25049892968,280.366322603451
89,611.7612,,,,,,Frage 1,,,,,,,,,,,,,,,,,,,,,,,,,,,,,,,,,,,,,,,,,,,,,,,,,,,,,,,,,,,,,,,,,,,,,1.0,470.0,336.0,469.0,321.0,4.003570556640625,4.10540771484375,658.25,691.294921875,686.88427734375,0.5793516635894775,0.5613372921943665,0.4452358484268188,0.5683287382125854,0.0,0.0,1.0,469.5,328.5,469.5,328.5,689.089599609375,34.2625544057167,-577.362133638258,,,,,,,,,4.0,4.0,582.6244,615.92035,33.2959500000002,1.08000274286063,56.2133697176899,2895.80802091567,-2061.25049892968,280.366322603451
90,620.0795,,,,,,Frage 1,,,,,,,,,,,,,,,,,,,,,,,,,,,,,,,,,,,,,,,,,,,,,,,,,,,,,,,,,,,,,,,,,,,,,1.0,-1.0,-1.0,493.0,321.0,-1.0,-1.0,666.570000000007,-1.0,683.1044921875,-1.0,-1.0,0.4462165534496307,0.5678266882896423,4.0,0.0,1.0,493.0,321.0,493.0,321.0,683.1044921875,24.9101698784865,-1124.31440645687,,,,,,,,,,,,,,,,,,
91,628.4293,,,,,,Frage 1,,,,,,,,,,,,,,,,,,,,,,,,,,,,,,,,,,,,,,,,,,,,,,,,,,,,,,,,,,,,,,,,,,,,,1.0,449.0,326.0,473.0,359.0,-1.0,-1.0,674.9180000000051,687.1419067382812,680.2366943359375,0.5811306834220886,0.5608289837837219,0.4471884369850158,0.5675829648971557,0.0,0.0,1.0,461.0,342.5,461.0,342.5,683.689300537109,64.4008130542911,4729.53162660241,,,,,,,,,5.0,5.0,624.2544,732.5585,108.3041,3.53476228664872,138.558423020542,12709.9924482553,-6917.88654659573,276.316985680142
92,636.1033,,,,,,Frage 1,1.0,15.0,0.2048019766807556,0.2076575756072998,0.0602138042449951,0.4833683371543884,0.0458420850336551,0.2431035488843917,1.2985374927520752,1.9256002902984617,0.0,6.466648101806641,4.706895351409912,97.40293121337889,97.20208740234376,1.753595948219299,7.626283645629882,6.466648101806641,0.0101875895634293,0.0,0.0064958133734762,0.7438747882843016,16.173961639404297,51.51520919799805,0.0130104133859276,0.0002581001026555,4.706895351409912,0.0070604928769171,8.358131408691406,3.57556414604187,28.24662208557129,0.72300386428833,2.504105567932129,3.855706691741944,5.878077507019043,0.0,12.0,-17.714204788208008,-4.260411262512207,-1.8881020545959477,94.80030822753906,1.0,15.0,640.0,480.0,0.0,257.93536376953125,205.79026794433597,1.0,402.59954833984375,356.11724853515625,2.0,280.87518310546875,240.30068969726565,3.0,375.218017578125,230.99861145019528,4.0,333.9736328125,285.0728759765625,5.0,334.70916748046875,356.11724853515625,,,,,,,,,,,,,,,,,,,,,,,,,,,,,,,,,,,,,,,,,,,,,,,
93,636.7278,,,,,,Frage 1,,,,,,,,,,,,,,,,,,,,,,,,,,,,,,,,,,,,,,,,,,,,,,,,,,,,,,,,,,,,,,,,,,,,,1.0,461.0,344.0,472.0,364.0,3.989501953125,4.000579833984375,683.218000000008,688.0686645507812,679.3771362304688,0.5820213556289672,0.5604989528656005,0.4481498897075653,0.5670382976531982,0.0,0.0,1.0,466.5,354.0,466.5,354.0,683.722900390625,55.2686147722434,-1100.46373224652,,,,,,,,,5.0,5.0,624.2544,732.5585,108.3041,3.53476228664872,138.558423020542,12709.9924482553,-6917.88654659573,276.316985680142
94,645.2026,,,,,,Frage 1,,,,,,,,,,,,,,,,,,,,,,,,,,,,,,,,,,,,,,,,,,,,,,,,,,,,,,,,,,,,,,,,,,,,,1.0,-1.0,-1.0,471.0,378.0,-1.0,-1.0,691.69200000001,-1.0,679.4384765625,-1.0,-1.0,0.4489653706550598,0.5667007565498352,4.0,0.0,1.0,471.0,378.0,471.0,378.0,679.4384765625,34.4381648844345,-2457.92819745705,,,,,,,,,5.0,5.0,624.2544,732.5585,108.3041,3.53476228664872,138.558423020542,12709.9924482553,-6917.88654659573,276.316985680142
95,653.3946,,,,,,Frage 1,,,,,,,,,,,,,,,,,,,,,,,,,,,,,,,,,,,,,,,,,,,,,,,,,,,,,,,,,,,,,,,,,,,,,1.0,483.0,370.0,-1.0,-1.0,-1.0,-1.0,699.8840000000055,691.4442749023438,-1.0,0.5835197567939758,0.5598946213722229,-1.0,-1.0,0.0,4.0,1.0,483.0,370.0,483.0,370.0,691.444274902344,138.558423020542,12709.9924482553,,,,,,,,,5.0,5.0,624.2544,732.5585,108.3041,3.53476228664872,138.558423020542,12709.9924482553,-6917.88654659573,276.316985680142
96,656.0506,,,,,,Frage 1,,,,,,,,,,,,,,,,,,,,,,,,,,,,,,,,,,,,,,,,,,,,,,,,,,,,,,,,,,,,,,,,1.0,21.2136726379395,31.509013473802,16.1357040405273,489.18359375,,,,,,,,,,,,,,,,,,,,,,,,,,,,,,,,,,,,,,,,,,
97,661.7248,,,,,,Frage 1,,,,,,,,,,,,,,,,,,,,,,,,,,,,,,,,,,,,,,,,,,,,,,,,,,,,,,,,,,,,,,,,,,,,,1.0,416.0,231.0,486.0,345.0,3.95013427734375,3.964065551757813,708.2140000000072,693.372314453125,680.0791015625,0.5844917297363281,0.5594303607940673,0.4508293271064758,0.565798282623291,0.0,0.0,1.0,451.0,288.0,451.0,288.0,686.725708007813,80.9310445100903,-6917.88654659573,,,,,,,,,5.0,5.0,624.2544,732.5585,108.3041,3.53476228664872,138.558423020542,12709.9924482553,-6917.88654659573,276.316985680142
98,667.4007,,,,,,Frage 1,1.0,16.0,0.3712335526943206,0.2712285816669464,0.1097982972860336,0.5127482414245605,0.0440229848027229,0.183832511305809,1.3584903478622437,4.610632419586182,0.0,5.813363552093506,6.306901931762695,97.28302001953124,96.48844909667967,1.7204712629318235,5.580341815948486,5.813363552093506,0.0031006319914013,0.0,0.0013037431053817,0.5010652542114257,9.241099357604979,61.83465576171875,0.006099424790591,0.0003530577232595,6.306901931762695,0.0046095638535916,7.110219955444336,5.170529842376709,46.39051818847656,0.4047819674015045,2.4728591442108154,5.8796563148498535,3.7981026172637935,0.0,12.0,-15.540423393249512,-5.43317174911499,-0.5475314855575562,94.39495849609376,1.0,16.0,640.0,480.0,0.0,257.5121154785156,205.0128631591797,1.0,400.5723876953125,353.44110107421875,2.0,280.8108825683594,239.90011596679688,3.0,374.76373291015625,230.77487182617188,4.0,333.70465087890625,282.055908203125,5.0,331.5521240234375,353.44110107421875,,,,,,,,,,,,,,,,,,,,,,,,,,,,,,,,,,,,,,,,,,,,,,,
99,670.2013,,,,,,Frage 1,,,,,,,,,,,,,,,,,,,,,,,,,,,,,,,,,,,,,,,,,,,,,,,,,,,,,,,,,,,,,,,,,,,,,1.0,-1.0,-1.0,482.0,316.0,-1.0,-1.0,716.6900000000023,-1.0,680.1890258789064,-1.0,-1.0,0.4515773952007293,0.5654888153076171,4.0,0.0,1.0,482.0,316.0,482.0,316.0,680.189025878906,30.8907676708481,-5903.41259237211,,,,,,,,,5.0,5.0,624.2544,732.5585,108.3041,3.53476228664872,138.558423020542,12709.9924482553,-6917.88654659573,276.316985680142
100,678.4215,,,,,,Frage 1,,,,,,,,,,,,,,,,,,,,,,,,,,,,,,,,,,,,,,,,,,,,,,,,,,,,,,,,,,,,,,,,,,,,,1.0,-1.0,-1.0,-1.0,-1.0,-1.0,-1.0,724.9120000000112,-1.0,-1.0,-1.0,-1.0,-1.0,-1.0,4.0,4.0,1.0,,,468.75,277.75,684.35546875,121.765256321798,11055.0216115118,,,,,,,,,5.0,5.0,624.2544,732.5585,108.3041,3.53476228664872,138.558423020542,12709.9924482553,-6917.88654659573,276.316985680142
101,686.7238,,,,,,Frage 1,,,,,,,,,,,,,,,,,,,,,,,,,,,,,,,,,,,,,,,,,,,,,,,,,,,,,,,,,,,,,,,,,,,,,1.0,398.0,219.0,513.0,260.0,3.9759521484375,3.950973510742188,733.2130000000035,696.8358764648438,680.2079467773438,0.5869284272193908,0.5587755441665649,0.453538030385971,0.5650231838226318,0.0,0.0,1.0,455.5,239.5,455.5,239.5,688.521911621094,82.4146960671915,-4739.71794016201,,,,,,,,,5.0,5.0,624.2544,732.5585,108.3041,3.53476228664872,138.558423020542,12709.9924482553,-6917.88654659573,276.316985680142
102,695.1523,,,,,,Frage 1,,,,,,,,,,,,,,,,,,,,,,,,,,,,,,,,,,,,,,,,,,,,,,,,,,,,,,,,,,,,,,,,,,,,,1.0,-1.0,-1.0,494.0,229.0,-1.0,-1.0,741.6420000000071,-1.0,679.8023071289064,-1.0,-1.0,0.4541669189929962,0.5646443963050842,4.0,0.0,1.0,494.0,229.0,494.0,229.0,679.802307128906,65.1809802919251,-2044.69547075594,,,,,,,,,5.0,5.0,624.2544,732.5585,108.3041,3.53476228664872,138.558423020542,12709.9924482553,-6917.88654659573,276.316985680142
103,699.2551,,,,,,Frage 1,1.0,17.0,0.5390436649322509,0.3926264643669128,0.1770403385162353,0.5284976959228515,0.0370360761880874,0.1461635828018188,1.3735439777374268,9.073354721069338,0.0,3.581167936325073,3.632590532302856,97.25291442871091,95.03852081298828,1.4835474491119385,3.219080209732056,3.581167936325073,0.0015461946604773,0.0,0.0010984849650412,0.3318626284599304,3.632590532302856,70.24177551269531,0.0021387070883065,0.0006966826040297,8.274526596069336,0.0040825721807777,6.002821445465088,3.2966859340667725,61.0198974609375,0.2412059307098388,2.0573534965515137,8.579360008239746,1.6314083337783811,0.0,12.0,-16.423187255859375,-7.237112045288087,-0.8660811781883239,91.81543731689453,1.0,17.0,640.0,480.0,0.0,258.8685607910156,205.29876708984372,1.0,400.7658996582031,352.50701904296875,2.0,282.6983642578125,240.05926513671875,3.0,373.9910278320313,230.27542114257812,4.0,335.6549987792969,282.14801025390625,5.0,332.7623291015625,352.50701904296875,,,,,,,,,,,,,,,,,,,,,,,,,,,,,,,,,,,,,,,,,,,,,,,
104,703.4498,,,,,,Frage 1,,,,,,,,,,,,,,,,,,,,,,,,,,,,,,,,,,,,,,,,,,,,,,,,,,,,,,,,,,,,,,,,,,,,,1.0,416.0,258.0,-1.0,-1.0,-1.0,-1.0,749.9400000000022,698.0431518554688,-1.0,0.5887236595153807,0.5583029389381408,-1.0,-1.0,0.0,4.0,1.0,416.0,258.0,416.0,258.0,698.043151855469,66.2491981046076,128.739718310634,,,,,,,,,5.0,5.0,624.2544,732.5585,108.3041,3.53476228664872,138.558423020542,12709.9924482553,-6917.88654659573,276.316985680142
105,711.7428,,,,,,Frage 1,,,,,,,,,,,,,,,,,,,,,,,,,,,,,,,,,,,,,,,,,,,,,,,,,,,,,,,,,,,,,,,,,,,,,1.0,442.0,279.0,467.0,221.0,3.9766845703125,3.9150543212890634,758.2320000000035,700.3103637695312,681.4090576171875,0.5899509787559509,0.5577355623245239,0.4559840857982635,0.5640705823898315,0.0,0.0,1.0,454.5,250.0,454.5,250.0,690.859710693359,74.5299315760466,998.520857523099,,,,,,,,,5.0,5.0,624.2544,732.5585,108.3041,3.53476228664872,138.558423020542,12709.9924482553,-6917.88654659573,276.316985680142
106,720.075,,,,,,Frage 1,,,,,,,,,,,,,,,,,,,,,,,,,,,,,,,,,,,,,,,,,,,,,,,,,,,,,,,,,,,,,,,,,,,,,1.0,441.0,223.0,446.0,210.0,-1.0,-1.0,766.5639999999986,701.3019409179688,681.940185546875,0.5906093716621398,0.5577200651168823,0.4568231701850891,0.5637763142585754,0.0,0.0,1.0,443.5,216.5,443.5,216.5,691.621063232422,71.963361681354,-308.030279481127,,,,,,,,,5.0,5.0,624.2544,732.5585,108.3041,3.53476228664872,138.558423020542,12709.9924482553,-6917.88654659573,276.316985680142
107,728.399,,,,,,Frage 1,,,,,,,,,,,,,,,,,,,,,,,,,,,,,,,,,,,,,,,,,,,,,,,,,,,,,,,,,,,,,,,,,,,,,1.0,476.0,207.0,-1.0,-1.0,-1.0,-1.0,774.8880000000064,701.9153442382812,-1.0,0.5916826725006104,0.5573076605796814,-1.0,-1.0,0.0,4.0,1.0,476.0,207.0,476.0,207.0,701.915344238281,33.1335567891648,-4664.80116436681,,,,,,,,,5.0,5.0,624.2544,732.5585,108.3041,3.53476228664872,138.558423020542,12709.9924482553,-6917.88654659573,276.316985680142
108,732.0726,,,,,,Frage 1,1.0,18.0,0.7119166851043701,0.3215340971946716,0.2632214426994323,0.6454524397850036,0.0339007712900638,0.1433527916669845,2.007330656051636,19.987512588500977,0.0,2.4679620265960693,3.019134521484375,95.98533630371091,96.5183334350586,1.4300755262374878,2.46824049949646,2.4679620265960693,0.0020993803627789,0.0,0.0007293534581549,0.2838499248027801,3.019134521484375,80.91468811035155,0.0006944445194676,0.0008271769620478,9.520620346069338,0.0043189940042793,4.127194881439209,2.636507749557495,73.05281829833984,0.1411723792552948,1.8298506736755369,6.367921829223633,1.3026098012924194,0.0,12.0,-15.787858963012695,-5.3888983726501465,0.9867156744003296,89.93133544921875,1.0,18.0,640.0,480.0,0.0,260.2325744628906,204.39727783203125,1.0,399.7967224121094,349.32421875,2.0,285.0391845703125,237.12191772460935,3.0,374.7254638671875,230.4874420166016,4.0,334.5290222167969,279.7838134765625,5.0,330.279296875,349.32421875,,,,,,,,,,,,,,,,,,,,,,,,,,,,,,,,,,,,,,,,,,,,,,,
109,736.718,,,,,,Frage 1,,,,,,,,,,,,,,,,,,,,,,,,,,,,,,,,,,,,,,,,,,,,,,,,,,,,,,,,,,,,,,,,,,,,,1.0,483.0,223.0,450.0,210.0,3.9535980224609375,3.915313720703125,783.2079999999987,703.5852661132812,683.6026611328125,0.5927938222885131,0.5570244193077087,0.4587276577949523,0.5629770755767822,0.0,0.0,1.0,466.5,216.5,466.5,216.5,693.593963623047,26.6568818240432,-778.54008476039,,,,,,,,,,,,,,,,,,
110,745.0784,,,,,,Frage 1,,,,,,,,,,,,,,,,,,,,,,,,,,,,,,,,,,,,,,,,,,,,,,,,,,,,,,,,,,,,,,,,,,,,,1.0,-1.0,-1.0,478.0,225.0,-1.0,-1.0,791.5679999999993,-1.0,682.8897094726562,-1.0,-1.0,0.4595677256584167,0.5625488758087158,4.0,0.0,1.0,478.0,225.0,478.0,225.0,682.889709472656,45.3655858357111,2237.77618435337,,,,,,,,,6.0,6.0,740.8982,865.8713,124.9731,4.85270771353041,242.401040870311,16096.7625327102,-19543.912715125,219.844415682594
111,753.4137,,,,,,Frage 1,,,,,,,,,,,,,,,,,,,,,,,,,,,,,,,,,,,,,,,,,,,,,,,,,,,,,,,,,,,,,,,,,,,,,1.0,-1.0,-1.0,493.0,202.0,-1.0,-1.0,799.9030000000057,-1.0,682.6578369140625,-1.0,-1.0,0.4604440033435821,0.5620635151863098,4.0,0.0,1.0,493.0,202.0,493.0,202.0,682.657836914063,39.7128308515395,-678.170549850834,,,,,,,,,6.0,6.0,740.8982,865.8713,124.9731,4.85270771353041,242.401040870311,16096.7625327102,-19543.912715125,219.844415682594
112,761.7435,,,,,,Frage 1,,,,,,,,,,,,,,,,,,,,,,,,,,,,,,,,,,,,,,,,,,,,,,,,,,,,,,,,,,,,,,,,,,,,,1.0,470.0,209.0,485.0,188.0,3.8988037109375,3.9041595458984375,808.2330000000073,704.3219604492188,683.4794921875,0.5957465171813964,0.5562546849250793,0.4612568616867065,0.561821937561035,0.0,0.0,1.0,477.5,198.5,477.5,198.5,693.900726318359,133.617167804087,11273.3003136386,,,,,,,,,6.0,6.0,740.8982,865.8713,124.9731,4.85270771353041,242.401040870311,16096.7625327102,-19543.912715125,219.844415682594
113,763.7706,,,,,,Frage 1,1.0,19.0,0.5913856625556945,0.3066387176513671,0.2013684660196304,0.5565752983093261,0.0316421501338481,0.1424407809972763,1.806652307510376,12.048630714416504,0.0,1.6637213230133057,2.8856310844421387,96.3866958618164,94.40946960449219,1.4003593921661377,2.370635986328125,1.6637213230133057,0.0031090201810002,0.0,0.0002794498286675,0.2570806741714477,2.8856310844421387,78.59554290771484,0.0005584902246482,0.0019640626851469,8.024635314941406,0.0056773051619529,4.5831518173217765,2.2277514934539795,65.7102279663086,0.1187624335289001,1.6203290224075315,5.756213188171387,0.6656330227851867,0.0,12.0,-16.237096786499023,-7.867159366607666,0.0088736563920974,94.9483642578125,1.0,19.0,640.0,480.0,0.0,261.018310546875,201.9761962890625,1.0,403.0877075195313,348.85565185546875,2.0,283.9077453613281,236.7720184326172,3.0,378.4158935546875,227.6395721435547,4.0,338.6360168457032,278.7763671875,5.0,333.8354187011719,348.85565185546875,,,,,,,,,,,,,,,,,,,,,,,,,,,,,,,,,,,,,,,,,,,,,,,
114,770.1704,,,,,,Frage 1,,,,,,,,,,,,,,,,,,,,,,,,,,,,,,,,,,,,,,,,,,,,,,,,,,,,,,,,,,,,,,,,,,,,,1.0,-1.0,-1.0,437.0,127.0,-1.0,-1.0,816.6600000000035,-1.0,682.580810546875,-1.0,-1.0,0.4620405435562133,0.5613641142845153,4.0,0.0,1.0,437.0,127.0,437.0,127.0,682.580810546875,236.295446192136,12184.5848874497,,,,,,,,,6.0,6.0,740.8982,865.8713,124.9731,4.85270771353041,242.401040870311,16096.7625327102,-19543.912715125,219.844415682594
115,778.3839,,,,,,Frage 1,,,,,,,,,,,,,,,,,,,,,,,,,,,,,,,,,,,,,,,,,,,,,,,,,,,,,,,,,,,,,,,,,,,,,1.0,340.0,90.0,371.0,86.0,-1.0,-1.0,824.8730000000068,704.5997314453125,683.18798828125,0.5975300669670105,0.5559145808219909,0.4628201127052307,0.5610013008117675,0.0,0.0,1.0,355.5,88.0,355.5,88.0,693.893859863281,107.814399658069,-15642.6671375256,,,,,,,,,6.0,6.0,740.8982,865.8713,124.9731,4.85270771353041,242.401040870311,16096.7625327102,-19543.912715125,219.844415682594
116,786.745,,,,,,Frage 1,,,,,,,,,,,,,,,,,,,,,,,,,,,,,,,,,,,,,,,,,,,,,,,,,,,,,,,,,,,,,,,,,,,,,1.0,340.0,90.0,392.0,109.0,3.90814208984375,3.819381713867188,833.2340000000114,703.8969116210938,682.2105102539064,0.5987132787704467,0.555520474910736,0.4638794362545013,0.5605847835540771,0.0,0.0,1.0,366.0,99.5,366.0,99.5,693.0537109375,242.401040870311,16096.7625327102,,,,,,,,,6.0,6.0,740.8982,865.8713,124.9731,4.85270771353041,242.401040870311,16096.7625327102,-19543.912715125,219.844415682594
117,795.106,,,,,,Frage 1,,,,,,,,,,,,,,,,,,,,,,,,,,,,,,,,,,,,,,,,,,,,,,,,,,,,,,,,,,,,,,,,,,,,,1.0,-1.0,-1.0,466.0,219.0,-1.0,-1.0,841.5679999999993,-1.0,682.7733764648438,-1.0,-1.0,0.4643227458000183,0.5604037046432495,4.0,0.0,1.0,466.0,219.0,466.0,219.0,682.773376464844,78.9943866591513,-19543.912715125,,,,,,,,,6.0,6.0,740.8982,865.8713,124.9731,4.85270771353041,242.401040870311,16096.7625327102,-19543.912715125,219.844415682594
118,795.6316,,,,,,Frage 1,1.0,20.0,0.4912952780723571,0.2863978147506713,0.1508430540561676,0.4431063830852508,0.0309477504342794,0.1398976147174835,1.4273371696472168,5.859100341796875,0.0,1.54132878780365,2.0746400356292725,97.14532470703124,94.60995483398435,1.4627307653427124,1.5973581075668335,1.54132878780365,0.0070585808716714,0.0,0.0002596886479295,0.2119532376527786,2.0746400356292725,74.4764404296875,0.0005338756600394,0.0044818739406764,6.053260326385498,0.0094519555568695,5.00859832763672,2.1052725315093994,56.7030029296875,0.1573981791734695,1.4836603403091433,4.818492412567139,0.4796890020370483,0.0,12.0,-14.096532821655272,-7.673955917358398,0.9716547131538392,94.6259765625,1.0,20.0,640.0,480.0,0.0,263.00390625,201.0779571533203,1.0,406.0816650390625,349.1441650390625,2.0,287.2507629394532,236.41864013671875,3.0,381.473876953125,227.6962432861328,4.0,341.0210266113281,277.208251953125,5.0,334.9036865234375,349.1441650390625,,,,,,,,,,,,,,,,,,,,,,,,,,,,,,,,,,,,,,,,,,,,,,,
119,803.3876,,,,,,Frage 1,,,,,,,,,,,,,,,,,,,,,,,,,,,,,,,,,,,,,,,,,,,,,,,,,,,,,,,,,,,,,,,,,,,,,1.0,314.0,79.0,466.0,219.0,-1.0,-1.0,849.877999999997,705.742919921875,683.5704345703125,0.6002142429351806,0.5553798675537109,0.4650408625602722,0.5600287914276123,0.0,0.0,1.0,390.0,149.0,390.0,149.0,694.656677246094,73.6297550082052,-647.777198964706,,,,,,,,,6.0,6.0,740.8982,865.8713,124.9731,4.85270771353041,242.401040870311,16096.7625327102,-19543.912715125,219.844415682594
120,811.7406,,,,,,Frage 1,,,,,,,,,,,,,,,,,,,,,,,,,,,,,,,,,,,,,,,,,,,,,,,,,,,,,,,,,,,,,,,,,,,,,1.0,378.0,154.0,473.0,221.0,3.91375732421875,3.850021362304688,858.2300000000106,707.19140625,684.9288940429688,0.6009836196899414,0.5551258325576782,0.4658638536930084,0.5596734285354614,0.0,0.0,1.0,425.5,187.5,425.5,187.5,696.060150146484,105.605523731929,3828.05802989628,,,,,,,,,6.0,6.0,740.8982,865.8713,124.9731,4.85270771353041,242.401040870311,16096.7625327102,-19543.912715125,219.844415682594
121,820.05,,,,,,Frage 1,,,,,,,,,,,,,,,,,,,,,,,,,,,,,,,,,,,,,,,,,,,,,,,,,,,,,,,,,,,,,,,,,,,,,1.0,384.0,202.0,472.0,223.0,-1.0,-1.0,866.5390000000043,708.6450805664064,686.0872802734375,0.601596713066101,0.5550657510757446,0.4661735296249389,0.5595467686653137,0.0,0.0,1.0,428.0,212.5,428.0,212.5,697.366180419922,95.06300845429,-1268.74567088342,,,,,,,,,6.0,6.0,740.8982,865.8713,124.9731,4.85270771353041,242.401040870311,16096.7625327102,-19543.912715125,219.844415682594
122,827.337,,,,,,Frage 1,1.0,21.0,0.4554777741432189,0.260006695985794,0.1358906328678131,0.4061580300331115,0.0312616974115371,0.1383014172315597,1.3524328470230105,4.465662002563477,0.0,1.8474463224411009,1.622503638267517,97.29513549804688,94.71619415283203,1.4876718521118164,1.4179543256759644,1.8474463224411009,0.0088485917076468,0.0,0.0005418425425887,0.1613678783178329,1.622503638267517,73.84660339355469,0.0003809581976383,0.0038624769076704,4.75455379486084,0.0109960213303565,4.640539169311523,1.8846652507781985,53.367706298828125,0.1878513097763061,1.4187331199645996,3.812211513519287,0.3867891430854797,0.0,12.0,-16.08065414428711,-7.568805694580078,0.3320798575878143,94.75192260742189,1.0,21.0,640.0,480.0,0.0,265.41015625,201.74267578125,1.0,407.6962890625,348.8310546875,2.0,288.735595703125,236.48065185546875,3.0,383.0745239257813,227.64363098144528,4.0,342.9173583984375,278.5876159667969,5.0,337.849609375,348.8310546875,,,,,,,,,,,,,,,,,,,,,,,,,,,,,,,,,,,,,,,,,,,,,,,
123,828.3778,,,,,,Frage 1,,,,,,,,,,,,,,,,,,,,,,,,,,,,,,,,,,,,,,,,,,,,,,,,,,,,,,,,,,,,,,,,,,,,,1.0,359.0,188.0,-1.0,-1.0,-1.0,-1.0,874.8669999999983,709.23681640625,-1.0,0.6025718450546264,0.5548198223114013,-1.0,-1.0,0.0,4.0,1.0,359.0,188.0,359.0,188.0,709.23681640625,61.931961077934,-3978.36732106389,,,,,,,,,6.0,6.0,740.8982,865.8713,124.9731,4.85270771353041,242.401040870311,16096.7625327102,-19543.912715125,219.844415682594
124,836.8231,,,,,,Frage 1,,,,,,,,,,,,,,,,,,,,,,,,,,,,,,,,,,,,,,,,,,,,,,,,,,,,,,,,,,,,,,,,,,,,,1.0,332.0,165.0,460.0,198.0,3.9801025390625,3.8997955322265625,883.3130000000092,713.5466918945312,690.9767456054688,0.6031299233436584,0.5546236634254454,0.4676242768764495,0.5588648915290833,0.0,0.0,1.0,396.0,181.5,396.0,181.5,702.26171875,117.507079845411,6580.5973461543,,,,,,,,,6.0,6.0,740.8982,865.8713,124.9731,4.85270771353041,242.401040870311,16096.7625327102,-19543.912715125,219.844415682594
125,845.0665,,,,,,Frage 1,,,,,,,,,,,,,,,,,,,,,,,,,,,,,,,,,,,,,,,,,,,,,,,,,,,,,,,,,,,,,,,,,,,,,1.0,382.0,174.0,477.0,121.0,-1.0,-1.0,891.5570000000007,714.6594848632812,692.6353149414064,0.6037141680717468,0.5544354915618896,0.4678882956504821,0.5587378740310668,0.0,0.0,1.0,429.5,147.5,429.5,147.5,703.647399902344,56.1121436385047,-7447.76866425329,,,,,,,,,6.0,6.0,740.8982,865.8713,124.9731,4.85270771353041,242.401040870311,16096.7625327102,-19543.912715125,219.844415682594
126,853.3727,,,,,,Frage 1,,,,,,,,,,,,,,,,,,,,,,,,,,,,,,,,,,,,,,,,,,,,,,,,,,,,,,,,,,,,,,,,,,,,,1.0,-1.0,-1.0,419.0,151.0,-1.0,-1.0,899.8620000000082,-1.0,692.7816772460938,-1.0,-1.0,0.4687245786190033,0.5583654046058654,4.0,0.0,1.0,419.0,151.0,419.0,151.0,692.781677246094,148.865843466314,11166.8030901988,,,,,,,,,6.0,6.0,740.8982,865.8713,124.9731,4.85270771353041,242.401040870311,16096.7625327102,-19543.912715125,219.844415682594
127,860.0816,,,,,,Frage 1,1.0,22.0,0.5209816694259644,0.2259719371795654,0.1651816070079803,0.449996680021286,0.0312636084854602,0.1382906138896942,1.4335554838180542,6.816545009613037,0.0,2.137782573699951,1.5555210113525393,97.13288879394531,94.2953643798828,1.5555210113525393,1.4104957580566406,2.137782573699951,0.007762954570353,0.0,4.857950625591912e-05,0.1402409523725509,1.3885021209716797,75.5270004272461,0.000227977783652,0.0016598562942817,3.8195855617523193,0.0083628548309206,3.3331494331359863,1.8551540374755855,58.6506233215332,0.2174770683050155,1.2719438076019287,2.3672237396240234,0.569853127002716,0.0,12.0,-17.433673858642578,-7.974240779876709,1.5990369319915771,95.65618896484376,1.0,22.0,640.0,480.0,0.0,267.36041259765625,201.86831665039065,1.0,408.99310302734375,347.7180480957032,2.0,290.7523803710937,235.36846923828125,3.0,386.1588439941406,228.46099853515625,4.0,345.01007080078125,279.19110107421875,5.0,337.6190185546875,347.7180480957032,,,,,,,,,,,,,,,,,,,,,,,,,,,,,,,,,,,,,,,,,,,,,,,
128,861.706,,,,,,Frage 1,,,,,,,,,,,,,,,,,,,,,,,,,,,,,,,,,,,,,,,,,,,,,,,,,,,,,,,,,,,,,,,,,,,,,1.0,311.0,104.0,355.0,104.0,3.9082183837890634,3.899749755859375,908.1940000000031,708.3114013671875,688.871826171875,0.6055151224136353,0.5539887547492981,0.4693145453929901,0.5581708550453186,0.0,0.0,1.0,333.0,104.0,333.0,104.0,698.591613769531,88.7288304955031,-7216.470422379,,,,,,,,,6.0,6.0,740.8982,865.8713,124.9731,4.85270771353041,242.401040870311,16096.7625327102,-19543.912715125,219.844415682594
129,870.0366,,,,,,Frage 1,,,,,,,,,,,,,,,,,,,,,,,,,,,,,,,,,,,,,,,,,,,,,,,,,,,,,,,,,,,,,,,,,,,,,1.0,363.0,156.0,355.0,106.0,-1.0,-1.0,916.5259999999981,703.5856323242188,687.6504516601562,0.6061702966690063,0.5539219379425048,0.4696767628192901,0.5580881834030151,0.0,0.0,1.0,359.0,131.0,359.0,131.0,695.618041992188,18.8642299222103,-8386.50284172721,,,,,,,,,,,,,,,,,,
130,878.3722,,,,,,Frage 1,,,,,,,,,,,,,,,,,,,,,,,,,,,,,,,,,,,,,,,,,,,,,,,,,,,,,,,,,,,,,,,,,,,,,1.0,322.0,79.0,356.0,106.0,-1.0,-1.0,924.8610000000044,703.189453125,687.6200561523438,0.6069986820220947,0.5536523461341857,0.4702346622943878,0.5577120780944824,0.0,0.0,1.0,339.0,92.5,339.0,92.5,695.404754638672,67.3658125006294,5818.60724823877,,,,,,,,,,,,,,,,,,
131,886.7472,,,,,,Frage 1,,,,,,,,,,,,,,,,,,,,,,,,,,,,,,,,,,,,,,,,,,,,,,,,,,,,,,,,,,,,,,,,,,,,,1.0,437.0,183.0,371.0,113.0,3.904541015625,3.84588623046875,933.2370000000082,701.5439453125,685.6990356445312,0.6077741384506224,0.5533812642097473,0.4706930816173553,0.5576732158660888,0.0,0.0,1.0,404.0,148.0,404.0,148.0,693.621490478516,63.7888138165972,-427.104320481451,,,,,,,,,,,,,,,,,,
132,892.1141,,,,,,Frage 1,1.0,23.0,0.7744104266166687,0.2211280167102813,0.3145759105682373,0.6401512622833252,0.0326368510723114,0.1380899250507354,2.105254411697388,23.67841339111328,0.0,1.3432444334030151,1.5479508638381958,95.78948974609376,94.5615692138672,1.5479508638381958,1.856926679611206,3.125428915023804,0.0052953036502003,0.0,0.0001050978316925,0.1801844388246536,1.2352458238601685,84.5806884765625,7.670630293432622e-05,0.0002607306523714,3.2521848678588867,0.0053318021818995,1.3432444334030151,1.346121907234192,75.64302825927734,0.2456855773925781,1.155835509300232,2.1876888275146484,2.0000760555267334,0.0,12.0,-13.826595306396484,-7.721195220947266,0.2630744576454162,93.06256866455078,1.0,23.0,640.0,480.0,0.0,270.3980712890625,202.71224975585935,1.0,408.7351379394531,346.750244140625,2.0,292.4518127441406,235.36080932617188,3.0,385.3015747070313,229.07086181640625,4.0,345.94049072265625,276.3412475585937,5.0,340.9464111328125,346.750244140625,,,,,,,,,,,,,,,,,,,,,,,,,,,,,,,,,,,,,,,,,,,,,,,
133,895.0341,,,,,,Frage 1,,,,,,,,,,,,,,,,,,,,,,,,,,,,,,,,,,,,,,,,,,,,,,,,,,,,,,,,,,,,,,,,,,,,,1.0,-1.0,-1.0,375.0,121.0,-1.0,-1.0,941.5230000000009,-1.0,684.66162109375,-1.0,-1.0,0.4708734154701232,0.5576332807540894,4.0,0.0,1.0,375.0,121.0,375.0,121.0,684.66162109375,8.95476635078707,-6616.95537122573,,,,,,,,,,,,,,,,,,
