Row,Timestamp,EventSource,SlideEvent,StimType,Duration,CollectionPhase,SourceStimuliName,EventSource.1,SampleNumber,Anger,Contempt,Disgust,Fear,Joy,Sadness,Surprise,Engagement,Valence,Sentimentality,Confusion,Neutral,Attention,Brow Furrow,Brow Raise,Cheek Raise,Chin Raise,Dimpler,Eye Closure,Eye Widen,Inner Brow Raise,Jaw Drop,Lip Corner Depressor,Lip Press,Lip Pucker,Lip Stretch,Lip Suck,Lid Tighten,Mouth Open,Nose Wrinkle,Smile,Smirk,Upper Lip Raise,Blink,BlinkRate,Pitch,Yaw,Roll,Interocular Distance,EventSource.2,SampleNumber.1,width,height,feature id_1,feature-x_1,feature-y_1,feature id_2,feature-x_2,feature-y_2,feature id_3,feature-x_3,feature-y_3,feature id_4,feature-x_4,feature-y_4,feature id_5,feature-x_5,feature-y_5,feature id_6,feature-x_6,feature-y_6,EventSource.3,CPU Sys,Memory Sys,CPU Proc,Memory Proc,EventSource.4,ET_GazeLeftx,ET_GazeLefty,ET_GazeRightx,ET_GazeRighty,ET_PupilLeft,ET_PupilRight,ET_TimeSignal,ET_DistanceLeft,ET_DistanceRight,ET_CameraLeftX,ET_CameraLeftY,ET_CameraRightX,ET_CameraRightY,ET_ValidityLeft,ET_ValidityRight,EventSource.5,Gaze X,Gaze Y,Interpolated Gaze X,Interpolated Gaze Y,Interpolated Distance,Gaze Velocity,Gaze Acceleration,Fixation Index,Fixation Index by Stimulus,Fixation X,Fixation Y,Fixation Start,Fixation End,Fixation Duration,Fixation Dispersion,Saccade Index,Saccade Index by Stimulus,Saccade Start,Saccade End,Saccade Duration,Saccade Amplitude,Saccade Peak Velocity,Saccade Peak Acceleration,Saccade Peak Deceleration,Saccade Direction
12223,80804.0679,1.0,StartSlide,TestImage,120000.0,StimuliDisplay,Frage 2,,,,,,,,,,,,,,,,,,,,,,,,,,,,,,,,,,,,,,,,,,,,,,,,,,,,,,,,,,,,,,,,,,,,,,,,,,,,,,,,,,,,,,,,,,,,,,,,,,,,,,,,,,,,,,
12224,80806.6612,,,,,,Frage 2,,,,,,,,,,,,,,,,,,,,,,,,,,,,,,,,,,,,,,,,,,,,,,,,,,,,,,,,,,,,,,,,,,,,,1.0,-1.0,-1.0,-1.0,-1.0,-1.0,-1.0,80853.15100000001,-1.0,-1.0,-1.0,-1.0,-1.0,-1.0,4.0,4.0,1.0,,,925.25,899.5,467.071365356445,46.029915968377,325.951553253268,82.0,,932.044136613698,900.343714898483,80710.82735,80952.4779,241.650549999991,0.307419365171891,,,,,,,,,,
12225,80814.9613,,,,,,Frage 2,,,,,,,,,,,,,,,,,,,,,,,,,,,,,,,,,,,,,,,,,,,,,,,,,,,,,,,,,,,,,,,,,,,,,1.0,-1.0,-1.0,918.0,892.0,-1.0,-1.0,80861.45000000001,-1.0,467.2121276855469,-1.0,-1.0,0.4623073935508728,0.3851308822631835,4.0,0.0,1.0,918.0,892.0,918.0,892.0,467.212127685547,34.8693000909962,-1344.63631491067,82.0,,932.044136613698,900.343714898483,80710.82735,80952.4779,241.650549999991,0.307419365171891,,,,,,,,,,
12226,80823.2919,,,,,,Frage 2,,,,,,,,,,,,,,,,,,,,,,,,,,,,,,,,,,,,,,,,,,,,,,,,,,,,,,,,,,,,,,,,,,,,,1.0,941.0,897.0,934.0,882.0,-1.0,-1.0,80869.78100000002,466.9357604980469,467.3414916992188,0.6679081320762634,0.3709142208099365,0.4627476930618286,0.3855226337909698,0.0,0.0,1.0,937.5,889.5,937.5,889.5,467.138626098633,40.7469307415072,705.547097509212,82.0,,932.044136613698,900.343714898483,80710.82735,80952.4779,241.650549999991,0.307419365171891,,,,,,,,,,
12227,80828.5992,,,,,,Frage 2,1.0,-1.0,0.0956077054142951,0.0001182761479867,0.1004175171256065,0.0462951473891735,99.97636413574217,0.0104380613192915,0.0775088816881179,99.9782943725586,92.2167510986328,0.0569623634219169,1.8501780033111568,0.0,97.33232879638673,1.8501780033111568,0.2969111800193786,99.02106475830078,0.0167221333831548,0.0,11.620172500610352,0.0006541728507727,0.0569623634219169,7.763298034667968,6.912782282597617e-06,0.0002080458798445,2.9508328225347213e-05,41.82332611083984,0.0351538807153701,20.43602752685547,97.12615203857422,16.01879119873047,99.15318298339844,0.0,13.955385208129885,0.0,6.0,-31.682559967041016,-4.015377521514893,-0.6111474633216857,139.16665649414065,1.0,-1.0,640.0,480.0,0.0,275.8904724121094,285.1295166015625,1.0,440.87701416015625,450.1160278320313,2.0,287.11041259765625,323.5791320800781,3.0,425.8771362304688,313.0361022949219,4.0,363.6865234375,385.05712890625,5.0,362.1636657714844,448.8186950683594,,,,,,,,,,,,,,,,,,,,,,,,,,,,,,,,,,,,,,,,,,,,,,,
12228,80831.624,,,,,,Frage 2,,,,,,,,,,,,,,,,,,,,,,,,,,,,,,,,,,,,,,,,,,,,,,,,,,,,,,,,,,,,,,,,,,,,,1.0,-1.0,-1.0,-1.0,-1.0,-1.0,-1.0,80878.11300000001,-1.0,-1.0,-1.0,-1.0,-1.0,-1.0,4.0,4.0,1.0,,,936.25,891.0,467.157302856445,8.54091337911718,-3865.29414702074,82.0,,932.044136613698,900.343714898483,80710.82735,80952.4779,241.650549999991,0.307419365171891,,,,,,,,,,
12229,80839.9962,,,,,,Frage 2,,,,,,,,,,,,,,,,,,,,,,,,,,,,,,,,,,,,,,,,,,,,,,,,,,,,,,,,,,,,,,,,,,,,,1.0,939.0,897.0,931.0,888.0,-1.0,-1.0,80886.48500000002,466.9380493164063,467.4139099121094,0.6680946946144104,0.3716445565223693,0.462722897529602,0.3859877586364746,0.0,0.0,1.0,935.0,892.5,935.0,892.5,467.175979614258,18.7220630316474,1216.06622542852,82.0,,932.044136613698,900.343714898483,80710.82735,80952.4779,241.650549999991,0.307419365171891,,,,,,,,,,
12230,80848.3846,,,,,,Frage 2,,,,,,,,,,,,,,,,,,,,,,,,,,,,,,,,,,,,,,,,,,,,,,,,,,,,,,,,,,,,,,,,,,,,,1.0,953.0,903.0,926.0,895.0,-1.0,-1.0,80894.875,468.353271484375,468.4656066894531,0.6685883998870848,0.3717861175537109,0.4631390273571014,0.3863649070262908,0.0,0.0,1.0,939.5,899.0,939.5,899.0,468.409439086914,13.2870733413432,-647.917325151069,82.0,,932.044136613698,900.343714898483,80710.82735,80952.4779,241.650549999991,0.307419365171891,,,,,,,,,,
12231,80856.17,1.0,StartMedia,TestImage,120000.0,StimuliDisplay,Frage 2,,,,,,,,,,,,,,,,,,,,,,,,,,,,,,,,,,,,,,,,,,,,,,,,,,,,,,,,,,,,,,,,,,,,,,,,,,,,,,,,,,,,,,,,,,,,,,,,,,,,,,,,,,,,,,
12232,80856.6623,,,,,,Frage 2,,,,,,,,,,,,,,,,,,,,,,,,,,,,,,,,,,,,,,,,,,,,,,,,,,,,,,,,,,,,,,,,,,,,,1.0,-1.0,-1.0,-1.0,-1.0,-1.0,-1.0,80903.149,-1.0,-1.0,-1.0,-1.0,-1.0,-1.0,4.0,4.0,1.0,,,936.25,898.5,468.39217376709,14.6959630498842,170.203040523633,82.0,,932.044136613698,900.343714898483,80710.82735,80952.4779,241.650549999991,0.307419365171891,,,,,,,,,,
12233,80860.5125,,,,,,Frage 2,1.0,0.0,0.0787793174386024,0.0001166075890068,0.0882622301578521,0.0449025817215442,99.97608947753906,0.0103245377540588,0.0735202357172966,99.97863006591797,92.63922882080078,0.0476766265928745,1.539196252822876,0.0,97.52996826171876,1.539196252822876,0.2714232802391052,98.63581085205078,0.0161062367260456,0.0,5.446404933929443,0.0003759361279662,0.0476766265928745,6.529423713684082,6.82300014887005e-06,0.0002903086715377,2.4282036974909715e-05,39.58163070678711,0.0356222204864025,16.00933074951172,97.22024536132812,15.415396690368652,99.24745178222656,0.0,11.973286628723145,0.0,6.0,-33.09186172485352,-3.620361804962158,-0.4615384936332702,139.561279296875,1.0,0.0,640.0,480.0,0.0,276.32452392578125,286.4281311035156,1.0,440.6157836914063,450.7194213867188,2.0,287.2342224121094,325.7073059082032,3.0,426.2581176757813,313.47174072265625,4.0,363.3580322265625,386.85745239257807,5.0,361.9180908203125,448.258544921875,,,,,,,,,,,,,,,,,,,,,,,,,,,,,,,,,,,,,,,,,,,,,,,
12234,80864.9567,,,,,,Frage 2,,,,,,,,,,,,,,,,,,,,,,,,,,,,,,,,,,,,,,,,,,,,,,,,,,,,,,,,,,,,,,,,,,,,,1.0,-1.0,-1.0,933.0,898.0,-1.0,-1.0,80911.44700000001,-1.0,468.3749084472656,-1.0,-1.0,0.4630324840545654,0.3868426084518432,4.0,0.0,1.0,933.0,898.0,933.0,898.0,468.374908447266,8.42815623271072,-755.667295666276,82.0,,932.044136613698,900.343714898483,80710.82735,80952.4779,241.650549999991,0.307419365171891,,,,,,,,,,
12235,80873.2865,,,,,,Frage 2,,,,,,,,,,,,,,,,,,,,,,,,,,,,,,,,,,,,,,,,,,,,,,,,,,,,,,,,,,,,,,,,,,,,,1.0,952.0,897.0,928.0,901.0,-1.0,-1.0,80919.77600000001,468.4046325683594,466.90960693359375,0.6692383289337158,0.3726919591426849,0.4636359512805938,0.387248158454895,0.0,0.0,1.0,940.0,899.0,940.0,899.0,467.657119750977,9.9627397066017,184.228129593715,82.0,,932.044136613698,900.343714898483,80710.82735,80952.4779,241.650549999991,0.307419365171891,,,,,,,,,,
12236,80881.7108,,,,,,Frage 2,,,,,,,,,,,,,,,,,,,,,,,,,,,,,,,,,,,,,,,,,,,,,,,,,,,,,,,,,,,,,,,,,,,,,1.0,-1.0,-1.0,-1.0,-1.0,-1.0,-1.0,80928.20000000001,-1.0,-1.0,-1.0,-1.0,-1.0,-1.0,4.0,4.0,1.0,,,937.5,898.0,467.471282958984,11.958967703406,236.960696651896,82.0,,932.044136613698,900.343714898483,80710.82735,80952.4779,241.650549999991,0.307419365171891,,,,,,,,,,
12237,80889.9542,,,,,,Frage 2,,,,,,,,,,,,,,,,,,,,,,,,,,,,,,,,,,,,,,,,,,,,,,,,,,,,,,,,,,,,,,,,,,,,,1.0,950.0,895.0,920.0,899.0,-1.0,-1.0,80936.44400000003,468.8114929199218,465.7593994140625,0.6691259145736694,0.3731822371482849,0.4636262357234954,0.3875419795513153,0.0,0.0,1.0,935.0,897.0,935.0,897.0,467.285446166992,10.3226474642444,-198.500647689437,82.0,,932.044136613698,900.343714898483,80710.82735,80952.4779,241.650549999991,0.307419365171891,,,,,,,,,,
12238,80898.3232,,,,,,Frage 2,,,,,,,,,,,,,,,,,,,,,,,,,,,,,,,,,,,,,,,,,,,,,,,,,,,,,,,,,,,,,,,,,,,,,1.0,947.0,905.0,925.0,900.0,-1.0,-1.0,80944.812,468.79934692382807,465.726806640625,0.6696350574493408,0.3731857538223266,0.4640198945999145,0.3877990245819091,0.0,0.0,1.0,936.0,902.5,936.0,902.5,467.263076782227,19.8875485112909,1142.89652850275,82.0,,932.044136613698,900.343714898483,80710.82735,80952.4779,241.650549999991,0.307419365171891,,,,,,,,,,
12239,80906.6155,,,,,,Frage 2,,,,,,,,,,,,,,,,,,,,,,,,,,,,,,,,,,,,,,,,,,,,,,,,,,,,,,,,,,,,,,,,,,,,,1.0,-1.0,-1.0,-1.0,-1.0,-1.0,-1.0,80953.10500000001,-1.0,-1.0,-1.0,-1.0,-1.0,-1.0,4.0,4.0,1.0,,,932.25,905.75,467.178367614746,21.7697328814553,226.979772821077,82.0,,932.044136613698,900.343714898483,80710.82735,80952.4779,241.650549999991,0.307419365171891,,,,,,,,,,
12240,80908.3085,,,,,,Frage 2,1.0,1.0,0.0703693106770515,0.0001152617187472,0.0821472406387329,0.047326523810625,99.97586822509763,0.0103132212534546,0.0703754052519798,99.97886657714845,93.17174530029298,0.0499521233141422,1.2820786237716677,0.0,97.30723571777344,1.2820786237716677,0.267775535583496,98.32844543457033,0.0205270759761333,0.0,13.324756622314451,0.0002721472410485,0.0499521233141422,5.480936050415039,7.791142706992105e-06,0.0004493818851187,2.0787916582776237e-05,43.46308135986328,0.0419890992343425,13.107354164123535,96.94278717041016,14.476600646972656,99.31775665283203,0.0,11.704524993896484,0.0,6.0,-32.84010696411133,-4.063470840454102,-0.6201460361480712,140.22592163085938,1.0,1.0,640.0,480.0,0.0,278.4684143066406,288.36248779296875,1.0,440.91796875,450.81204223632807,2.0,287.9100952148437,327.0775451660156,3.0,427.6482849121094,315.39227294921875,4.0,365.08599853515625,387.45501708984375,5.0,363.5211791992188,448.42425537109375,,,,,,,,,,,,,,,,,,,,,,,,,,,,,,,,,,,,,,,,,,,,,,,
12241,80914.9895,,,,,,Frage 2,,,,,,,,,,,,,,,,,,,,,,,,,,,,,,,,,,,,,,,,,,,,,,,,,,,,,,,,,,,,,,,,,,,,,1.0,934.0,918.0,923.0,900.0,-1.0,-1.0,80961.47899999998,468.6520690917969,465.5352478027344,0.669485330581665,0.3734844326972961,0.463809996843338,0.3878086805343627,0.0,0.0,1.0,928.5,909.0,928.5,909.0,467.093658447266,32.0550540648337,1228.24470783176,82.0,,932.044136613698,900.343714898483,80710.82735,80952.4779,241.650549999991,0.307419365171891,,,,,,,,,,
12242,80923.3097,,,,,,Frage 2,,,,,,,,,,,,,,,,,,,,,,,,,,,,,,,,,,,,,,,,,,,,,,,,,,,,,,,,,,,,,,,,,,,,,1.0,919.0,911.0,917.0,896.0,-1.0,-1.0,80969.799,468.4671936035156,465.4708251953125,0.6699985861778259,0.3734095096588134,0.4641979038715362,0.3879169225692749,0.0,0.0,1.0,918.0,903.5,918.0,903.5,466.969009399414,18.1408516634846,-1672.33989583734,82.0,,932.044136613698,900.343714898483,80710.82735,80952.4779,241.650549999991,0.307419365171891,,,,,,,,,,
12243,80931.644,,,,,,Frage 2,,,,,,,,,,,,,,,,,,,,,,,,,,,,,,,,,,,,,,,,,,,,,,,,,,,,,,,,,,,,,,,,,,,,,1.0,-1.0,-1.0,-1.0,-1.0,-1.0,-1.0,80978.13399999999,-1.0,-1.0,-1.0,-1.0,-1.0,-1.0,4.0,4.0,1.0,,,921.5,904.75,466.10425567627,16.549732450781,-190.912159713855,82.0,,932.044136613698,900.343714898483,80710.82735,80952.4779,241.650549999991,0.307419365171891,,,,,,,,,,
12244,80939.9774,,,,,,Frage 2,,,,,,,,,,,,,,,,,,,,,,,,,,,,,,,,,,,,,,,,,,,,,,,,,,,,,,,,,,,,,,,,,,,,,1.0,-1.0,-1.0,925.0,906.0,-1.0,-1.0,80986.467,-1.0,465.239501953125,-1.0,-1.0,0.4639964699745178,0.3876946568489074,4.0,0.0,1.0,925.0,906.0,925.0,906.0,465.239501953125,16.0569171954609,-59.13735753953,82.0,,932.044136613698,900.343714898483,80710.82735,80952.4779,241.650549999991,0.307419365171891,,,,,,,,,,
12245,80940.7127,,,,,,Frage 2,1.0,2.0,0.0714794173836708,0.0001146150025306,0.1392145454883575,0.0498312599956989,99.97629547119139,0.0103632910177111,0.0693566426634788,99.9790267944336,93.47275543212889,0.0509182475507259,1.1550751924514773,0.0,97.83412170410156,1.1550751924514773,0.2303598225116729,98.55358123779298,0.0187481790781021,0.0,0.9023298621177672,0.0002266783267259,0.0507341250777244,5.167401313781737,1.025078381644562e-05,0.0006270617013797,1.9441789845586754e-05,47.567962646484375,0.0509182475507259,8.989628791809082,96.63245391845705,13.925402641296388,99.3629150390625,0.0,23.055648803710938,0.0,6.0,-31.08906364440918,-2.9477567672729488,-0.5048328042030334,137.3822021484375,1.0,2.0,640.0,480.0,0.0,279.6132202148437,290.2489929199219,1.0,438.13079833984375,448.7666015625,2.0,288.6302490234375,327.5733337402344,3.0,425.653076171875,317.64288330078125,4.0,362.9490966796875,385.721923828125,5.0,362.3327026367188,447.0929870605469,,,,,,,,,,,,,,,,,,,,,,,,,,,,,,,,,,,,,,,,,,,,,,,
12246,80948.3118,,,,,,Frage 2,,,,,,,,,,,,,,,,,,,,,,,,,,,,,,,,,,,,,,,,,,,,,,,,,,,,,,,,,,,,,,,,,,,,,1.0,923.0,917.0,929.0,904.0,-1.0,-1.0,80994.80199999998,467.86334228515625,465.1761169433594,0.6703801751136779,0.3732795119285583,0.4643718302249908,0.3877458572387695,0.0,0.0,1.0,926.0,910.5,926.0,910.5,466.519729614258,13.5802507465341,-297.16193714353,82.0,,932.044136613698,900.343714898483,80710.82735,80952.4779,241.650549999991,0.307419365171891,,,,,,,,,,
12247,80956.644,,,,,,Frage 2,,,,,,,,,,,,,,,,,,,,,,,,,,,,,,,,,,,,,,,,,,,,,,,,,,,,,,,,,,,,,,,,,,,,,1.0,-1.0,-1.0,-1.0,-1.0,-1.0,-1.0,81003.133,-1.0,-1.0,-1.0,-1.0,-1.0,-1.0,4.0,4.0,1.0,,,925.5,899.75,465.736976623535,46.8486588814495,3992.75199045845,,,,,,,,,424.0,1.0,80952.4779,81044.1581,91.6802000000025,14.1388967152316,443.964473420207,34703.0820107622,-29921.0830962138,262.707031679639
12248,80964.9463,,,,,,Frage 2,,,,,,,,,,,,,,,,,,,,,,,,,,,,,,,,,,,,,,,,,,,,,,,,,,,,,,,,,,,,,,,,,,,,,1.0,-1.0,-1.0,925.0,889.0,-1.0,-1.0,81011.435,-1.0,464.9542236328125,-1.0,-1.0,0.4641513228416442,0.3873614370822906,4.0,0.0,1.0,925.0,889.0,925.0,889.0,464.954223632813,57.8749169171245,1328.09679675278,,,,,,,,,424.0,1.0,80952.4779,81044.1581,91.6802000000025,14.1388967152316,443.964473420207,34703.0820107622,-29921.0830962138,262.707031679639
12249,80972.7183,,,,,,Frage 2,1.0,3.0,0.0616212263703346,0.0001474205055274,0.079202577471733,0.0527383424341678,99.9754638671875,0.0108835967257618,0.0690585300326347,99.97922515869139,95.38330841064452,0.0620643198490142,0.8903916478157043,0.0,97.79837036132812,0.8903916478157043,0.2049188613891601,97.82128143310547,0.0170556027442216,0.0,1.0759791135787964,0.0002312417491339,0.0555182509124279,5.084609031677246,1.241518748429371e-05,0.0007391614490188,1.9985805920441635e-05,47.86285781860352,0.0620643198490142,6.371505260467528,96.27880859375,9.745719909667969,99.42424774169922,2.4686279296875,16.22254180908203,0.0,6.0,-31.453088760375977,-3.0314667224884038,-0.2667584419250488,134.45704650878906,1.0,3.0,640.0,480.0,0.0,281.3205871582032,291.60211181640625,1.0,438.2996215820313,448.58111572265625,2.0,291.28240966796875,327.888916015625,3.0,425.4390258789063,318.905517578125,4.0,363.9139099121094,386.4847412109375,5.0,362.7088623046875,447.0872802734375,,,,,,,,,,,,,,,,,,,,,,,,,,,,,,,,,,,,,,,,,,,,,,,
12250,80973.2878,,,,,,Frage 2,,,,,,,,,,,,,,,,,,,,,,,,,,,,,,,,,,,,,,,,,,,,,,,,,,,,,,,,,,,,,,,,,,,,,1.0,-1.0,-1.0,-1.0,-1.0,-1.0,-1.0,81019.77799999999,-1.0,-1.0,-1.0,-1.0,-1.0,-1.0,4.0,4.0,1.0,,,937.0,876.0,464.892608642578,78.1978333104678,2436.36233211293,,,,,,,,,424.0,1.0,80952.4779,81044.1581,91.6802000000025,14.1388967152316,443.964473420207,34703.0820107622,-29921.0830962138,262.707031679639
12251,80981.6306,,,,,,Frage 2,,,,,,,,,,,,,,,,,,,,,,,,,,,,,,,,,,,,,,,,,,,,,,,,,,,,,,,,,,,,,,,,,,,,,1.0,-1.0,-1.0,-1.0,-1.0,-1.0,-1.0,81028.11999999998,-1.0,-1.0,-1.0,-1.0,-1.0,-1.0,4.0,4.0,1.0,,,949.0,863.0,464.830993652344,78.607966139584,49.160093627596,,,,,,,,,424.0,1.0,80952.4779,81044.1581,91.6802000000025,14.1388967152316,443.964473420207,34703.0820107622,-29921.0830962138,262.707031679639
12252,80989.9509,,,,,,Frage 2,,,,,,,,,,,,,,,,,,,,,,,,,,,,,,,,,,,,,,,,,,,,,,,,,,,,,,,,,,,,,,,,,,,,,1.0,-1.0,-1.0,961.0,850.0,-1.0,-1.0,81036.44099999998,-1.0,464.7693786621094,-1.0,-1.0,0.4650920033454895,0.3852914571762085,4.0,0.0,1.0,961.0,850.0,961.0,850.0,464.769378662109,367.348019393456,34703.0820107622,,,,,,,,,424.0,1.0,80952.4779,81044.1581,91.6802000000025,14.1388967152316,443.964473420207,34703.0820107622,-29921.0830962138,262.707031679639
12253,80998.3218,,,,,,Frage 2,,,,,,,,,,,,,,,,,,,,,,,,,,,,,,,,,,,,,,,,,,,,,,,,,,,,,,,,,,,,,,,,,,,,,1.0,-1.0,-1.0,888.0,711.0,-1.0,-1.0,81044.81100000002,-1.0,464.1715698242188,-1.0,-1.0,0.465976595878601,0.38438481092453,4.0,0.0,1.0,888.0,711.0,888.0,711.0,464.171569824219,443.964473420207,9152.71404827063,,,,,,,,,424.0,1.0,80952.4779,81044.1581,91.6802000000025,14.1388967152316,443.964473420207,34703.0820107622,-29921.0830962138,262.707031679639
12254,81004.0139,,,,,,Frage 2,1.0,4.0,0.0564963333308696,0.0001396159495925,0.0638220086693763,0.053398210555315,99.97516632080078,0.0110695697367191,0.0673661530017852,99.97939300537107,96.0924072265625,0.0712971612811088,0.7925934195518493,0.0,97.62870788574217,0.7925934195518493,0.2020619064569473,97.50969696044922,0.0175432991236448,0.0,1.6669206619262695,0.000233465587371,0.0593614242970943,4.487730026245117,1.5546165741398e-05,0.0007504678796976,2.2079400878283195e-05,47.916698455810554,0.0712971612811088,4.738241672515869,95.7821044921875,8.192358016967773,99.47396087646483,2.014118194580078,13.81986141204834,0.0,6.0,-32.559513092041016,-3.4113082885742188,-1.0573936700820925,136.33778381347656,1.0,4.0,640.0,480.0,0.0,281.6607666015625,292.1073913574219,1.0,437.76272583007807,448.2093505859375,2.0,289.41082763671875,328.2640991210937,3.0,425.3971557617188,318.4808654785156,4.0,364.208984375,387.309326171875,5.0,364.3272399902344,446.57913208007807,,,,,,,,,,,,,,,,,,,,,,,,,,,,,,,,,,,,,,,,,,,,,,,
12255,81006.6077,,,,,,Frage 2,,,,,,,,,,,,,,,,,,,,,,,,,,,,,,,,,,,,,,,,,,,,,,,,,,,,,,,,,,,,,,,,,,,,,1.0,-1.0,-1.0,-1.0,-1.0,-1.0,-1.0,81053.09700000001,-1.0,-1.0,-1.0,-1.0,-1.0,-1.0,4.0,4.0,1.0,,,887.25,668.0,464.301696777344,196.041370993647,-29921.0830962138,,,,,,,,,424.0,1.0,80952.4779,81044.1581,91.6802000000025,14.1388967152316,443.964473420207,34703.0820107622,-29921.0830962138,262.707031679639
12256,81015.0312,,,,,,Frage 2,,,,,,,,,,,,,,,,,,,,,,,,,,,,,,,,,,,,,,,,,,,,,,,,,,,,,,,,,,,,,,,,,,,,,1.0,-1.0,-1.0,-1.0,-1.0,-1.0,-1.0,81061.521,-1.0,-1.0,-1.0,-1.0,-1.0,-1.0,4.0,4.0,1.0,,,886.5,625.0,464.431823730469,197.304168822953,149.91367356868,,,,,,,,,424.0,1.0,80952.4779,81044.1581,91.6802000000025,14.1388967152316,443.964473420207,34703.0820107622,-29921.0830962138,262.707031679639
12257,81023.2726,,,,,,Frage 2,,,,,,,,,,,,,,,,,,,,,,,,,,,,,,,,,,,,,,,,,,,,,,,,,,,,,,,,,,,,,,,,,,,,,1.0,-1.0,-1.0,-1.0,-1.0,-1.0,-1.0,81069.76000000001,-1.0,-1.0,-1.0,-1.0,-1.0,-1.0,4.0,4.0,1.0,,,885.75,582.0,464.561950683594,198.486983127089,143.521040616408,,,,,,,,,424.0,1.0,80952.4779,81044.1581,91.6802000000025,14.1388967152316,443.964473420207,34703.0820107622,-29921.0830962138,262.707031679639
12258,81031.6318,,,,,,Frage 2,,,,,,,,,,,,,,,,,,,,,,,,,,,,,,,,,,,,,,,,,,,,,,,,,,,,,,,,,,,,,,,,,,,,,1.0,885.0,539.0,-1.0,-1.0,3.717987060546875,-1.0,81078.12100000001,464.6920776367188,-1.0,0.6724172234535217,0.3686546683311462,-1.0,-1.0,0.0,4.0,1.0,885.0,539.0,885.0,539.0,464.692077636719,114.290754283879,-10072.2830944525,,,,,,,,,424.0,1.0,80952.4779,81044.1581,91.6802000000025,14.1388967152316,443.964473420207,34703.0820107622,-29921.0830962138,262.707031679639
12259,81036.0859,,,,,,Frage 2,1.0,5.0,0.0569393001496791,0.0001121081368182,0.0655714347958564,0.0573652200400829,99.97513580322264,0.0112815778702497,0.0661866962909698,99.97956085205078,96.76409149169922,0.0743847712874412,0.7120417356491088,0.0,97.48672485351561,0.7120417356491088,0.1886802166700363,97.39599609375,0.0142101813107728,0.0,1.392408013343811,0.000296017533401,0.0692953020334243,4.066915035247803,1.926227378135081e-05,0.0004385949869174,2.3337646780419163e-05,52.49673080444336,0.0743847712874412,3.740600824356079,95.2704620361328,6.704702854156494,99.52398681640624,0.0,16.228683471679688,0.0,6.0,-34.11863327026367,-3.709349393844605,-0.4261643290519714,136.51760864257812,1.0,5.0,640.0,480.0,0.0,281.12799072265625,292.2274780273437,1.0,436.9149169921875,448.014404296875,2.0,289.2503356933594,327.6471252441406,3.0,425.48443603515625,318.8534545898437,4.0,363.91156005859375,388.3663024902344,5.0,362.32962036132807,445.6168823242188,,,,,,,,,,,,,,,,,,,,,,,,,,,,,,,,,,,,,,,,,,,,,,,
12260,81040.049,,,,,,Frage 2,,,,,,,,,,,,,,,,,,,,,,,,,,,,,,,,,,,,,,,,,,,,,,,,,,,,,,,,,,,,,,,,,,,,,1.0,-1.0,-1.0,-1.0,-1.0,-1.0,-1.0,81086.53899999999,-1.0,-1.0,-1.0,-1.0,-1.0,-1.0,4.0,4.0,1.0,,,878.5,532.5,464.515579223633,42.3355669328754,-8548.5894776215,,,,,,,,,424.0,1.0,80952.4779,81044.1581,91.6802000000025,14.1388967152316,443.964473420207,34703.0820107622,-29921.0830962138,262.707031679639
12261,81048.2672,,,,,,Frage 2,,,,,,,,,,,,,,,,,,,,,,,,,,,,,,,,,,,,,,,,,,,,,,,,,,,,,,,,,,,,,,,,,,,,,1.0,872.0,526.0,-1.0,-1.0,-1.0,-1.0,81094.75599999998,464.3390808105469,-1.0,0.6733555793762207,0.3680326342582702,-1.0,-1.0,0.0,4.0,1.0,872.0,526.0,872.0,526.0,464.339080810547,18.1163134510902,-2947.02653644064,,,,,,,,,,,,,,,,,,
12262,81056.6268,,,,,,Frage 2,,,,,,,,,,,,,,,,,,,,,,,,,,,,,,,,,,,,,,,,,,,,,,,,,,,,,,,,,,,,,,,,,,,,,1.0,-1.0,-1.0,-1.0,-1.0,-1.0,-1.0,81103.117,-1.0,-1.0,-1.0,-1.0,-1.0,-1.0,4.0,4.0,1.0,,,874.666666666667,525.666666666667,464.253733317057,12.348516701047,-689.960853395596,,,,,,,,,,,,,,,,,,
12263,81064.9365,,,,,,Frage 2,,,,,,,,,,,,,,,,,,,,,,,,,,,,,,,,,,,,,,,,,,,,,,,,,,,,,,,,,,,,,,,,,,,,,1.0,-1.0,-1.0,-1.0,-1.0,-1.0,-1.0,81111.426,-1.0,-1.0,-1.0,-1.0,-1.0,-1.0,4.0,4.0,1.0,,,877.333333333333,525.333333333333,464.168385823568,12.3524628364318,0.474883014406603,,,,,,,,,,,,,,,,,,
12264,81068.2806,,,,,,Frage 2,1.0,6.0,0.0518791303038597,0.0001115633494919,0.0473307855427265,0.0594481937587261,99.97468566894531,0.0113882571458816,0.0659035518765449,99.97966003417967,97.30520629882812,0.0792209133505821,0.5908877849578857,0.0,97.1307144165039,0.5908877849578857,0.1706337332725524,97.02283477783203,0.0151475202292203,0.0,0.7622959613800048,0.0004424773505888,0.0792209133505821,3.97192907333374,2.3423490347340703e-05,0.0004420947807375,2.384633080509957e-05,54.305278778076165,0.0766893178224563,3.078460931777954,95.13239288330078,5.573691368103027,99.5545654296875,0.0,10.951567649841309,0.0,6.0,-33.14712905883789,-4.390026092529297,-0.5152612924575805,135.39830017089844,1.0,6.0,640.0,480.0,0.0,281.7442321777344,292.3118591308594,1.0,437.140625,447.708251953125,2.0,290.2032165527344,329.0135498046875,3.0,425.18853759765625,318.446533203125,4.0,365.01458740234375,387.3201904296875,5.0,362.93548583984375,445.2598571777344,,,,,,,,,,,,,,,,,,,,,,,,,,,,,,,,,,,,,,,,,,,,,,,
12265,81073.2971,,,,,,Frage 2,,,,,,,,,,,,,,,,,,,,,,,,,,,,,,,,,,,,,,,,,,,,,,,,,,,,,,,,,,,,,,,,,,,,,1.0,880.0,525.0,-1.0,-1.0,-1.0,-1.0,81119.78700000001,464.08303833007807,-1.0,0.674702763557434,0.3670490384101867,-1.0,-1.0,0.0,4.0,1.0,880.0,525.0,880.0,525.0,464.083038330078,84.1578225107127,8588.5414532786,,,,,,,,,425.0,2.0,81069.1168,81085.7861,16.6693000000087,1.46848265993168,96.1165515043306,8588.5414532786,,227.121096396662
12266,81081.6368,,,,,,Frage 2,,,,,,,,,,,,,,,,,,,,,,,,,,,,,,,,,,,,,,,,,,,,,,,,,,,,,,,,,,,,,,,,,,,,,1.0,854.0,497.0,-1.0,-1.0,3.247314453125,-1.0,81128.12600000003,464.1087951660156,-1.0,0.6749731302261353,0.366786241531372,-1.0,-1.0,0.0,4.0,1.0,854.0,497.0,854.0,497.0,464.108795166016,96.1165515043306,1433.95193995257,,,,,,,,,425.0,2.0,81069.1168,81085.7861,16.6693000000087,1.46848265993168,96.1165515043306,8588.5414532786,,227.121096396662
12267,81089.9354,,,,,,Frage 2,,,,,,,,,,,,,,,,,,,,,,,,,,,,,,,,,,,,,,,,,,,,,,,,,,,,,,,,,,,,,,,,,,,,,1.0,-1.0,-1.0,-1.0,-1.0,-1.0,-1.0,81136.42199999998,-1.0,-1.0,-1.0,-1.0,-1.0,-1.0,4.0,4.0,1.0,,,852.0,494.0,463.998611450195,16.5576880610781,-9587.02232221875,,,,,,,,,,,,,,,,,,
12268,81098.2911,,,,,,Frage 2,,,,,,,,,,,,,,,,,,,,,,,,,,,,,,,,,,,,,,,,,,,,,,,,,,,,,,,,,,,,,,,,,,,,,1.0,850.0,491.0,-1.0,-1.0,-1.0,-1.0,81144.78100000002,463.888427734375,-1.0,0.6760274171829223,0.3660371303558349,-1.0,-1.0,0.0,4.0,1.0,850.0,491.0,850.0,491.0,463.888427734375,55.1765547605505,4621.8589345563,,,,,,,,,426.0,3.0,81094.11325,81152.4369,58.3236500000057,1.90977565361102,107.883566423391,7323.06148169645,-6335.53451981954,27.5972958686437
12269,81100.5516,,,,,,Frage 2,1.0,7.0,0.0549951344728469,0.0001113204998546,0.0768545195460319,0.0585305616259574,99.97541046142578,0.010972642339766,0.0658681690692901,99.97974395751952,96.30624389648435,0.0757805779576301,0.5655208230018615,0.0,97.46147155761719,0.5655208230018615,0.1493502408266067,97.4822769165039,0.0128596657887101,0.0,0.3098076283931732,0.0006142475758679,0.0757805779576301,3.983590841293335,2.5816067136474885e-05,0.0003620839561335,2.68960720859468e-05,56.2642936706543,0.0724533200263977,2.788503408432007,95.16242980957033,7.965845108032226,99.58226776123048,0.0,18.259218215942383,0.0,6.0,-34.89523696899414,-3.7606496810913086,0.4359908103942871,135.63352966308594,1.0,7.0,640.0,480.0,0.0,280.5920104980469,290.2731018066406,1.0,439.4435424804688,449.1246337890625,2.0,291.6593017578125,327.4025573730469,3.0,426.89108276367193,316.9709167480469,4.0,365.00872802734375,388.69241333007807,5.0,361.50299072265625,445.7295837402344,,,,,,,,,,,,,,,,,,,,,,,,,,,,,,,,,,,,,,,,,,,,,,,
12270,81106.6868,,,,,,Frage 2,,,,,,,,,,,,,,,,,,,,,,,,,,,,,,,,,,,,,,,,,,,,,,,,,,,,,,,,,,,,,,,,,,,,,1.0,-1.0,-1.0,-1.0,-1.0,-1.0,-1.0,81153.176,-1.0,-1.0,-1.0,-1.0,-1.0,-1.0,4.0,4.0,1.0,,,854.5,470.0,463.753494262695,98.7163305347928,5185.96135810893,,,,,,,,,426.0,3.0,81094.11325,81152.4369,58.3236500000057,1.90977565361102,107.883566423391,7323.06148169645,-6335.53451981954,27.5972958686437
12271,81114.9576,,,,,,Frage 2,,,,,,,,,,,,,,,,,,,,,,,,,,,,,,,,,,,,,,,,,,,,,,,,,,,,,,,,,,,,,,,,,,,,,1.0,-1.0,-1.0,859.0,449.0,-1.0,-1.0,81161.448,-1.0,463.6185607910156,-1.0,-1.0,0.4712680280208587,0.3775971829891204,4.0,0.0,1.0,859.0,449.0,859.0,449.0,463.618560791016,46.3163916282794,-6335.53451981954,,,,,,,,,426.0,3.0,81094.11325,81152.4369,58.3236500000057,1.90977565361102,107.883566423391,7323.06148169645,-6335.53451981954,27.5972958686437
12272,81123.3649,,,,,,Frage 2,,,,,,,,,,,,,,,,,,,,,,,,,,,,,,,,,,,,,,,,,,,,,,,,,,,,,,,,,,,,,,,,,,,,,1.0,852.0,490.0,-1.0,-1.0,-1.0,-1.0,81169.85399999998,463.65374755859375,-1.0,0.6776325702667236,0.3650833964347839,-1.0,-1.0,0.0,4.0,1.0,852.0,490.0,852.0,490.0,463.653747558594,107.883566423391,7323.06148169645,,,,,,,,,426.0,3.0,81094.11325,81152.4369,58.3236500000057,1.90977565361102,107.883566423391,7323.06148169645,-6335.53451981954,27.5972958686437
12273,81131.5912,,,,,,Frage 2,,,,,,,,,,,,,,,,,,,,,,,,,,,,,,,,,,,,,,,,,,,,,,,,,,,,,,,,,,,,,,,,,,,,,1.0,-1.0,-1.0,-1.0,-1.0,-1.0,-1.0,81178.08000000002,-1.0,-1.0,-1.0,-1.0,-1.0,-1.0,4.0,4.0,1.0,,,868.0,495.0,463.62760925293,77.3792217610307,-3708.14882296781,,,,,,,,,426.0,3.0,81094.11325,81152.4369,58.3236500000057,1.90977565361102,107.883566423391,7323.06148169645,-6335.53451981954,27.5972958686437
12274,81132.2282,,,,,,Frage 2,1.0,8.0,0.0597889870405197,0.000111194764031,0.1097521856427192,0.0600465163588523,99.97517395019533,0.0107643343508243,0.066001608967781,99.97977447509763,95.93511199951173,0.0777975916862487,0.5245258212089537,0.0,97.87316131591797,0.5245258212089537,0.1290627419948577,97.29257965087889,0.0121892048045992,0.0,0.0182040836662054,0.001015750109218,0.0753573551774024,4.052498817443848,2.55342874879716e-05,0.0003206462424714,3.4683696867432445e-05,59.80717086791992,0.0777975916862487,3.064302921295166,94.95486450195312,8.893535614013672,99.59044647216798,0.0,24.608457565307617,0.0,6.0,-36.20786285400391,-2.8548154830932617,0.1496276259422302,139.51800537109375,1.0,8.0,640.0,480.0,0.0,281.23883056640625,289.2733154296875,1.0,440.2242736816406,448.2587585449218,2.0,290.14605712890625,326.78399658203125,3.0,429.2134704589844,315.5800170898437,4.0,364.8299560546875,388.7320556640625,5.0,362.83511352539057,443.968017578125,,,,,,,,,,,,,,,,,,,,,,,,,,,,,,,,,,,,,,,,,,,,,,,
12275,81139.9558,,,,,,Frage 2,,,,,,,,,,,,,,,,,,,,,,,,,,,,,,,,,,,,,,,,,,,,,,,,,,,,,,,,,,,,,,,,,,,,,1.0,-1.0,-1.0,884.0,500.0,-1.0,-1.0,81186.44599999998,-1.0,463.6014709472656,-1.0,-1.0,0.4733001589775085,0.3759374022483825,4.0,0.0,1.0,884.0,500.0,884.0,500.0,463.601470947266,73.9727886662497,-407.24399191601,,,,,,,,,426.0,3.0,81094.11325,81152.4369,58.3236500000057,1.90977565361102,107.883566423391,7323.06148169645,-6335.53451981954,27.5972958686437
12276,81148.2846,,,,,,Frage 2,,,,,,,,,,,,,,,,,,,,,,,,,,,,,,,,,,,,,,,,,,,,,,,,,,,,,,,,,,,,,,,,,,,,,1.0,894.0,514.0,-1.0,-1.0,-1.0,-1.0,81194.774,463.55279541015625,-1.0,0.6796392202377319,0.3647884130477905,-1.0,-1.0,0.0,4.0,1.0,894.0,514.0,894.0,514.0,463.552795410156,30.9637903503961,-5163.8889534913,,,,,,,,,426.0,3.0,81094.11325,81152.4369,58.3236500000057,1.90977565361102,107.883566423391,7323.06148169645,-6335.53451981954,27.5972958686437
12277,81156.5892,,,,,,Frage 2,,,,,,,,,,,,,,,,,,,,,,,,,,,,,,,,,,,,,,,,,,,,,,,,,,,,,,,,,,,,,,,,,,,,,1.0,-1.0,-1.0,-1.0,-1.0,-1.0,-1.0,81203.07800000002,-1.0,-1.0,-1.0,-1.0,-1.0,-1.0,4.0,4.0,1.0,,,890.0,512.0,463.575134277344,20.6270035268736,-1244.7061656815,,,,,,,,,,,,,,,,,,
12278,81164.4185,,,,,,Frage 2,1.0,9.0,0.0659013837575912,0.0001115146369556,0.209728866815567,0.0559627786278724,99.97460174560547,0.0102762607857584,0.0664445608854293,99.97966766357422,94.80642700195312,0.0905766636133193,0.5295016169548034,0.0,97.6271514892578,0.5295016169548034,0.1174667328596115,96.95238494873048,0.0120752993971109,0.0,0.0404377430677413,0.0019877105951309,0.0711803585290908,4.227935314178467,2.768735430436209e-05,0.0005257901502773,4.665643791668117e-05,58.41607666015625,0.0905766636133193,2.8289756774902344,94.53791046142578,11.553071022033691,99.55764770507811,0.0,35.175540924072266,0.0,6.0,-34.39981460571289,-3.414669752120972,0.2192480862140655,139.12924194335938,1.0,9.0,640.0,480.0,0.0,281.0050048828125,287.7942810058594,1.0,441.7886962890625,448.5780029296875,2.0,291.0115661621094,324.8973693847656,3.0,429.8079223632813,315.27886962890625,4.0,366.1145324707031,387.0937194824218,5.0,363.37103271484375,445.474609375,,,,,,,,,,,,,,,,,,,,,,,,,,,,,,,,,,,,,,,,,,,,,,,
12279,81164.9265,,,,,,Frage 2,,,,,,,,,,,,,,,,,,,,,,,,,,,,,,,,,,,,,,,,,,,,,,,,,,,,,,,,,,,,,,,,,,,,,1.0,-1.0,-1.0,886.0,510.0,-1.0,-1.0,81211.41599999998,-1.0,463.5974731445313,-1.0,-1.0,0.4757362306118011,0.3745850920677185,4.0,0.0,1.0,886.0,510.0,886.0,510.0,463.597473144531,39.0867015589525,2214.10984756223,,,,,,,,,427.0,4.0,81160.75785,81252.41105,91.6532000000007,16.2160560100153,406.796040098383,16397.0039871221,-23180.9543974087,191.972128826048
12280,81173.2917,,,,,,Frage 2,,,,,,,,,,,,,,,,,,,,,,,,,,,,,,,,,,,,,,,,,,,,,,,,,,,,,,,,,,,,,,,,,,,,,1.0,907.0,512.0,-1.0,-1.0,-1.0,-1.0,81219.78100000002,463.4586486816406,-1.0,0.6820319890975952,0.3650240302085876,-1.0,-1.0,0.0,4.0,1.0,907.0,512.0,907.0,512.0,463.458648681641,48.344987635241,1106.76207099511,,,,,,,,,427.0,4.0,81160.75785,81252.41105,91.6532000000007,16.2160560100153,406.796040098383,16397.0039871221,-23180.9543974087,191.972128826048
12281,81181.6159,,,,,,Frage 2,,,,,,,,,,,,,,,,,,,,,,,,,,,,,,,,,,,,,,,,,,,,,,,,,,,,,,,,,,,,,,,,,,,,,1.0,-1.0,-1.0,877.0,491.0,-1.0,3.436859130859375,81228.106,-1.0,463.7035217285156,-1.0,-1.0,0.4774823188781738,0.3739810585975647,4.0,0.0,1.0,877.0,491.0,877.0,491.0,463.703521728516,65.3679109271157,2044.99210637287,,,,,,,,,427.0,4.0,81160.75785,81252.41105,91.6532000000007,16.2160560100153,406.796040098383,16397.0039871221,-23180.9543974087,191.972128826048
12282,81189.9211,,,,,,Frage 2,,,,,,,,,,,,,,,,,,,,,,,,,,,,,,,,,,,,,,,,,,,,,,,,,,,,,,,,,,,,,,,,,,,,,1.0,883.0,527.0,-1.0,-1.0,-1.0,-1.0,81236.41,463.41751098632807,-1.0,0.6832739114761353,0.3657963871955871,-1.0,-1.0,0.0,4.0,1.0,883.0,527.0,883.0,527.0,463.417510986328,117.995354516759,6336.68588229397,,,,,,,,,427.0,4.0,81160.75785,81252.41105,91.6532000000007,16.2160560100153,406.796040098383,16397.0039871221,-23180.9543974087,191.972128826048
12283,81196.033,,,,,,Frage 2,1.0,10.0,0.0826716050505638,0.0001117488427553,0.6289496421813964,0.0506982021033763,99.97506713867188,0.0096961054950952,0.0672944784164428,99.97958374023438,93.18632507324217,0.0974182188510894,0.5340151786804199,0.0,97.18404388427734,0.5340151786804199,0.1137998476624488,97.3319091796875,0.0137092163786292,0.0,0.1380746662616729,0.003374951891601,0.0818240791559219,4.524829864501953,2.7091256924904883e-05,0.0005050721229054,5.161466833669692e-05,56.06866455078125,0.0974182188510894,3.364280939102173,94.27429962158205,15.364699363708496,99.53241729736328,0.0,53.57421112060546,0.0,6.0,-33.99318313598633,-4.293473243713378,0.3562420904636383,138.2022247314453,1.0,10.0,640.0,480.0,0.0,283.05474853515625,287.399169921875,1.0,443.5347290039063,447.879150390625,2.0,293.5135498046875,324.6802978515625,3.0,431.3698120117188,314.9075927734375,4.0,368.9625244140625,386.1407470703125,5.0,365.0008239746094,444.8280029296875,,,,,,,,,,,,,,,,,,,,,,,,,,,,,,,,,,,,,,,,,,,,,,,
12284,81198.2492,,,,,,Frage 2,,,,,,,,,,,,,,,,,,,,,,,,,,,,,,,,,,,,,,,,,,,,,,,,,,,,,,,,,,,,,,,,,,,,,1.0,874.0,542.0,-1.0,-1.0,-1.0,-1.0,81244.739,463.3752746582031,-1.0,0.6848023533821106,0.3657991886138916,-1.0,-1.0,0.0,4.0,1.0,874.0,542.0,874.0,542.0,463.375274658203,129.058121771327,1328.36628457503,,,,,,,,,427.0,4.0,81160.75785,81252.41105,91.6532000000007,16.2160560100153,406.796040098383,16397.0039871221,-23180.9543974087,191.972128826048
12285,81206.5853,,,,,,Frage 2,,,,,,,,,,,,,,,,,,,,,,,,,,,,,,,,,,,,,,,,,,,,,,,,,,,,,,,,,,,,,,,,,,,,,1.0,-1.0,-1.0,-1.0,-1.0,-1.0,-1.0,81253.07399999998,-1.0,-1.0,-1.0,-1.0,-1.0,-1.0,4.0,4.0,1.0,,,833.5,500.5,463.509063720703,265.745186708383,16397.0039871221,,,,,,,,,427.0,4.0,81160.75785,81252.41105,91.6532000000007,16.2160560100153,406.796040098383,16397.0039871221,-23180.9543974087,191.972128826048
12286,81214.9182,,,,,,Frage 2,,,,,,,,,,,,,,,,,,,,,,,,,,,,,,,,,,,,,,,,,,,,,,,,,,,,,,,,,,,,,,,,,,,,,1.0,-1.0,-1.0,793.0,459.0,-1.0,-1.0,81261.40799999998,-1.0,463.6428527832031,-1.0,-1.0,0.4833039045333862,0.3727088570594787,4.0,0.0,1.0,793.0,459.0,793.0,459.0,463.642852783203,242.976590942871,-2732.37357528933,,,,,,,,,427.0,4.0,81160.75785,81252.41105,91.6532000000007,16.2160560100153,406.796040098383,16397.0039871221,-23180.9543974087,191.972128826048
12287,81223.2842,,,,,,Frage 2,,,,,,,,,,,,,,,,,,,,,,,,,,,,,,,,,,,,,,,,,,,,,,,,,,,,,,,,,,,,,,,,,,,,,1.0,732.0,442.0,741.0,468.0,-1.0,-1.0,81269.774,463.26416015625,463.6971740722656,0.689559519290924,0.3676075935363769,0.485848993062973,0.3724088072776794,0.0,0.0,1.0,736.5,455.0,736.5,455.0,463.480667114258,334.227195591101,10907.3158795468,,,,,,,,,427.0,4.0,81160.75785,81252.41105,91.6532000000007,16.2160560100153,406.796040098383,16397.0039871221,-23180.9543974087,191.972128826048
12288,81228.1901,,,,,,Frage 2,1.0,11.0,0.0877205431461334,0.0001120741435443,0.6524301171302795,0.051619280129671,99.9747314453125,0.0099039617925882,0.0689758881926536,99.97938537597656,93.78270721435547,0.0968190804123878,0.4969761073589325,0.0,96.71855163574217,0.4969761073589325,0.138754516839981,97.21436309814452,0.0177446752786636,0.0,0.077437050640583,0.0050617484375834,0.076075792312622,5.09662675857544,3.217018456780352e-05,0.0008209762745536,6.35859978501685e-05,56.20232772827149,0.0968190804123878,3.6608045101165767,93.86713409423827,14.00425148010254,99.47299194335936,0.0,55.899658203125,0.0,6.0,-32.622291564941406,-5.082398414611816,0.4648419320583343,136.01905822753906,1.0,11.0,640.0,480.0,0.0,282.23712158203125,285.31024169921875,1.0,445.4820556640625,448.55514526367193,2.0,295.2789306640625,323.0262756347656,3.0,430.9566040039063,313.3955078125,4.0,370.3059387207031,384.8015747070313,5.0,365.34323120117193,446.5073852539063,,,,,,,,,,,,,,,,,,,,,,,,,,,,,,,,,,,,,,,,,,,,,,,
12289,81231.5817,,,,,,Frage 2,,,,,,,,,,,,,,,,,,,,,,,,,,,,,,,,,,,,,,,,,,,,,,,,,,,,,,,,,,,,,,,,,,,,,1.0,-1.0,-1.0,-1.0,-1.0,-1.0,-1.0,81278.07099999998,-1.0,-1.0,-1.0,-1.0,-1.0,-1.0,4.0,4.0,1.0,,,644.25,452.0,463.589561462402,406.796040098383,8745.86857574898,,,,,,,,,427.0,4.0,81160.75785,81252.41105,91.6532000000007,16.2160560100153,406.796040098383,16397.0039871221,-23180.9543974087,191.972128826048
12290,81239.943,,,,,,Frage 2,,,,,,,,,,,,,,,,,,,,,,,,,,,,,,,,,,,,,,,,,,,,,,,,,,,,,,,,,,,,,,,,,,,,,1.0,-1.0,-1.0,552.0,449.0,-1.0,-1.0,81286.43299999999,-1.0,463.6984558105469,-1.0,-1.0,0.4899798929691314,0.3719696104526519,4.0,0.0,1.0,552.0,449.0,552.0,449.0,463.698455810547,376.388960056878,-3636.64502427728,,,,,,,,,427.0,4.0,81160.75785,81252.41105,91.6532000000007,16.2160560100153,406.796040098383,16397.0039871221,-23180.9543974087,191.972128826048
12291,81248.2461,,,,,,Frage 2,,,,,,,,,,,,,,,,,,,,,,,,,,,,,,,,,,,,,,,,,,,,,,,,,,,,,,,,,,,,,,,,,,,,,1.0,-1.0,-1.0,471.0,422.0,-1.0,-1.0,81294.73500000002,-1.0,463.205078125,-1.0,-1.0,0.4923850893974304,0.3719109296798706,4.0,0.0,1.0,471.0,422.0,471.0,422.0,463.205078125,183.915177599647,-23180.9543974087,,,,,,,,,427.0,4.0,81160.75785,81252.41105,91.6532000000007,16.2160560100153,406.796040098383,16397.0039871221,-23180.9543974087,191.972128826048
12292,81256.576,,,,,,Frage 2,,,,,,,,,,,,,,,,,,,,,,,,,,,,,,,,,,,,,,,,,,,,,,,,,,,,,,,,,,,,,,,,,,,,,1.0,-1.0,-1.0,-1.0,-1.0,-1.0,-1.0,81303.06599999998,-1.0,-1.0,-1.0,-1.0,-1.0,-1.0,4.0,4.0,1.0,,,470.5,418.5,463.218826293945,15.3588108228782,-20235.1008747799,83.0,1.0,474.213469949814,423.975375481703,81252.41105,81385.75875,133.347700000013,0.628545226705809,,,,,,,,,,
12293,81264.9134,,,,,,Frage 2,,,,,,,,,,,,,,,,,,,,,,,,,,,,,,,,,,,,,,,,,,,,,,,,,,,,,,,,,,,,,,,,,,,,,1.0,-1.0,-1.0,470.0,415.0,-1.0,-1.0,81311.40299999999,-1.0,463.23257446289057,-1.0,-1.0,0.4966285824775695,0.3718921244144439,4.0,0.0,1.0,470.0,415.0,470.0,415.0,463.232574462891,47.3027645502116,3831.40472177395,83.0,1.0,474.213469949814,423.975375481703,81252.41105,81385.75875,133.347700000013,0.628545226705809,,,,,,,,,,
12294,81273.263,,,,,,Frage 2,,,,,,,,,,,,,,,,,,,,,,,,,,,,,,,,,,,,,,,,,,,,,,,,,,,,,,,,,,,,,,,,,,,,,1.0,-1.0,-1.0,474.0,440.0,-1.0,-1.0,81319.733,-1.0,464.0188903808594,-1.0,-1.0,0.4996238350868225,0.371840476989746,4.0,0.0,1.0,474.0,440.0,474.0,440.0,464.018890380859,54.4342420568709,854.110077926866,83.0,1.0,474.213469949814,423.975375481703,81252.41105,81385.75875,133.347700000013,0.628545226705809,,,,,,,,,,
12295,81276.7167,,,,,,Frage 2,1.0,12.0,0.1041109189391136,0.0001128030853578,1.4521883726119995,0.0470555424690246,99.97528076171876,0.0095029911026358,0.0717143416404724,99.97911071777344,92.49021911621091,0.0985082909464836,0.5138269662857055,0.0,96.93785858154298,0.5138269662857055,0.1521018743515014,97.76752471923827,0.0246080532670021,0.0,0.0884208604693412,0.0077236196957528,0.0771776586771011,6.014581680297852,4.309611540520564e-05,0.0011254861019551,8.551446080673486e-05,53.485061645507805,0.0985082909464836,4.4488959312438965,93.37493133544922,17.029296875,99.38772583007811,0.0,69.3058090209961,0.0,6.0,-32.44500732421875,-4.725212097167969,0.7852261066436766,141.3080291748047,1.0,12.0,640.0,480.0,0.0,283.6971435546875,284.1585388183594,1.0,446.9569091796875,447.4182739257813,2.0,294.4132995605469,322.42529296875,3.0,435.4124145507813,313.0867919921875,4.0,371.65374755859375,383.28656005859375,5.0,366.15533447265625,444.35498046875,,,,,,,,,,,,,,,,,,,,,,,,,,,,,,,,,,,,,,,,,,,,,,,
12296,81281.6061,,,,,,Frage 2,,,,,,,,,,,,,,,,,,,,,,,,,,,,,,,,,,,,,,,,,,,,,,,,,,,,,,,,,,,,,,,,,,,,,1.0,-1.0,-1.0,-1.0,-1.0,-1.0,-1.0,81328.09599999999,-1.0,-1.0,-1.0,-1.0,-1.0,-1.0,4.0,4.0,1.0,,,471.5,440.0,464.232070922852,10.3780263617506,-5280.5570705289,83.0,1.0,474.213469949814,423.975375481703,81252.41105,81385.75875,133.347700000013,0.628545226705809,,,,,,,,,,
12297,81289.9503,,,,,,Frage 2,,,,,,,,,,,,,,,,,,,,,,,,,,,,,,,,,,,,,,,,,,,,,,,,,,,,,,,,,,,,,,,,,,,,,1.0,-1.0,-1.0,469.0,440.0,-1.0,-1.0,81336.43900000001,-1.0,464.44525146484375,-1.0,-1.0,0.5048544406890869,0.3717960715293884,4.0,0.0,1.0,469.0,440.0,469.0,440.0,464.445251464844,5.30450589347098,-608.029585614476,83.0,1.0,474.213469949814,423.975375481703,81252.41105,81385.75875,133.347700000013,0.628545226705809,,,,,,,,,,
12298,81298.2745,,,,,,Frage 2,,,,,,,,,,,,,,,,,,,,,,,,,,,,,,,,,,,,,,,,,,,,,,,,,,,,,,,,,,,,,,,,,,,,,1.0,-1.0,-1.0,-1.0,-1.0,-1.0,-1.0,81344.76399999998,-1.0,-1.0,-1.0,-1.0,-1.0,-1.0,4.0,4.0,1.0,,,469.333333333333,438.666666666667,464.490946451823,6.0100689051147,84.7604588601288,83.0,1.0,474.213469949814,423.975375481703,81252.41105,81385.75875,133.347700000013,0.628545226705809,,,,,,,,,,
12299,81306.5984,,,,,,Frage 2,,,,,,,,,,,,,,,,,,,,,,,,,,,,,,,,,,,,,,,,,,,,,,,,,,,,,,,,,,,,,,,,,,,,,1.0,-1.0,-1.0,-1.0,-1.0,-1.0,-1.0,81353.089,-1.0,-1.0,-1.0,-1.0,-1.0,-1.0,4.0,4.0,1.0,,,469.666666666667,437.333333333333,464.536641438802,6.0072210578984,-0.342128955933544,83.0,1.0,474.213469949814,423.975375481703,81252.41105,81385.75875,133.347700000013,0.628545226705809,,,,,,,,,,
12300,81308.7608,,,,,,Frage 2,1.0,13.0,0.1089943945407867,0.0001136008941102,1.9807975292205808,0.0433145686984062,99.97557830810547,0.0092816436663269,0.0747349485754966,99.97879791259763,91.69802856445312,0.0948150157928466,0.5348750352859497,0.0,96.88233184814452,0.5348750352859497,0.1601961553096771,98.15544891357422,0.0346563421189785,0.0,0.1315504014492034,0.0116273155435919,0.0621798299252986,7.00847864151001,5.199969746172428e-05,0.001415203558281,0.0001140013628173,50.82806015014648,0.0948150157928466,4.9943623542785645,92.36662292480467,18.87491607666016,99.2980728149414,0.0,74.37705230712889,0.0,6.0,-29.84658432006836,-4.817950248718262,0.8983440399169921,138.5181427001953,1.0,13.0,640.0,480.0,0.0,284.5690612792969,283.0718078613281,1.0,448.34375,446.8464965820313,2.0,297.0483093261719,321.4501037597656,3.0,435.2904052734375,312.7094421386719,4.0,372.7730712890625,380.651123046875,5.0,367.030517578125,445.0259399414063,,,,,,,,,,,,,,,,,,,,,,,,,,,,,,,,,,,,,,,,,,,,,,,
12301,81314.9294,,,,,,Frage 2,,,,,,,,,,,,,,,,,,,,,,,,,,,,,,,,,,,,,,,,,,,,,,,,,,,,,,,,,,,,,,,,,,,,,1.0,-1.0,-1.0,470.0,436.0,-1.0,-1.0,81361.41899999998,-1.0,464.5823364257813,-1.0,-1.0,0.5136690139770507,0.3722585439682006,4.0,0.0,1.0,470.0,436.0,470.0,436.0,464.582336425781,72.5833689616859,7991.37533355649,83.0,1.0,474.213469949814,423.975375481703,81252.41105,81385.75875,133.347700000013,0.628545226705809,,,,,,,,,,
12302,81320.7277,,,,,,Frage 2,,,,,,,,,,,,,,,,,,,,,,,,,,,,,,,,,,,,,,,,,,,,,,,,,,,,,,,,,,,,,,,,1.0,27.7270374298096,31.4007102596999,24.5789394378662,478.48828125,,,,,,,,,,,,,,,,,,,,,,,,,,,,,,,,,,,,,,,,,,
12303,81323.3037,,,,,,Frage 2,,,,,,,,,,,,,,,,,,,,,,,,,,,,,,,,,,,,,,,,,,,,,,,,,,,,,,,,,,,,,,,,,,,,,1.0,-1.0,-1.0,481.0,406.0,-1.0,-1.0,81369.79399999998,-1.0,464.6403198242188,-1.0,-1.0,0.5167995691299438,0.3724429011344909,4.0,0.0,1.0,481.0,406.0,481.0,406.0,464.640319824219,72.8154606464248,27.7147564260401,83.0,1.0,474.213469949814,423.975375481703,81252.41105,81385.75875,133.347700000013,0.628545226705809,,,,,,,,,,
12304,81331.6144,,,,,,Frage 2,,,,,,,,,,,,,,,,,,,,,,,,,,,,,,,,,,,,,,,,,,,,,,,,,,,,,,,,,,,,,,,,,,,,,1.0,-1.0,-1.0,-1.0,-1.0,-1.0,-1.0,81378.10399999998,-1.0,-1.0,-1.0,-1.0,-1.0,-1.0,4.0,4.0,1.0,,,479.5,404.0,463.344848632813,10.6094806147992,-7485.04699142214,83.0,1.0,474.213469949814,423.975375481703,81252.41105,81385.75875,133.347700000013,0.628545226705809,,,,,,,,,,
12305,81339.9444,,,,,,Frage 2,,,,,,,,,,,,,,,,,,,,,,,,,,,,,,,,,,,,,,,,,,,,,,,,,,,,,,,,,,,,,,,,,,,,,1.0,-1.0,-1.0,478.0,402.0,-1.0,-1.0,81386.434,-1.0,462.0493774414063,-1.0,-1.0,0.5209667086601257,0.3731205463409423,4.0,0.0,1.0,478.0,402.0,478.0,402.0,462.049377441406,8.50221530593382,-252.973026274738,83.0,1.0,474.213469949814,423.975375481703,81252.41105,81385.75875,133.347700000013,0.628545226705809,,,,,,,,,,
12306,81339.9787,,,,,,Frage 2,1.0,14.0,0.1218036189675331,0.000114220107207,2.0558316707611084,0.0405874103307724,99.97532653808592,0.0096486052498221,0.0776478350162506,99.97854614257811,92.63381958007811,0.0834149047732353,0.5335311293601989,0.0,96.48553466796876,0.5335311293601989,0.1572471112012863,98.11954498291016,0.0434543527662754,0.0,0.0181430354714393,0.0163198672235012,0.0570419318974018,7.93022871017456,6.161162309581414e-05,0.0024325535632669,0.0001346819917671,45.69715118408203,0.0834149047732353,6.407641410827637,90.57931518554688,16.665756225585938,99.22611236572264,0.0,78.4811248779297,0.0,6.0,-33.089702606201165,-5.43746280670166,2.405343532562256,140.44180297851565,1.0,14.0,640.0,480.0,0.0,285.680419921875,281.322265625,1.0,451.77194213867193,447.413818359375,2.0,299.97509765625,320.3674621582032,3.0,440.1393432617188,311.54229736328125,4.0,375.97412109375,382.44677734375,5.0,366.0640258789063,443.1155395507813,,,,,,,,,,,,,,,,,,,,,,,,,,,,,,,,,,,,,,,,,,,,,,,
12307,81348.2725,,,,,,Frage 2,,,,,,,,,,,,,,,,,,,,,,,,,,,,,,,,,,,,,,,,,,,,,,,,,,,,,,,,,,,,,,,,,,,,,1.0,-1.0,-1.0,477.0,407.0,-1.0,-1.0,81394.763,-1.0,457.5103454589844,-1.0,-1.0,0.5233895778656005,0.3731794953346252,4.0,0.0,1.0,477.0,407.0,477.0,407.0,457.510345458984,22.5681650624499,1688.97464685745,83.0,1.0,474.213469949814,423.975375481703,81252.41105,81385.75875,133.347700000013,0.628545226705809,,,,,,,,,,
12308,81356.594,,,,,,Frage 2,,,,,,,,,,,,,,,,,,,,,,,,,,,,,,,,,,,,,,,,,,,,,,,,,,,,,,,,,,,,,,,,,,,,,1.0,-1.0,-1.0,-1.0,-1.0,-1.0,-1.0,81403.084,-1.0,-1.0,-1.0,-1.0,-1.0,-1.0,4.0,4.0,1.0,,,480.5,412.0,457.078994750977,26.2449997041882,441.847580573496,83.0,1.0,474.213469949814,423.975375481703,81252.41105,81385.75875,133.347700000013,0.628545226705809,,,,,,,,,,
12309,81364.9424,,,,,,Frage 2,,,,,,,,,,,,,,,,,,,,,,,,,,,,,,,,,,,,,,,,,,,,,,,,,,,,,,,,,,,,,,,,,,,,,1.0,-1.0,-1.0,484.0,417.0,-1.0,-1.0,81411.43299999999,-1.0,456.6476440429688,-1.0,-1.0,0.5255849361419677,0.3734010457992553,4.0,0.0,1.0,484.0,417.0,484.0,417.0,456.647644042969,59.907107336717,4032.16276562195,83.0,1.0,474.213469949814,423.975375481703,81252.41105,81385.75875,133.347700000013,0.628545226705809,,,,,,,,,,
12310,81372.4314,,,,,,Frage 2,1.0,15.0,0.1158451065421104,0.0001150878379121,1.3891342878341677,0.0386662669479846,99.97451782226561,0.0103212790563702,0.083158366382122,99.97821807861328,94.30845642089844,0.0760052129626274,0.5453039407730103,0.0,95.54500579833984,0.5453039407730103,0.1624830216169357,97.7485122680664,0.0524497367441654,0.0,0.0123787261545658,0.0209713876247406,0.0760052129626274,9.548221588134766,5.577997580985539e-05,0.0040874029509723,0.0001697265543043,38.58205795288086,0.0746666193008422,5.238368511199951,89.34931945800781,12.684096336364746,99.1273956298828,0.0,75.24162292480467,0.0,6.0,-35.81425857543945,-6.672134876251221,3.036792993545532,143.5479278564453,1.0,15.0,640.0,480.0,0.0,288.4418029785156,280.8505859375,1.0,455.6861572265625,448.094970703125,2.0,302.4688720703125,320.11822509765625,3.0,445.7415466308594,311.2328491210937,4.0,380.958984375,384.6563720703125,5.0,367.9815368652344,441.8836669921875,,,,,,,,,,,,,,,,,,,,,,,,,,,,,,,,,,,,,,,,,,,,,,,
12311,81373.2316,,,,,,Frage 2,,,,,,,,,,,,,,,,,,,,,,,,,,,,,,,,,,,,,,,,,,,,,,,,,,,,,,,,,,,,,,,,,,,,,1.0,-1.0,-1.0,481.0,439.0,-1.0,-1.0,81419.72099999999,-1.0,455.6435241699218,-1.0,-1.0,0.5266237258911132,0.3734873831272125,4.0,0.0,1.0,481.0,439.0,481.0,439.0,455.643524169922,51.0764858158863,-1065.31649867677,83.0,1.0,474.213469949814,423.975375481703,81252.41105,81385.75875,133.347700000013,0.628545226705809,,,,,,,,,,
12312,81381.5911,,,,,,Frage 2,,,,,,,,,,,,,,,,,,,,,,,,,,,,,,,,,,,,,,,,,,,,,,,,,,,,,,,,,,,,,,,,,,,,,1.0,-1.0,-1.0,-1.0,-1.0,-1.0,-1.0,81428.081,-1.0,-1.0,-1.0,-1.0,-1.0,-1.0,4.0,4.0,1.0,,,476.0,438.5,456.862091064453,21.1196301807975,-3583.57026557421,83.0,1.0,474.213469949814,423.975375481703,81252.41105,81385.75875,133.347700000013,0.628545226705809,,,,,,,,,,
12313,81389.9264,,,,,,Frage 2,,,,,,,,,,,,,,,,,,,,,,,,,,,,,,,,,,,,,,,,,,,,,,,,,,,,,,,,,,,,,,,,,,,,,1.0,-1.0,-1.0,471.0,438.0,-1.0,-1.0,81436.41599999998,-1.0,458.0806579589844,-1.0,-1.0,0.5270084738731384,0.3735846281051635,4.0,0.0,1.0,471.0,438.0,471.0,438.0,458.080657958984,128.984332471978,12940.7102673317,,,,,,,,,428.0,5.0,81385.75875,81435.74165,49.9828999999882,8.13563552028653,230.573658443569,12940.7102673317,-13625.7407688742,163.734308766807
12314,81398.2286,,,,,,Frage 2,,,,,,,,,,,,,,,,,,,,,,,,,,,,,,,,,,,,,,,,,,,,,,,,,,,,,,,,,,,,,,,,,,,,,1.0,-1.0,-1.0,414.0,437.0,-1.0,-1.0,81444.717,-1.0,456.7224731445313,-1.0,-1.0,0.5280221700668335,0.3737477362155914,4.0,0.0,1.0,414.0,437.0,414.0,437.0,456.722473144531,200.697453026106,8637.84545711746,,,,,,,,,428.0,5.0,81385.75875,81435.74165,49.9828999999882,8.13563552028653,230.573658443569,12940.7102673317,-13625.7407688742,163.734308766807
12315,81404.7018,,,,,,Frage 2,1.0,16.0,0.0991702303290367,0.0001163940542028,0.6028139591217041,0.0354672260582447,99.97270965576175,0.011151285842061,0.0927676707506179,99.97772216796876,96.27650451660156,0.0953259244561195,0.604599118232727,0.0,95.8918228149414,0.604599118232727,0.1794461458921432,96.80141448974608,0.0581865943968296,0.0,0.0244602393358945,0.0204562898725271,0.0953259244561195,12.139188766479492,5.6343807955272496e-05,0.0119303222745656,0.0002382199309067,29.56925201416016,0.0721370875835418,4.620199680328369,86.7265625,7.948948383331299,98.99101257324217,0.0,64.78158569335938,0.0,6.0,-36.54494094848633,-6.248794078826904,3.685827016830444,139.25038146972656,1.0,16.0,640.0,480.0,0.0,294.6956787109375,283.6948547363281,1.0,459.9494323730469,448.9486083984375,2.0,310.439697265625,320.0822448730469,3.0,449.5849609375,314.67254638671875,4.0,385.54925537109375,387.2478637695313,5.0,371.9429321289063,443.2842712402344,,,,,,,,,,,,,,,,,,,,,,,,,,,,,,,,,,,,,,,,,,,,,,,
12316,81406.5896,,,,,,Frage 2,,,,,,,,,,,,,,,,,,,,,,,,,,,,,,,,,,,,,,,,,,,,,,,,,,,,,,,,,,,,,,,,,,,,,1.0,-1.0,-1.0,-1.0,-1.0,-1.0,-1.0,81453.08000000002,-1.0,-1.0,-1.0,-1.0,-1.0,-1.0,4.0,4.0,1.0,,,374.0,443.5,457.36003112793,164.210942531223,-4363.89313417814,,,,,,,,,428.0,5.0,81385.75875,81435.74165,49.9828999999882,8.13563552028653,230.573658443569,12940.7102673317,-13625.7407688742,163.734308766807
12317,81414.9089,,,,,,Frage 2,,,,,,,,,,,,,,,,,,,,,,,,,,,,,,,,,,,,,,,,,,,,,,,,,,,,,,,,,,,,,,,,,,,,,1.0,-1.0,-1.0,334.0,450.0,-1.0,-1.0,81461.39800000002,-1.0,457.99758911132807,-1.0,-1.0,0.5278648734092712,0.373875468969345,4.0,0.0,1.0,334.0,450.0,334.0,450.0,457.997589111328,230.573658443569,7976.95910863162,,,,,,,,,428.0,5.0,81385.75875,81435.74165,49.9828999999882,8.13563552028653,230.573658443569,12940.7102673317,-13625.7407688742,163.734308766807
12318,81423.2555,,,,,,Frage 2,,,,,,,,,,,,,,,,,,,,,,,,,,,,,,,,,,,,,,,,,,,,,,,,,,,,,,,,,,,,,,,,,,,,,1.0,-1.0,-1.0,267.0,486.0,-1.0,-1.0,81469.74499999998,-1.0,456.6471862792969,-1.0,-1.0,0.5277851819992065,0.3735168576240539,4.0,0.0,1.0,267.0,486.0,267.0,486.0,456.647186279297,159.992707024691,-8456.25181736766,,,,,,,,,428.0,5.0,81385.75875,81435.74165,49.9828999999882,8.13563552028653,230.573658443569,12940.7102673317,-13625.7407688742,163.734308766807
12319,81431.5884,,,,,,Frage 2,,,,,,,,,,,,,,,,,,,,,,,,,,,,,,,,,,,,,,,,,,,,,,,,,,,,,,,,,,,,,,,,,,,,,1.0,-1.0,-1.0,-1.0,-1.0,-1.0,-1.0,81478.07800000002,-1.0,-1.0,-1.0,-1.0,-1.0,-1.0,4.0,4.0,1.0,,,270.5,496.5,456.082153320313,46.4507717718215,-13625.7407688742,,,,,,,,,428.0,5.0,81385.75875,81435.74165,49.9828999999882,8.13563552028653,230.573658443569,12940.7102673317,-13625.7407688742,163.734308766807
12320,81435.8701,,,,,,Frage 2,1.0,17.0,0.0767884105443954,0.0001172118791146,0.2261828631162643,0.0339852608740329,99.96971130371091,0.0116656748577952,0.1058050319552421,99.97734069824217,97.77286529541016,0.1150996088981628,0.5800369977951049,0.0,95.01814270019533,0.5800369977951049,0.1952864676713943,95.16886138916016,0.0488396398723125,0.0,0.0039313253946602,0.0224669016897678,0.1150996088981628,15.260698318481444,5.2244657126721e-05,0.0221872217953205,0.0003829868510365,23.40807342529297,0.062567189335823,3.043135166168213,85.56460571289062,4.437870025634766,98.88419342041016,0.0,49.32798004150391,0.0,6.0,-37.28649139404297,-7.2586846351623535,3.605754137039185,142.31472778320312,1.0,17.0,640.0,480.0,0.0,298.4022827148437,282.7738647460937,1.0,464.6044921875,448.97607421875,2.0,313.0771484375,320.4657287597656,3.0,455.219970703125,313.4729919433594,4.0,391.0576171875,387.2976684570313,5.0,376.2130737304688,442.2634887695313,,,,,,,,,,,,,,,,,,,,,,,,,,,,,,,,,,,,,,,,,,,,,,,
12321,81439.8949,,,,,,Frage 2,,,,,,,,,,,,,,,,,,,,,,,,,,,,,,,,,,,,,,,,,,,,,,,,,,,,,,,,,,,,,,,,,,,,,1.0,-1.0,-1.0,274.0,507.0,-1.0,-1.0,81486.38399999999,-1.0,455.51712036132807,-1.0,-1.0,0.5260486602783203,0.3729559779167175,4.0,0.0,1.0,274.0,507.0,274.0,507.0,455.517120361328,13.8775343396456,-3921.415449606,,,,,,,,,,,,,,,,,,
12322,81448.2225,,,,,,Frage 2,,,,,,,,,,,,,,,,,,,,,,,,,,,,,,,,,,,,,,,,,,,,,,,,,,,,,,,,,,,,,,,,,,,,,1.0,-1.0,-1.0,271.0,490.0,-1.0,-1.0,81494.71300000003,-1.0,453.9078369140625,-1.0,-1.0,0.5255450010299682,0.3728309273719787,4.0,0.0,1.0,271.0,490.0,271.0,490.0,453.907836914063,27.8410865085013,1676.77988482261,,,,,,,,,,,,,,,,,,
12323,81456.555,,,,,,Frage 2,,,,,,,,,,,,,,,,,,,,,,,,,,,,,,,,,,,,,,,,,,,,,,,,,,,,,,,,,,,,,,,,,,,,,1.0,-1.0,-1.0,-1.0,-1.0,-1.0,-1.0,81503.04399999998,-1.0,-1.0,-1.0,-1.0,-1.0,-1.0,4.0,4.0,1.0,,,272.5,494.0,453.361129760742,17.9407168639429,-1188.16317366587,,,,,,,,,,,,,,,,,,
12324,81464.8932,,,,,,Frage 2,,,,,,,,,,,,,,,,,,,,,,,,,,,,,,,,,,,,,,,,,,,,,,,,,,,,,,,,,,,,,,,,,,,,,1.0,-1.0,-1.0,274.0,498.0,-1.0,-1.0,81511.38200000001,-1.0,452.8144226074218,-1.0,-1.0,0.5235457420349121,0.3723160624504089,4.0,0.0,1.0,274.0,498.0,274.0,498.0,452.814422607422,18.4774909551746,64.3752957749752,,,,,,,,,,,,,,,,,,
12325,81468.2468,,,,,,Frage 2,1.0,18.0,0.0661366358399391,0.0001188894311781,0.1488429009914398,0.031783252954483,99.96360778808592,0.011435049585998,0.1171280741691589,99.97665405273438,97.71645355224608,0.1479604393243789,0.6338284611701965,0.0,93.80778503417967,0.6338284611701965,0.2349394112825393,92.29644775390624,0.0484300106763839,0.0,0.0031235194765031,0.0238365959376096,0.1479604393243789,17.629613876342773,5.1101520512020215e-05,0.0452118627727031,0.0005837901844643,17.602630615234375,0.0551268048584461,2.2592992782592773,85.61299133300781,4.476041316986084,98.69943237304688,0.0,40.76105880737305,0.0,6.0,-35.06342315673828,-8.410226821899414,3.8216969966888423,140.24977111816406,1.0,18.0,640.0,480.0,0.0,299.9737548828125,281.8915710449219,1.0,469.2072143554688,451.125,2.0,317.4196472167969,321.3974914550781,3.0,457.4143676757813,312.94317626953125,4.0,395.3283081054688,386.421142578125,5.0,378.9374694824218,445.27142333984375,,,,,,,,,,,,,,,,,,,,,,,,,,,,,,,,,,,,,,,,,,,,,,,
12326,81473.221,,,,,,Frage 2,,,,,,,,,,,,,,,,,,,,,,,,,,,,,,,,,,,,,,,,,,,,,,,,,,,,,,,,,,,,,,,,,,,,,1.0,-1.0,-1.0,278.0,487.0,-1.0,-1.0,81519.70999999998,-1.0,452.7440185546875,-1.0,-1.0,0.5228292346000671,0.372283399105072,4.0,0.0,1.0,278.0,487.0,278.0,487.0,452.744018554688,26.9212067733428,1013.91914048957,,,,,,,,,,,,,,,,,,
12327,81481.5519,,,,,,Frage 2,,,,,,,,,,,,,,,,,,,,,,,,,,,,,,,,,,,,,,,,,,,,,,,,,,,,,,,,,,,,,,,,,,,,,1.0,-1.0,-1.0,-1.0,-1.0,-1.0,-1.0,81528.04099999998,-1.0,-1.0,-1.0,-1.0,-1.0,-1.0,4.0,4.0,1.0,,,281.5,487.5,452.905685424805,13.6884932188663,-1588.38943625241,,,,,,,,,,,,,,,,,,
12328,81489.9206,,,,,,Frage 2,,,,,,,,,,,,,,,,,,,,,,,,,,,,,,,,,,,,,,,,,,,,,,,,,,,,,,,,,,,,,,,,,,,,,1.0,-1.0,-1.0,285.0,488.0,-1.0,-1.0,81536.40900000001,-1.0,453.0673522949218,-1.0,-1.0,0.5206353664398193,0.3723517656326293,4.0,0.0,1.0,285.0,488.0,285.0,488.0,453.067352294922,80.2512422140729,7953.77406231216,,,,,,,,,429.0,6.0,81485.73625,81502.39695,16.6606999999931,1.46069382088651,80.2512422140729,7953.77406231216,-1154.54606061562,94.6354634269026
12329,81498.2178,,,,,,Frage 2,,,,,,,,,,,,,,,,,,,,,,,,,,,,,,,,,,,,,,,,,,,,,,,,,,,,,,,,,,,,,,,,,,,,,1.0,-1.0,-1.0,282.0,525.0,-1.0,-1.0,81544.706,-1.0,453.4910888671875,-1.0,-1.0,0.519740879535675,0.3723736405372619,4.0,0.0,1.0,282.0,525.0,282.0,525.0,453.491088867188,70.6717426399319,-1154.54606061562,,,,,,,,,429.0,6.0,81485.73625,81502.39695,16.6606999999931,1.46069382088651,80.2512422140729,7953.77406231216,-1154.54606061562,94.6354634269026
12330,81500.2799,,,,,,Frage 2,1.0,19.0,0.0726643279194831,0.0001209993715747,0.2203898429870605,0.0299779791384935,99.96018981933594,0.0111535396426916,0.1438376307487487,99.97602081298828,96.92686462402345,0.170591652393341,0.8138292431831359,0.0,92.84951019287107,0.8138292431831359,0.2175497114658355,91.04325103759763,0.0385023094713687,0.0,0.0057394923642277,0.0236068069934844,0.170591652393341,22.56103515625,4.6548440877813846e-05,0.039634071290493,0.0008016534266062,12.660826683044434,0.0479741729795932,2.2994961738586426,86.81565856933594,6.110913276672363,98.53067779541016,0.0,46.090518951416016,0.0,6.0,-39.26794052124024,-9.18100357055664,3.663613557815552,138.26150512695312,1.0,19.0,640.0,480.0,0.0,303.1398010253906,283.05670166015625,1.0,468.4289245605469,448.3458251953125,2.0,319.40966796875,321.0256042480469,3.0,457.3723754882813,311.9406433105469,4.0,397.2176513671875,388.7453002929688,5.0,380.5710144042969,441.0935363769531,,,,,,,,,,,,,,,,,,,,,,,,,,,,,,,,,,,,,,,,,,,,,,,
12331,81506.5761,,,,,,Frage 2,,,,,,,,,,,,,,,,,,,,,,,,,,,,,,,,,,,,,,,,,,,,,,,,,,,,,,,,,,,,,,,,,,,,,1.0,-1.0,-1.0,-1.0,-1.0,-1.0,-1.0,81553.06599999998,-1.0,-1.0,-1.0,-1.0,-1.0,-1.0,4.0,4.0,1.0,,,285.0,521.0,453.674057006836,20.7600622499414,-5971.51099983823,,,,,,,,,,,,,,,,,,
12332,81514.8876,,,,,,Frage 2,,,,,,,,,,,,,,,,,,,,,,,,,,,,,,,,,,,,,,,,,,,,,,,,,,,,,,,,,,,,,,,,,,,,,1.0,-1.0,-1.0,288.0,517.0,-1.0,-1.0,81561.377,-1.0,453.8570251464844,-1.0,-1.0,0.5175514221191406,0.3723721206188201,4.0,0.0,1.0,288.0,517.0,288.0,517.0,453.857025146484,5.78797726656766,-1801.36978684722,,,,,,,,,,,,,,,,,,
12333,81523.2325,,,,,,Frage 2,,,,,,,,,,,,,,,,,,,,,,,,,,,,,,,,,,,,,,,,,,,,,,,,,,,,,,,,,,,,,,,,,,,,,1.0,-1.0,-1.0,-1.0,-1.0,-1.0,-1.0,81569.72200000001,-1.0,-1.0,-1.0,-1.0,-1.0,-1.0,4.0,4.0,1.0,,,287.333333333333,519.333333333333,453.906066894531,10.3208446096134,543.190133260754,,,,,,,,,,,,,,,,,,
12334,81531.5773,,,,,,Frage 2,,,,,,,,,,,,,,,,,,,,,,,,,,,,,,,,,,,,,,,,,,,,,,,,,,,,,,,,,,,,,,,,,,,,,1.0,-1.0,-1.0,-1.0,-1.0,-1.0,-1.0,81578.06700000001,-1.0,-1.0,-1.0,-1.0,-1.0,-1.0,4.0,4.0,1.0,,,286.666666666667,521.666666666667,453.955108642578,10.3293585843323,1.02027307053029,,,,,,,,,,,,,,,,,,
12335,81532.1977,,,,,,Frage 2,1.0,20.0,0.0762854143977165,0.0001233366929227,0.3217139840126037,0.0284537766128778,99.95838165283203,0.010782497934997,0.1808887273073196,99.97506713867188,95.90126800537107,0.1305255889892578,0.8827883005142211,0.0,92.62494659423827,0.8827883005142211,0.2410475313663482,90.728515625,0.0306123103946447,0.0,0.0130895311012864,0.0215872004628181,0.1305255889892578,28.08924674987793,4.139709562878125e-05,0.0218701176345348,0.001015055924654,9.763823509216307,0.0442522317171096,2.049835443496704,87.64950561523438,8.477978706359863,98.29073333740233,0.0,50.58513641357422,0.0,6.0,-35.73743438720703,-9.347723960876465,4.446457386016846,131.56704711914065,1.0,20.0,640.0,480.0,0.0,302.047119140625,284.09698486328125,1.0,465.6813354492188,447.731201171875,2.0,321.46002197265625,321.1903076171875,3.0,452.839599609375,314.1693725585937,4.0,395.00201416015625,385.9797973632813,5.0,377.29302978515625,442.31683349609375,,,,,,,,,,,,,,,,,,,,,,,,,,,,,,,,,,,,,,,,,,,,,,,
12336,81539.9018,,,,,,Frage 2,,,,,,,,,,,,,,,,,,,,,,,,,,,,,,,,,,,,,,,,,,,,,,,,,,,,,,,,,,,,,,,,,,,,,1.0,-1.0,-1.0,286.0,524.0,-1.0,-1.0,81586.391,-1.0,454.004150390625,-1.0,-1.0,0.5145114660263062,0.37223482131958,4.0,0.0,1.0,286.0,524.0,286.0,524.0,454.004150390625,45.1009749550498,4177.0216073887,,,,,,,,,430.0,7.0,81535.73955,81660.7001,124.960550000003,13.734023533034,526.538951134956,24828.1950968323,-40502.5367095332,359.026227827502
