Row,Timestamp,EventSource,SlideEvent,StimType,Duration,CollectionPhase,SourceStimuliName,EventSource.1,SampleNumber,Anger,Contempt,Disgust,Fear,Joy,Sadness,Surprise,Engagement,Valence,Sentimentality,Confusion,Neutral,Attention,Brow Furrow,Brow Raise,Cheek Raise,Chin Raise,Dimpler,Eye Closure,Eye Widen,Inner Brow Raise,Jaw Drop,Lip Corner Depressor,Lip Press,Lip Pucker,Lip Stretch,Lip Suck,Lid Tighten,Mouth Open,Nose Wrinkle,Smile,Smirk,Upper Lip Raise,Blink,BlinkRate,Pitch,Yaw,Roll,Interocular Distance,EventSource.2,SampleNumber.1,width,height,feature id_1,feature-x_1,feature-y_1,feature id_2,feature-x_2,feature-y_2,feature id_3,feature-x_3,feature-y_3,feature id_4,feature-x_4,feature-y_4,feature id_5,feature-x_5,feature-y_5,feature id_6,feature-x_6,feature-y_6,EventSource.3,CPU Sys,Memory Sys,CPU Proc,Memory Proc,EventSource.4,ET_GazeLeftx,ET_GazeLefty,ET_GazeRightx,ET_GazeRighty,ET_PupilLeft,ET_PupilRight,ET_TimeSignal,ET_DistanceLeft,ET_DistanceRight,ET_CameraLeftX,ET_CameraLeftY,ET_CameraRightX,ET_CameraRightY,ET_ValidityLeft,ET_ValidityRight,EventSource.5,Gaze X,Gaze Y,Interpolated Gaze X,Interpolated Gaze Y,Interpolated Distance,Gaze Velocity,Gaze Acceleration,Fixation Index,Fixation Index by Stimulus,Fixation X,Fixation Y,Fixation Start,Fixation End,Fixation Duration,Fixation Dispersion,Saccade Index,Saccade Index by Stimulus,Saccade Start,Saccade End,Saccade Duration,Saccade Amplitude,Saccade Peak Velocity,Saccade Peak Acceleration,Saccade Peak Deceleration,Saccade Direction
1,40.5248,1.0,StartSlide,TestImage,90000.0,StimuliDisplay,Frage 1,1.0,-1.0,0.0364808365702629,0.0001693669619271,0.0183820128440856,0.0303310398012399,92.27392578125,0.005776016972959,0.0596125088632106,99.94474029541016,94.98219299316406,0.0455617867410182,0.0455617867410182,0.0,94.98526000976561,0.0455617867410182,1.5822118520736694,6.899672031402588,0.0008981766877695,0.0,0.042722500860691,0.0006740263197571,0.1451217234134674,0.0848659574985504,1.4109472431300674e-05,0.0014850655570626,0.006358734332025,1.1112016439437866,0.0117845460772514,0.174666553735733,81.81458282470702,1.9508184194564815,93.33592987060547,0.0,0.4171371459960937,0.0,0.0,-15.857437133789064,-7.293298244476318,1.8642973899841309,87.6583251953125,1.0,-1.0,640.0,480.0,0.0,293.1093444824219,260.87213134765625,1.0,414.74945068359375,387.2750244140625,2.0,310.5447082519532,286.2626037597656,3.0,398.2030029296875,286.3359069824219,4.0,359.740234375,326.8951721191406,5.0,353.0404663085937,387.2750244140625,,,,,,,,,,,,,,,,,,,,,,,,,,,,,,,,,,,,,,,,,,,,,,,
2,42.4362,,,,,,Frage 1,,,,,,,,,,,,,,,,,,,,,,,,,,,,,,,,,,,,,,,,,,,,,,,,,,,,,,,,,,,,,,,,,,,,,1.0,-1.0,-1.0,-1.0,-1.0,-1.0,-1.0,216.60499999999595,-1.0,-1.0,-1.0,-1.0,-1.0,-1.0,4.0,4.0,1.0,,,910.0,561.75,665.732650756836,72.266669246032,-20171.9122724591,,,,,,,,,1.0,,4.96005,46.6028,41.64275,4.23044620863658,240.276509372116,16031.7725009042,-20171.9122724591,323.96594722818
3,50.7694,,,,,,Frage 1,,,,,,,,,,,,,,,,,,,,,,,,,,,,,,,,,,,,,,,,,,,,,,,,,,,,,,,,,,,,,,,,,,,,,1.0,925.0,545.0,-1.0,-1.0,-1.0,-1.0,224.9389999999985,669.1805419921875,-1.0,0.638587236404419,0.6338609457015991,-1.0,-1.0,0.0,4.0,1.0,925.0,545.0,925.0,545.0,669.180541992188,13.4821127651523,-7054.25964585991,,,,,,,,,,,,,,,,,,
4,59.1521,,,,,,Frage 1,,,,,,,,,,,,,,,,,,,,,,,,,,,,,,,,,,,,,,,,,,,,,,,,,,,,,,,,,,,,,,,,,,,,,1.0,917.0,557.0,-1.0,-1.0,5.111984252929688,-1.0,233.32099999999627,669.5098876953125,-1.0,0.6385828852653503,0.6338754892349243,-1.0,-1.0,0.0,4.0,1.0,917.0,557.0,917.0,557.0,669.509887695313,63.5075971666861,5967.70544115068,,,,,,,,,2.0,,54.96075,63.31345,8.35270000000001,,63.5075971666861,5967.70544115068,,
5,67.4748,,,,,,Frage 1,,,,,,,,,,,,,,,,,,,,,,,,,,,,,,,,,,,,,,,,,,,,,,,,,,,,,,,,,,,,,,,,,,,,,1.0,-1.0,-1.0,960.0,526.0,-1.0,-1.0,241.64400000000023,-1.0,656.7562255859375,-1.0,-1.0,0.4991014897823333,0.6305242180824279,4.0,0.0,1.0,960.0,526.0,960.0,526.0,656.756225585938,12.7281840868137,-6101.31484732988,,,,,,,,,,,,,,,,,,
6,75.8092,,,,,,Frage 1,,,,,,,,,,,,,,,,,,,,,,,,,,,,,,,,,,,,,,,,,,,,,,,,,,,,,,,,,,,,,,,,,,,,,1.0,912.0,563.0,-1.0,-1.0,-1.0,-1.0,249.9759999999951,669.9628295898438,-1.0,0.6386026740074157,0.6338112950325012,-1.0,-1.0,0.0,4.0,1.0,912.0,563.0,912.0,563.0,669.962829589844,48.1241321241104,4246.97015229612,,,,,,,,,3.0,,71.642,204.9205,133.2785,0.741962396544798,199.659915937467,17653.8886910437,-11835.8573146426,49.3987053549956
7,84.1289,,,,,,Frage 1,,,,,,,,,,,,,,,,,,,,,,,,,,,,,,,,,,,,,,,,,,,,,,,,,,,,,,,,,,,,,,,,,,,,,1.0,-1.0,-1.0,-1.0,-1.0,-1.0,-1.0,258.2960000000021,-1.0,-1.0,-1.0,-1.0,-1.0,-1.0,4.0,4.0,1.0,,,940.0,548.5,663.574829101563,101.868956691964,6459.94742212504,,,,,,,,,3.0,,71.642,204.9205,133.2785,0.741962396544798,199.659915937467,17653.8886910437,-11835.8573146426,49.3987053549956
8,87.0052,,,,,,Frage 1,1.0,-1.0,0.0373763144016265,0.0001720017608022,0.0185488536953926,0.0311082862317562,91.57260131835936,0.0057708965614438,0.0596716292202472,99.9428482055664,94.35832977294922,0.0452256835997104,0.0452256835997104,0.0,94.6273422241211,0.0452256835997104,1.596548080444336,5.64695405960083,0.0008569050696678,0.0,0.0134807657450437,0.0006994980503804,0.1404798179864883,0.0989497676491737,1.0175512215937488e-05,0.0021256811451166,0.0055399783886969,1.1946871280670166,0.0109690129756927,0.1559321135282516,82.40351867675781,1.6460214853286743,93.12520599365233,0.0,0.368048757314682,0.0,0.0,-15.317708015441896,-7.656881809234619,1.6556984186172483,86.81134033203125,1.0,-1.0,640.0,480.0,0.0,293.5880432128906,260.9027099609375,1.0,414.7360229492188,387.02288818359375,2.0,311.0518798828125,286.29168701171875,3.0,397.8631591796875,286.1872863769532,4.0,360.15972900390625,326.40496826171875,5.0,353.571044921875,387.02288818359375,,,,,,,,,,,,,,,,,,,,,,,,,,,,,,,,,,,,,,,,,,,,,,,
9,92.4469,,,,,,Frage 1,,,,,,,,,,,,,,,,,,,,,,,,,,,,,,,,,,,,,,,,,,,,,,,,,,,,,,,,,,,,,,,,,,,,,1.0,-1.0,-1.0,968.0,534.0,-1.0,-1.0,266.61599999999453,-1.0,657.1868286132812,-1.0,-1.0,0.4991644918918609,0.6305343508720397,4.0,0.0,1.0,968.0,534.0,968.0,534.0,657.186828613281,54.1521013559535,-5736.57794373776,,,,,,,,,3.0,,71.642,204.9205,133.2785,0.741962396544798,199.659915937467,17653.8886910437,-11835.8573146426,49.3987053549956
10,100.8208,,,,,,Frage 1,,,,,,,,,,,,,,,,,,,,,,,,,,,,,,,,,,,,,,,,,,,,,,,,,,,,,,,,,,,,,,,,,,,,,1.0,929.0,574.0,1005.0,562.0,-1.0,-1.0,274.99000000000524,670.3677978515625,657.3953247070312,0.6386868953704834,0.6337840557098388,0.4991682469844818,0.6305073499679565,0.0,0.0,1.0,967.0,568.0,967.0,568.0,663.881561279297,67.0043520026486,1534.79867764066,,,,,,,,,3.0,,71.642,204.9205,133.2785,0.741962396544798,199.659915937467,17653.8886910437,-11835.8573146426,49.3987053549956
11,109.1349,,,,,,Frage 1,,,,,,,,,,,,,,,,,,,,,,,,,,,,,,,,,,,,,,,,,,,,,,,,,,,,,,,,,,,,,,,,,,,,,1.0,908.0,583.0,1005.0,565.0,5.080535888671875,4.65435791015625,283.3040000000037,670.8233032226562,657.8935546875,0.6385576725006104,0.633748948574066,0.4991739988327026,0.6305851936340332,0.0,0.0,1.0,956.5,574.0,956.5,574.0,664.358428955078,63.3412817329011,-440.585303249596,,,,,,,,,3.0,,71.642,204.9205,133.2785,0.741962396544798,199.659915937467,17653.8886910437,-11835.8573146426,49.3987053549956
12,112.5845,1.0,StartMedia,TestImage,90000.0,StimuliDisplay,Frage 1,,,,,,,,,,,,,,,,,,,,,,,,,,,,,,,,,,,,,,,,,,,,,,,,,,,,,,,,,,,,,,,,,,,,,,,,,,,,,,,,,,,,,,,,,,,,,,,,,,,,,,,,,,,,,,
13,117.4606,,,,,,Frage 1,,,,,,,,,,,,,,,,,,,,,,,,,,,,,,,,,,,,,,,,,,,,,,,,,,,,,,,,,,,,,,,,,,,,,1.0,-1.0,-1.0,-1.0,-1.0,-1.0,-1.0,291.6290000000008,-1.0,-1.0,-1.0,-1.0,-1.0,-1.0,4.0,4.0,1.0,,,927.75,569.0,667.828048706055,93.5634270605642,3629.98250329259,,,,,,,,,3.0,,71.642,204.9205,133.2785,0.741962396544798,199.659915937467,17653.8886910437,-11835.8573146426,49.3987053549956
14,119.3535,,,,,,Frage 1,1.0,0.0,0.0371524728834629,0.0001733512908685,0.0179709680378437,0.0312413200736045,91.04153442382812,0.0057737207971513,0.0599724166095256,99.94161224365233,93.97859954833984,0.0461509525775909,0.0461509525775909,0.0,94.78347778320312,0.0461509525775909,1.6845823526382446,4.7284483909606925,0.0009656554902903,0.0,0.0018172228010371,0.0008515235967934,0.1534028053283691,0.1185886338353157,8.657004400447475e-06,0.0050682015717029,0.004858411848545,1.4582120180130005,0.0117580890655517,0.1325379461050033,81.74559020996092,1.281486749649048,92.99197387695312,0.0,0.4534848630428314,0.0,0.0,-14.757349014282228,-7.50117588043213,1.262846827507019,88.99319458007811,1.0,0.0,640.0,480.0,0.0,293.0373840332032,260.0076904296875,1.0,414.9227294921875,386.8645629882813,2.0,309.51715087890625,285.9068908691406,3.0,398.5090637207031,285.4299011230469,4.0,359.99200439453125,325.60009765625,5.0,353.9139709472656,386.8645629882813,,,,,,,,,,,,,,,,,,,,,,,,,,,,,,,,,,,,,,,,,,,,,,,
15,125.7898,,,,,,Frage 1,,,,,,,,,,,,,,,,,,,,,,,,,,,,,,,,,,,,,,,,,,,,,,,,,,,,,,,,,,,,,,,,,,,,,1.0,899.0,564.0,-1.0,-1.0,-1.0,-1.0,299.95900000000256,671.2976684570312,-1.0,0.6386377811431884,0.633708119392395,-1.0,-1.0,0.0,4.0,1.0,899.0,564.0,899.0,564.0,671.297668457031,52.4847420868432,-4931.88841349962,,,,,,,,,3.0,,71.642,204.9205,133.2785,0.741962396544798,199.659915937467,17653.8886910437,-11835.8573146426,49.3987053549956
16,134.1265,,,,,,Frage 1,,,,,,,,,,,,,,,,,,,,,,,,,,,,,,,,,,,,,,,,,,,,,,,,,,,,,,,,,,,,,,,,,,,,,1.0,911.0,551.0,1005.0,561.0,5.120635986328125,4.629409790039063,308.2960000000021,671.7315673828125,659.0980224609375,0.6386353373527526,0.6337274312973022,0.4990933239459991,0.6305137872695922,0.0,0.0,1.0,958.0,556.0,958.0,556.0,665.414794921875,199.659915937467,17653.8886910437,,,,,,,,,3.0,,71.642,204.9205,133.2785,0.741962396544798,199.659915937467,17653.8886910437,-11835.8573146426,49.3987053549956
17,142.4554,,,,,,Frage 1,,,,,,,,,,,,,,,,,,,,,,,,,,,,,,,,,,,,,,,,,,,,,,,,,,,,,,,,,,,,,,,,,,,,,1.0,-1.0,-1.0,1022.0,547.0,-1.0,-1.0,316.62399999999616,-1.0,659.454833984375,-1.0,-1.0,0.4990583956241607,0.6304391622543335,4.0,0.0,1.0,1022.0,547.0,1022.0,547.0,659.454833984375,101.08024394954,-11835.8573146426,,,,,,,,,3.0,,71.642,204.9205,133.2785,0.741962396544798,199.659915937467,17653.8886910437,-11835.8573146426,49.3987053549956
18,150.7583,,,,,,Frage 1,,,,,,,,,,,,,,,,,,,,,,,,,,,,,,,,,,,,,,,,,,,,,,,,,,,,,,,,,,,,,,,,,,,,,1.0,-1.0,-1.0,1019.0,544.0,-1.0,-1.0,324.9279999999999,-1.0,659.79736328125,-1.0,-1.0,0.4991069138050079,0.6303440332412719,4.0,0.0,1.0,1019.0,544.0,1019.0,544.0,659.79736328125,87.5902141805826,-1624.73711220865,,,,,,,,,3.0,,71.642,204.9205,133.2785,0.741962396544798,199.659915937467,17653.8886910437,-11835.8573146426,49.3987053549956
19,159.1195,,,,,,Frage 1,,,,,,,,,,,,,,,,,,,,,,,,,,,,,,,,,,,,,,,,,,,,,,,,,,,,,,,,,,,,,,,,,,,,,1.0,916.0,557.0,1020.0,539.0,5.1166839599609375,4.6512298583984375,333.28800000000047,672.1312255859375,659.9846801757812,0.6386569738388062,0.6335894465446472,0.4990902543067932,0.6303977370262146,0.0,0.0,1.0,968.0,548.0,968.0,548.0,666.057952880859,116.812373477316,3494.97192947584,,,,,,,,,3.0,,71.642,204.9205,133.2785,0.741962396544798,199.659915937467,17653.8886910437,-11835.8573146426,49.3987053549956
20,167.4517,,,,,,Frage 1,,,,,,,,,,,,,,,,,,,,,,,,,,,,,,,,,,,,,,,,,,,,,,,,,,,,,,,,,,,,,,,,,,,,,1.0,-1.0,-1.0,968.0,492.0,-1.0,-1.0,341.6209999999992,-1.0,660.1036376953125,-1.0,-1.0,0.4989381730556488,0.6303123235702514,4.0,0.0,1.0,968.0,492.0,968.0,492.0,660.103637695313,55.5574056144141,-7351.59596059887,,,,,,,,,3.0,,71.642,204.9205,133.2785,0.741962396544798,199.659915937467,17653.8886910437,-11835.8573146426,49.3987053549956
21,175.755,,,,,,Frage 1,,,,,,,,,,,,,,,,,,,,,,,,,,,,,,,,,,,,,,,,,,,,,,,,,,,,,,,,,,,,,,,,,,,,,1.0,935.0,557.0,-1.0,-1.0,-1.0,-1.0,349.92500000000285,672.0416870117188,-1.0,0.6385155916213989,0.6335081458091735,-1.0,-1.0,0.0,4.0,1.0,935.0,557.0,935.0,557.0,672.041687011719,62.5500541941837,842.152948799824,,,,,,,,,3.0,,71.642,204.9205,133.2785,0.741962396544798,199.659915937467,17653.8886910437,-11835.8573146426,49.3987053549956
22,184.0919,,,,,,Frage 1,,,,,,,,,,,,,,,,,,,,,,,,,,,,,,,,,,,,,,,,,,,,,,,,,,,,,,,,,,,,,,,,,,,,,1.0,944.0,562.0,969.0,497.0,5.129180908203125,4.6462249755859375,358.2609999999986,671.8648071289064,660.2490844726562,0.6384469270706176,0.6334266662597656,0.498812586069107,0.6302579641342163,0.0,0.0,1.0,956.5,529.5,956.5,529.5,666.056945800781,136.900857200843,8918.27933724274,,,,,,,,,3.0,,71.642,204.9205,133.2785,0.741962396544798,199.659915937467,17653.8886910437,-11835.8573146426,49.3987053549956
23,192.4202,,,,,,Frage 1,,,,,,,,,,,,,,,,,,,,,,,,,,,,,,,,,,,,,,,,,,,,,,,,,,,,,,,,,,,,,,,,,,,,,1.0,-1.0,-1.0,1020.0,551.0,-1.0,-1.0,366.5899999999965,-1.0,660.180419921875,-1.0,-1.0,0.4987700581550598,0.630167245864868,4.0,0.0,1.0,1020.0,551.0,1020.0,551.0,660.180419921875,98.26511860129,-4639.09064269453,,,,,,,,,3.0,,71.642,204.9205,133.2785,0.741962396544798,199.659915937467,17653.8886910437,-11835.8573146426,49.3987053549956
24,200.7514,,,,,,Frage 1,,,,,,,,,,,,,,,,,,,,,,,,,,,,,,,,,,,,,,,,,,,,,,,,,,,,,,,,,,,,,,,,,,,,,1.0,930.0,584.0,-1.0,-1.0,-1.0,-1.0,374.9199999999983,671.4553833007812,-1.0,0.6384088993072509,0.63328617811203,-1.0,-1.0,0.0,4.0,1.0,930.0,584.0,930.0,584.0,671.455383300781,89.2742599298058,-1079.17931048159,,,,,,,,,3.0,,71.642,204.9205,133.2785,0.741962396544798,199.659915937467,17653.8886910437,-11835.8573146426,49.3987053549956
25,209.0896,,,,,,Frage 1,,,,,,,,,,,,,,,,,,,,,,,,,,,,,,,,,,,,,,,,,,,,,,,,,,,,,,,,,,,,,,,,,,,,,1.0,930.0,585.0,998.0,521.0,5.147491455078125,4.63458251953125,383.2569999999978,671.2874755859375,660.1724243164064,0.638453185558319,0.6332893371582031,0.4988064169883728,0.6300700902938842,0.0,0.0,1.0,964.0,553.0,964.0,553.0,665.729949951172,29.6293733867744,-7153.20891115966,,,,,,,,,,,,,,,,,,
26,217.4188,,,,,,Frage 1,,,,,,,,,,,,,,,,,,,,,,,,,,,,,,,,,,,,,,,,,,,,,,,,,,,,,,,,,,,,,,,,,,,,,1.0,-1.0,-1.0,-1.0,-1.0,-1.0,-1.0,391.5880000000034,-1.0,-1.0,-1.0,-1.0,-1.0,-1.0,4.0,4.0,1.0,,,934.0,566.0,668.327590942383,104.448300971904,8982.72674267991,,,,,,,,,4.0,1.0,213.2542,321.60045,108.34625,15.6448875872341,754.061230098157,43131.806847291,-84245.5461208231,203.729862260677
27,225.7928,,,,,,Frage 1,,,,,,,,,,,,,,,,,,,,,,,,,,,,,,,,,,,,,,,,,,,,,,,,,,,,,,,,,,,,,,,,,,,,,1.0,904.0,579.0,-1.0,-1.0,-1.0,-1.0,399.96199999999953,670.9252319335938,-1.0,0.6383197903633117,0.6331164240837097,-1.0,-1.0,0.0,4.0,1.0,904.0,579.0,904.0,579.0,670.925231933594,90.1665272104317,-1705.49005988444,,,,,,,,,4.0,1.0,213.2542,321.60045,108.34625,15.6448875872341,754.061230098157,43131.806847291,-84245.5461208231,203.729862260677
28,234.1676,,,,,,Frage 1,,,,,,,,,,,,,,,,,,,,,,,,,,,,,,,,,,,,,,,,,,,,,,,,,,,,,,,,,,,,,,,,,,,,,1.0,867.0,529.0,953.0,500.0,5.1314544677734375,4.6450958251953125,408.33699999999953,670.835693359375,660.1060180664064,0.6385277509689331,0.6329684257507324,0.4988607764244079,0.629724383354187,0.0,0.0,1.0,910.0,514.5,910.0,514.5,665.470855712891,113.21574383014,2752.21099246644,,,,,,,,,4.0,1.0,213.2542,321.60045,108.34625,15.6448875872341,754.061230098157,43131.806847291,-84245.5461208231,203.729862260677
29,242.47,,,,,,Frage 1,,,,,,,,,,,,,,,,,,,,,,,,,,,,,,,,,,,,,,,,,,,,,,,,,,,,,,,,,,,,,,,,,,,,,1.0,-1.0,-1.0,-1.0,-1.0,-1.0,-1.0,416.6389999999956,-1.0,-1.0,-1.0,-1.0,-1.0,-1.0,4.0,4.0,1.0,,,875.0,514.75,668.100967407227,112.362210589782,-102.805603242187,,,,,,,,,4.0,1.0,213.2542,321.60045,108.34625,15.6448875872341,754.061230098157,43131.806847291,-84245.5461208231,203.729862260677
30,250.772,,,,,,Frage 1,,,,,,,,,,,,,,,,,,,,,,,,,,,,,,,,,,,,,,,,,,,,,,,,,,,,,,,,,,,,,,,,,,,,,1.0,840.0,515.0,-1.0,-1.0,-1.0,-1.0,424.9409999999916,670.7310791015625,-1.0,0.6396019458770752,0.6326115131378173,-1.0,-1.0,0.0,4.0,1.0,840.0,515.0,840.0,515.0,670.731079101563,406.624449294776,35444.7408702716,,,,,,,,,4.0,1.0,213.2542,321.60045,108.34625,15.6448875872341,754.061230098157,43131.806847291,-84245.5461208231,203.729862260677
31,254.3569,,,,,,Frage 1,1.0,1.0,,,,,,,,,,,,,,,,,,,,,,,,,,,,,,,,,,,,,,,,1.0,1.0,640.0,480.0,,,,,,,,,,,,,,,,,,,,,,,,,,,,,,,,,,,,,,,,,,,,,,,,,,,,,,,,,,,,,,,,,
32,256.3484,,,,,,Frage 1,1.0,2.0,,,,,,,,,,,,,,,,,,,,,,,,,,,,,,,,,,,,,,,,1.0,2.0,640.0,480.0,,,,,,,,,,,,,,,,,,,,,,,,,,,,,,,,,,,,,,,,,,,,,,,,,,,,,,,,,,,,,,,,,
33,259.0981,,,,,,Frage 1,,,,,,,,,,,,,,,,,,,,,,,,,,,,,,,,,,,,,,,,,,,,,,,,,,,,,,,,,,,,,,,,,,,,,1.0,618.0,509.0,-1.0,-1.0,5.124435424804688,-1.0,433.2679999999964,670.7630004882812,-1.0,0.6401120424270629,0.6326507925987243,-1.0,-1.0,0.0,4.0,1.0,618.0,509.0,618.0,509.0,670.763000488281,109.695063058228,-35662.4813822255,,,,,,,,,4.0,1.0,213.2542,321.60045,108.34625,15.6448875872341,754.061230098157,43131.806847291,-84245.5461208231,203.729862260677
34,259.307,,,,,,Frage 1,1.0,3.0,,,,,,,,,,,,,,,,,,,,,,,,,,,,,,,,,,,,,,,,1.0,3.0,640.0,480.0,,,,,,,,,,,,,,,,,,,,,,,,,,,,,,,,,,,,,,,,,,,,,,,,,,,,,,,,,,,,,,,,,
35,262.3005,,,,,,Frage 1,1.0,4.0,0.0370395705103874,0.0001739998842822,0.0172883681952953,0.0315346978604793,90.4718017578125,0.0057652536779642,0.0602998286485672,99.94078826904298,93.64775848388673,0.0435037575662136,0.0435037575662136,0.0,94.2406997680664,0.0435037575662136,1.7935891151428225,3.701073169708252,0.0010677176760509,0.0,0.0029295387212187,0.001031358144246,0.1556933373212814,0.1378542631864547,7.008703960309504e-06,0.0094436574727296,0.0037837363779544,1.700437307357788,0.0119724553078413,0.1094924733042717,81.33741760253906,0.8172690272331237,92.9049606323242,0.0,0.3578940331935882,0.0,0.0,-15.486480712890623,-8.024814605712889,1.521560788154602,87.4690704345703,1.0,4.0,640.0,480.0,0.0,293.3050537109375,260.7807006835937,1.0,414.4075622558594,386.820068359375,2.0,310.3241577148437,286.1034545898437,3.0,397.793212890625,286.0513916015625,4.0,360.15234375,326.3529663085937,5.0,353.4515380859375,386.820068359375,,,,,,,,,,,,,,,,,,,,,,,,,,,,,,,,,,,,,,,,,,,,,,,
36,267.4422,,,,,,Frage 1,,,,,,,,,,,,,,,,,,,,,,,,,,,,,,,,,,,,,,,,,,,,,,,,,,,,,,,,,,,,,,,,,,,,,1.0,-1.0,-1.0,870.0,453.0,-1.0,-1.0,441.6110000000044,-1.0,660.1103515625,-1.0,-1.0,0.5013884902000427,0.6291996836662292,4.0,0.0,1.0,870.0,453.0,870.0,453.0,660.1103515625,469.59117257271,43131.806847291,,,,,,,,,4.0,1.0,213.2542,321.60045,108.34625,15.6448875872341,754.061230098157,43131.806847291,-84245.5461208231,203.729862260677
37,275.7699,,,,,,Frage 1,,,,,,,,,,,,,,,,,,,,,,,,,,,,,,,,,,,,,,,,,,,,,,,,,,,,,,,,,,,,,,,,,,,,,1.0,470.0,435.0,301.0,193.0,-1.0,-1.0,449.9389999999985,671.0009155273438,660.2056884765625,0.6406403183937072,0.6326469182968139,0.501619279384613,0.6291984319686889,0.0,0.0,1.0,385.5,314.0,385.5,314.0,665.603302001953,754.061230098157,34159.4987241912,,,,,,,,,4.0,1.0,213.2542,321.60045,108.34625,15.6448875872341,754.061230098157,43131.806847291,-84245.5461208231,203.729862260677
38,284.0801,,,,,,Frage 1,,,,,,,,,,,,,,,,,,,,,,,,,,,,,,,,,,,,,,,,,,,,,,,,,,,,,,,,,,,,,,,,,,,,,1.0,417.0,444.0,376.0,277.0,5.110610961914063,4.6657257080078125,458.24899999999616,672.0734252929688,660.9010009765625,0.6404220461845397,0.6326216459274292,0.5014951825141906,0.6291879415512085,0.0,0.0,1.0,396.5,360.5,396.5,360.5,666.487213134766,53.9638927248918,-84245.5461208231,,,,,,,,,4.0,1.0,213.2542,321.60045,108.34625,15.6448875872341,754.061230098157,43131.806847291,-84245.5461208231,203.729862260677
39,292.4102,,,,,,Frage 1,,,,,,,,,,,,,,,,,,,,,,,,,,,,,,,,,,,,,,,,,,,,,,,,,,,,,,,,,,,,,,,,,,,,,1.0,-1.0,-1.0,388.0,279.0,-1.0,-1.0,466.57799999999406,-1.0,661.1503295898438,-1.0,-1.0,0.5012866258621215,0.6292016506195068,4.0,0.0,1.0,388.0,279.0,388.0,279.0,661.150329589844,147.941471977815,11281.6868048311,,,,,,,,,4.0,1.0,213.2542,321.60045,108.34625,15.6448875872341,754.061230098157,43131.806847291,-84245.5461208231,203.729862260677
40,300.7409,,,,,,Frage 1,,,,,,,,,,,,,,,,,,,,,,,,,,,,,,,,,,,,,,,,,,,,,,,,,,,,,,,,,,,,,,,,,,,,,1.0,-1.0,-1.0,484.0,403.0,-1.0,-1.0,474.91000000000344,-1.0,661.2683715820312,-1.0,-1.0,0.5012890696525573,0.629132568836212,4.0,0.0,1.0,484.0,403.0,484.0,403.0,661.268371582031,242.304431485318,11327.1345154072,,,,,,,,,4.0,1.0,213.2542,321.60045,108.34625,15.6448875872341,754.061230098157,43131.806847291,-84245.5461208231,203.729862260677
41,309.0757,,,,,,Frage 1,,,,,,,,,,,,,,,,,,,,,,,,,,,,,,,,,,,,,,,,,,,,,,,,,,,,,,,,,,,,,,,,,,,,,1.0,418.0,449.0,476.0,401.0,5.041275024414063,4.5922698974609375,483.24499999999534,671.19921875,659.4530639648438,0.640349268913269,0.6325410604476928,0.5013283491134644,0.6291691064834594,0.0,0.0,1.0,447.0,425.0,447.0,425.0,665.326141357422,173.488535904035,-8256.45433379125,,,,,,,,,4.0,1.0,213.2542,321.60045,108.34625,15.6448875872341,754.061230098157,43131.806847291,-84245.5461208231,203.729862260677
42,317.4347,,,,,,Frage 1,,,,,,,,,,,,,,,,,,,,,,,,,,,,,,,,,,,,,,,,,,,,,,,,,,,,,,,,,,,,,,,,,,,,,1.0,-1.0,-1.0,-1.0,-1.0,-1.0,-1.0,491.6030000000028,-1.0,-1.0,-1.0,-1.0,-1.0,-1.0,4.0,4.0,1.0,,,396.0,329.5,662.007308959961,329.023477268584,18606.8837617596,,,,,,,,,4.0,1.0,213.2542,321.60045,108.34625,15.6448875872341,754.061230098157,43131.806847291,-84245.5461208231,203.729862260677
43,325.7662,,,,,,Frage 1,,,,,,,,,,,,,,,,,,,,,,,,,,,,,,,,,,,,,,,,,,,,,,,,,,,,,,,,,,,,,,,,,,,,,1.0,-1.0,-1.0,345.0,234.0,-1.0,-1.0,499.9349999999977,-1.0,658.6884765625,-1.0,-1.0,0.5012856125831604,0.6290035843849182,4.0,0.0,1.0,345.0,234.0,345.0,234.0,658.6884765625,20.3302176418317,-37051.3424505494,,,,,,,,,,,,,,,,,,
44,334.1059,,,,,,Frage 1,,,,,,,,,,,,,,,,,,,,,,,,,,,,,,,,,,,,,,,,,,,,,,,,,,,,,,,,,,,,,,,,,,,,,1.0,433.0,447.0,345.0,234.0,4.955123901367188,4.5291290283203125,508.2749999999942,669.6948852539064,657.2427368164064,0.6405154466629028,0.632435917854309,0.5014541149139404,0.6290162801742553,0.0,0.0,1.0,389.0,340.5,389.0,340.5,663.468811035156,183.922303131409,19616.0635861695,,,,,,,,,5.0,2.0,329.93605,404.9123,74.9762499999999,2.05312021031774,289.711441972165,19616.0635861695,-23577.2351349194,118.072486935853
45,342.4271,,,,,,Frage 1,,,,,,,,,,,,,,,,,,,,,,,,,,,,,,,,,,,,,,,,,,,,,,,,,,,,,,,,,,,,,,,,,,,,,1.0,-1.0,-1.0,-1.0,-1.0,-1.0,-1.0,516.596000000005,-1.0,-1.0,-1.0,-1.0,-1.0,-1.0,4.0,4.0,1.0,,,375.0,351.25,666.419006347656,53.8420852419383,-15632.386902066,,,,,,,,,5.0,2.0,329.93605,404.9123,74.9762499999999,2.05312021031774,289.711441972165,19616.0635861695,-23577.2351349194,118.072486935853
46,350.7647,,,,,,Frage 1,,,,,,,,,,,,,,,,,,,,,,,,,,,,,,,,,,,,,,,,,,,,,,,,,,,,,,,,,,,,,,,,,,,,,1.0,361.0,362.0,-1.0,-1.0,-1.0,-1.0,524.9339999999937,669.3692016601562,-1.0,0.6405177116394043,0.632409930229187,-1.0,-1.0,0.0,4.0,1.0,361.0,362.0,361.0,362.0,669.369201660156,93.568036005018,4764.67457818552,,,,,,,,,5.0,2.0,329.93605,404.9123,74.9762499999999,2.05312021031774,289.711441972165,19616.0635861695,-23577.2351349194,118.072486935853
47,359.0983,,,,,,Frage 1,,,,,,,,,,,,,,,,,,,,,,,,,,,,,,,,,,,,,,,,,,,,,,,,,,,,,,,,,,,,,,,,,,,,,1.0,360.0,364.0,324.0,232.0,4.891616821289063,4.448516845703125,533.2669999999925,669.4366455078125,656.3627319335938,0.6404420137405396,0.6324455738067627,0.5013778209686279,0.6290411353111267,0.0,0.0,1.0,342.0,298.0,342.0,298.0,662.899688720703,195.329920249802,12211.0353562427,,,,,,,,,5.0,2.0,329.93605,404.9123,74.9762499999999,2.05312021031774,289.711441972165,19616.0635861695,-23577.2351349194,118.072486935853
48,366.2493,,,,,,Frage 1,1.0,5.0,,,,,,,,,,,,,,,,,,,,,,,,,,,,,,,,,,,,,,,,1.0,5.0,640.0,480.0,,,,,,,,,,,,,,,,,,,,,,,,,,,,,,,,,,,,,,,,,,,,,,,,,,,,,,,,,,,,,,,,,
49,367.4304,,,,,,Frage 1,,,,,,,,,,,,,,,,,,,,,,,,,,,,,,,,,,,,,,,,,,,,,,,,,,,,,,,,,,,,,,,,,,,,,1.0,-1.0,-1.0,478.0,417.0,-1.0,-1.0,541.5999999999913,-1.0,656.5297241210938,-1.0,-1.0,0.5013002157211303,0.6289918422698973,4.0,0.0,1.0,478.0,417.0,478.0,417.0,656.529724121094,289.711441972165,11327.4590706259,,,,,,,,,5.0,2.0,329.93605,404.9123,74.9762499999999,2.05312021031774,289.711441972165,19616.0635861695,-23577.2351349194,118.072486935853
50,368.1962,,,,,,Frage 1,1.0,6.0,,,,,,,,,,,,,,,,,,,,,,,,,,,,,,,,,,,,,,,,1.0,6.0,640.0,480.0,,,,,,,,,,,,,,,,,,,,,,,,,,,,,,,,,,,,,,,,,,,,,,,,,,,,,,,,,,,,,,,,,
51,370.1925,,,,,,Frage 1,1.0,7.0,,,,,,,,,,,,,,,,,,,,,,,,,,,,,,,,,,,,,,,,1.0,7.0,640.0,480.0,,,,,,,,,,,,,,,,,,,,,,,,,,,,,,,,,,,,,,,,,,,,,,,,,,,,,,,,,,,,,,,,,
52,375.7627,,,,,,Frage 1,,,,,,,,,,,,,,,,,,,,,,,,,,,,,,,,,,,,,,,,,,,,,,,,,,,,,,,,,,,,,,,,,,,,,1.0,417.0,470.0,-1.0,-1.0,-1.0,-1.0,549.9320000000007,669.9718627929688,-1.0,0.64048832654953,0.6323988437652587,-1.0,-1.0,0.0,4.0,1.0,417.0,470.0,417.0,470.0,669.971862792969,93.2588456574769,-23577.2351349194,,,,,,,,,5.0,2.0,329.93605,404.9123,74.9762499999999,2.05312021031774,289.711441972165,19616.0635861695,-23577.2351349194,118.072486935853
53,376.1759,,,,,,Frage 1,1.0,8.0,0.0330139771103858,0.0001913898158818,0.0143820233643054,0.0319950021803379,87.47317504882812,0.005946906749159,0.0648067072033882,99.92154693603517,91.10806274414062,0.0410436540842056,0.0410436540842056,0.0,94.1103286743164,0.0410436540842056,3.234388589859009,1.728606939315796,0.0021734572947025,0.0,0.0002372461749473,0.0042839213274419,0.3515740633010864,0.2289266735315322,4.675629043049412e-06,0.0248510465025901,0.0020115298684686,3.4620752334594727,0.0137725537642836,0.0325700864195823,74.8548583984375,0.3573789894580841,91.15377044677734,0.0,0.3549060523509979,0.0,0.0,-14.959166526794434,-8.14366626739502,1.9096777439117432,87.6516876220703,1.0,8.0,640.0,480.0,0.0,291.9068908691406,258.9670715332032,1.0,414.9556274414063,387.1134643554688,2.0,310.0716552734375,284.7083740234375,3.0,397.7232971191406,284.8003845214844,4.0,359.8485412597656,325.3435363769532,5.0,352.49884033203125,387.1134643554688,,,,,,,,,,,,,,,,,,,,,,,,,,,,,,,,,,,,,,,,,,,,,,,
54,384.0706,,,,,,Frage 1,,,,,,,,,,,,,,,,,,,,,,,,,,,,,,,,,,,,,,,,,,,,,,,,,,,,,,,,,,,,,,,,,,,,,1.0,390.0,466.0,451.0,410.0,4.83123779296875,4.3896484375,558.2390000000014,670.3820190429688,657.064208984375,0.6407079696655273,0.6323107481002807,0.5016725063323973,0.628864049911499,0.0,0.0,1.0,420.5,438.0,420.5,438.0,663.723114013672,180.011650005969,10442.2061349428,,,,,,,,,5.0,2.0,329.93605,404.9123,74.9762499999999,2.05312021031774,289.711441972165,19616.0635861695,-23577.2351349194,118.072486935853
55,392.4278,,,,,,Frage 1,,,,,,,,,,,,,,,,,,,,,,,,,,,,,,,,,,,,,,,,,,,,,,,,,,,,,,,,,,,,,,,,,,,,,1.0,-1.0,-1.0,402.0,355.0,-1.0,-1.0,566.5969999999943,-1.0,657.4063720703125,-1.0,-1.0,0.5019401907920837,0.6287041902542114,4.0,0.0,1.0,402.0,355.0,402.0,355.0,657.406372070313,111.915626747618,-8148.18638519487,,,,,,,,,5.0,2.0,329.93605,404.9123,74.9762499999999,2.05312021031774,289.711441972165,19616.0635861695,-23577.2351349194,118.072486935853
56,400.7303,,,,,,Frage 1,,,,,,,,,,,,,,,,,,,,,,,,,,,,,,,,,,,,,,,,,,,,,,,,,,,,,,,,,,,,,,,,,,,,,1.0,353.0,408.0,-1.0,-1.0,-1.0,-1.0,574.8990000000049,671.11865234375,-1.0,0.6409682035446167,0.6320970058441162,-1.0,-1.0,0.0,4.0,1.0,353.0,408.0,353.0,408.0,671.11865234375,79.757866856883,-3873.26225724002,,,,,,,,,5.0,2.0,329.93605,404.9123,74.9762499999999,2.05312021031774,289.711441972165,19616.0635861695,-23577.2351349194,118.072486935853
57,406.6549,,,,,,Frage 1,1.0,9.0,0.0306676365435123,0.0002540026907809,0.0127111254259943,0.0335238240659236,80.54932403564453,0.0067740534432232,0.0717271491885185,99.84047698974608,86.14269256591797,0.0516262203454971,0.0516262203454971,0.0,94.17462921142578,0.0516262203454971,5.187184810638428,1.2208471298217771,0.0008618527790531,0.0,0.000270520162303,0.0178131777793169,0.775874376296997,0.2750087678432464,4.963322226103628e-06,0.0036115439143031,0.0013157101348042,1.55227792263031,0.0124974464997649,0.0170871336013078,67.0439224243164,0.3008629083633422,86.73258972167967,0.0,0.3432103395462036,0.0,0.0,-16.16754722595215,-8.085354804992676,2.031564474105835,87.3321533203125,1.0,9.0,640.0,480.0,0.0,291.5898742675781,258.69097900390625,1.0,414.83645629882807,386.9656066894531,2.0,310.09576416015625,283.9877014160156,3.0,397.4264526367188,284.49334716796875,4.0,359.57293701171875,325.8103942871094,5.0,352.11724853515625,386.9656066894531,,,,,,,,,,,,,,,,,,,,,,,,,,,,,,,,,,,,,,,,,,,,,,,
58,409.0943,,,,,,Frage 1,,,,,,,,,,,,,,,,,,,,,,,,,,,,,,,,,,,,,,,,,,,,,,,,,,,,,,,,,,,,,,,,,,,,,1.0,330.0,389.0,367.0,331.0,4.747604370117188,4.32183837890625,583.2629999999917,671.7486572265625,658.3583374023438,0.6408290863037109,0.6321401000022888,0.5020550489425659,0.6285869479179382,0.0,0.0,1.0,348.5,360.0,348.5,360.0,665.053497314453,14.8614567384427,-7759.01603520331,,,,,,,,,,,,,,,,,,
59,417.4225,,,,,,Frage 1,,,,,,,,,,,,,,,,,,,,,,,,,,,,,,,,,,,,,,,,,,,,,,,,,,,,,,,,,,,,,,,,,,,,,1.0,-1.0,-1.0,363.0,408.0,-1.0,-1.0,591.5910000000003,-1.0,658.841064453125,-1.0,-1.0,0.5018758177757263,0.628445565700531,4.0,0.0,1.0,363.0,408.0,363.0,408.0,658.841064453125,44.0900514511382,3509.59327498083,,,,,,,,,6.0,3.0,413.2584,438.2418,24.9834,1.02817039584729,73.5052076760567,3509.59327498083,,186.753574035531
60,425.728,,,,,,Frage 1,,,,,,,,,,,,,,,,,,,,,,,,,,,,,,,,,,,,,,,,,,,,,,,,,,,,,,,,,,,,,,,,,,,,,1.0,303.0,389.0,335.0,326.0,-1.0,-1.0,599.8969999999972,672.6299438476562,659.2943725585938,0.6407461166381835,0.6320359706878662,0.5018568634986877,0.628489077091217,0.0,0.0,1.0,319.0,357.5,319.0,357.5,665.962158203125,56.6919173812514,1517.29166577729,,,,,,,,,6.0,3.0,413.2584,438.2418,24.9834,1.02817039584729,73.5052076760567,3509.59327498083,,186.753574035531
61,434.0626,,,,,,Frage 1,,,,,,,,,,,,,,,,,,,,,,,,,,,,,,,,,,,,,,,,,,,,,,,,,,,,,,,,,,,,,,,,,,,,,1.0,298.0,393.0,352.0,414.0,4.684295654296875,4.242599487304688,608.2320000000036,673.3003540039064,660.0540161132812,0.6406822800636292,0.6320198774337769,0.5017757415771484,0.6284078359603881,0.0,0.0,1.0,325.0,403.5,325.0,403.5,666.677185058594,73.5052076760567,2017.28820756909,,,,,,,,,6.0,3.0,413.2584,438.2418,24.9834,1.02817039584729,73.5052076760567,3509.59327498083,,186.753574035531
62,442.421,,,,,,Frage 1,,,,,,,,,,,,,,,,,,,,,,,,,,,,,,,,,,,,,,,,,,,,,,,,,,,,,,,,,,,,,,,,,,,,,1.0,-1.0,-1.0,-1.0,-1.0,-1.0,-1.0,616.5899999999965,-1.0,-1.0,-1.0,-1.0,-1.0,-1.0,4.0,4.0,1.0,,,332.75,404.0,667.32585144043,22.8887486900644,-6055.75935418168,,,,,,,,,,,,,,,,,,
63,450.725,,,,,,Frage 1,,,,,,,,,,,,,,,,,,,,,,,,,,,,,,,,,,,,,,,,,,,,,,,,,,,,,,,,,,,,,,,,,,,,,1.0,329.0,399.0,352.0,410.0,-1.0,-1.0,624.8940000000001,674.4522094726562,661.496826171875,0.6405632495880127,0.6318579316139221,0.5016961097717285,0.6283609867095947,0.0,0.0,1.0,340.5,404.5,340.5,404.5,667.974517822266,17.4845631216183,-650.793059783974,,,,,,,,,,,,,,,,,,
64,455.7172,,,,,,Frage 1,1.0,10.0,0.0294936057180166,0.000282736873487,0.0116820828989148,0.0321449376642704,78.15206909179686,0.0071020759642124,0.0709050819277763,99.80156707763673,84.77495574951173,0.054287739098072,0.054287739098072,0.0,94.17323303222656,0.054287739098072,4.985158443450928,1.318090319633484,0.0007603017729707,0.0,0.0003661278751678,0.0161259062588214,0.7036546468734741,0.2740854918956756,5.267289452604017e-06,0.0029286586213856,0.0011271252296864,1.3792011737823486,0.0122448671609163,0.0176590476185083,63.21125411987305,0.2573146522045135,85.37185668945312,0.0,0.3220717310905456,0.0,0.0,-16.480131149291992,-8.086630821228027,2.2428410053253174,87.57621002197266,1.0,10.0,640.0,480.0,0.0,291.4439392089844,258.7080383300781,1.0,414.3048706054688,386.5973205566406,2.0,309.7851867675781,283.3684997558594,3.0,397.3504028320313,284.7560119628906,4.0,359.26495361328125,325.83221435546875,5.0,351.48760986328125,386.5973205566406,,,,,,,,,,,,,,,,,,,,,,,,,,,,,,,,,,,,,,,,,,,,,,,
65,459.0888,,,,,,Frage 1,,,,,,,,,,,,,,,,,,,,,,,,,,,,,,,,,,,,,,,,,,,,,,,,,,,,,,,,,,,,,,,,,,,,,1.0,323.0,392.0,358.0,399.0,4.6325225830078125,4.1805267333984375,633.2580000000016,674.771484375,662.0185546875,0.6404629945755004,0.631850242614746,0.501649498939514,0.6283107995986938,0.0,0.0,1.0,340.5,395.5,340.5,395.5,668.39501953125,40.7434234189318,2780.89627888204,,,,,,,,,7.0,4.0,454.9069,471.58255,16.67565,0.476021503599974,40.7434234189318,2780.89627888204,-1177.86685169314,258.69006752598
66,467.4179,,,,,,Frage 1,,,,,,,,,,,,,,,,,,,,,,,,,,,,,,,,,,,,,,,,,,,,,,,,,,,,,,,,,,,,,,,,,,,,,1.0,324.0,396.0,350.0,360.0,-1.0,-1.0,641.5869999999995,675.3209838867188,662.8013305664064,0.6401441693305969,0.6317564249038696,0.5014187693595886,0.628241777420044,0.0,0.0,1.0,337.0,378.0,337.0,378.0,669.061157226563,30.9328526244945,-1177.86685169314,,,,,,,,,7.0,4.0,454.9069,471.58255,16.67565,0.476021503599974,40.7434234189318,2780.89627888204,-1177.86685169314,258.69006752598
67,475.7472,,,,,,Frage 1,,,,,,,,,,,,,,,,,,,,,,,,,,,,,,,,,,,,,,,,,,,,,,,,,,,,,,,,,,,,,,,,,,,,,1.0,324.0,391.0,350.0,360.0,-1.0,-1.0,649.9170000000013,675.7073364257812,663.4888305664064,0.640410006046295,0.6316673755645752,0.5014685988426208,0.628141164779663,0.0,0.0,1.0,337.0,375.5,337.0,375.5,669.598083496094,16.1874200973542,-1770.30873268345,,,,,,,,,,,,,,,,,,
68,484.0579,,,,,,Frage 1,,,,,,,,,,,,,,,,,,,,,,,,,,,,,,,,,,,,,,,,,,,,,,,,,,,,,,,,,,,,,,,,,,,,,1.0,309.0,397.0,343.0,358.0,4.5755157470703125,4.1300811767578125,658.226999999999,675.9388427734375,664.0147094726562,0.6402214765548706,0.6315662860870361,0.501430332660675,0.628092050552368,0.0,0.0,1.0,326.0,377.5,326.0,377.5,669.976776123047,22.8115307484354,797.058087896469,,,,,,,,,,,,,,,,,,
69,487.0052,,,,,,Frage 1,1.0,11.0,0.027867080643773,0.0003194363380316,0.0106507865712046,0.0321722850203514,74.50519561767578,0.0075449608266353,0.0736847892403602,99.7325439453125,82.82027435302734,0.0589559935033321,0.0589559935033321,0.4948043823242187,95.02118682861328,0.0589559935033321,5.69316291809082,1.4192301034927368,0.0006887966301292,0.0,0.0004783967160619,0.0194178335368633,0.8894861340522766,0.3005299866199493,6.381777438946301e-06,0.0045183124020695,0.0011909531895071,1.2415006160736084,0.0136262765154242,0.0176500938832759,58.70735168457031,0.2177825272083282,83.51017761230467,0.0,0.336420714855194,0.0,0.0,-13.66547393798828,-7.255457878112793,2.0380039215087886,87.70713806152342,1.0,11.0,640.0,480.0,0.0,291.4688720703125,257.450439453125,1.0,415.9044189453125,387.4324951171875,2.0,310.3971252441406,283.42218017578125,3.0,398.10305786132807,283.8821716308594,4.0,359.4843444824219,323.93603515625,5.0,352.55975341796875,387.4324951171875,,,,,,,,,,,,,,,,,,,,,,,,,,,,,,,,,,,,,,,,,,,,,,,
70,492.3868,,,,,,Frage 1,,,,,,,,,,,,,,,,,,,,,,,,,,,,,,,,,,,,,,,,,,,,,,,,,,,,,,,,,,,,,,,,,,,,,1.0,309.0,399.0,334.0,353.0,-1.0,-1.0,666.5559999999969,675.8539428710938,664.2604370117188,0.640045166015625,0.6315531730651855,0.501300573348999,0.6279898881912231,0.0,0.0,1.0,321.5,376.0,321.5,376.0,670.057189941406,8.51285890335612,-1716.75393450267,,,,,,,,,,,,,,,,,,
71,500.7183,,,,,,Frage 1,,,,,,,,,,,,,,,,,,,,,,,,,,,,,,,,,,,,,,,,,,,,,,,,,,,,,,,,,,,,,,,,,,,,,1.0,-1.0,-1.0,-1.0,-1.0,-1.0,-1.0,674.8879999999917,-1.0,-1.0,-1.0,-1.0,-1.0,-1.0,4.0,4.0,1.0,,,320.75,375.0,670.024185180664,3.7096262218841,-576.514755022747,,,,,,,,,,,,,,,,,,
72,505.9921,,,,,,Frage 1,,,,,,,,,,,,,,,,,,,,,,,,,,,,,,,,,,,,,,,,,,,,,,,,,,,,,,,,,,,,,,,,1.0,20.257022857666,36.7277791806761,16.4692363739014,1092.74609375,,,,,,,,,,,,,,,,,,,,,,,,,,,,,,,,,,,,,,,,,,
73,509.0833,,,,,,Frage 1,,,,,,,,,,,,,,,,,,,,,,,,,,,,,,,,,,,,,,,,,,,,,,,,,,,,,,,,,,,,,,,,,,,,,1.0,315.0,389.0,325.0,359.0,4.5420989990234375,4.14288330078125,683.2519999999931,675.3778076171875,664.6045532226562,0.6402554512023925,0.6314768195152282,0.501335859298706,0.6279231905937194,0.0,0.0,1.0,320.0,374.0,320.0,374.0,669.991180419922,45.5542809122119,5002.34963422925,,,,,,,,,8.0,5.0,504.9008,521.565,16.6642000000001,0.77529648313468,59.5107674290346,5002.34963422925,,270.0
74,517.4121,,,,,,Frage 1,,,,,,,,,,,,,,,,,,,,,,,,,,,,,,,,,,,,,,,,,,,,,,,,,,,,,,,,,,,,,,,,,,,,,1.0,-1.0,-1.0,320.0,345.0,-1.0,-1.0,691.5819999999949,-1.0,664.3825073242188,-1.0,-1.0,0.5013225674629211,0.6279103755950927,4.0,0.0,1.0,320.0,345.0,320.0,345.0,664.382507324219,59.5107674290346,1675.68995735553,,,,,,,,,8.0,5.0,504.9008,521.565,16.6642000000001,0.77529648313468,59.5107674290346,5002.34963422925,,270.0
75,519.6524,,,,,,Frage 1,1.0,12.0,0.0270883049815893,0.0003970589314121,0.009608737193048,0.030381828546524,68.72574615478516,0.0083787161856889,0.0709639564156532,99.59600830078124,80.1048583984375,0.063449203968048,0.063449203968048,6.274248600006104,94.9663314819336,0.063449203968048,4.721153736114502,1.4626455307006836,0.0007070876890793,0.0,0.000370392401237,0.0167231708765029,0.9319072961807252,0.3291715085506439,8.227408216043841e-06,0.0100327227264642,0.0011544240405783,1.122879981994629,0.0156879536807537,0.0176476035267114,53.16735458374024,0.2028619647026062,80.9353256225586,0.0,0.2828186452388763,0.0,0.0,-13.910889625549316,-7.313128948211671,2.526888132095337,87.90342712402342,1.0,12.0,640.0,480.0,0.0,291.5959167480469,257.4598388671875,1.0,416.12310791015625,387.3511352539063,2.0,310.8085327148437,283.2049560546875,3.0,398.7063293457031,284.1998291015625,4.0,359.7406311035156,324.1378173828125,5.0,352.06365966796875,387.3511352539063,,,,,,,,,,,,,,,,,,,,,,,,,,,,,,,,,,,,,,,,,,,,,,,
76,525.7179,,,,,,Frage 1,,,,,,,,,,,,,,,,,,,,,,,,,,,,,,,,,,,,,,,,,,,,,,,,,,,,,,,,,,,,,,,,,,,,,1.0,-1.0,-1.0,331.0,337.0,-1.0,-1.0,699.8859999999986,-1.0,664.1566162109375,-1.0,-1.0,0.5014694333076477,0.6278841495513916,4.0,0.0,1.0,331.0,337.0,331.0,337.0,664.156616210938,14.449654938974,-5425.25855306662,,,,,,,,,,,,,,,,,,
77,534.0584,,,,,,Frage 1,,,,,,,,,,,,,,,,,,,,,,,,,,,,,,,,,,,,,,,,,,,,,,,,,,,,,,,,,,,,,,,,,,,,,1.0,311.0,370.0,348.0,325.0,4.4749603271484375,4.090606689453125,708.2280000000028,673.580078125,663.9508056640625,0.640312910079956,0.6313397288322448,0.501554250717163,0.6278083324432373,0.0,0.0,1.0,329.5,347.5,329.5,347.5,668.765441894531,88.2727274951536,8851.15671196923,,,,,,,,,9.0,6.0,529.88815,646.6101,116.72195,0.611410345457626,123.993916742801,8851.15671196923,-10138.4118052339,70.7693276243387
78,542.4102,,,,,,Frage 1,,,,,,,,,,,,,,,,,,,,,,,,,,,,,,,,,,,,,,,,,,,,,,,,,,,,,,,,,,,,,,,,,,,,,1.0,-1.0,-1.0,367.0,384.0,-1.0,-1.0,716.5779999999941,-1.0,663.437744140625,-1.0,-1.0,0.5014505386352539,0.6277758479118347,4.0,0.0,1.0,367.0,384.0,367.0,384.0,663.437744140625,56.5534880260125,-3797.8926062814,,,,,,,,,9.0,6.0,529.88815,646.6101,116.72195,0.611410345457626,123.993916742801,8851.15671196923,-10138.4118052339,70.7693276243387
79,550.7412,,,,,,Frage 1,,,,,,,,,,,,,,,,,,,,,,,,,,,,,,,,,,,,,,,,,,,,,,,,,,,,,,,,,,,,,,,,,,,,,1.0,295.0,363.0,-1.0,-1.0,-1.0,-1.0,724.9100000000035,672.0911865234375,-1.0,0.6404581069946289,0.6313092708587646,-1.0,-1.0,0.0,4.0,1.0,295.0,363.0,295.0,363.0,672.091186523438,64.3025558812488,930.148584231948,,,,,,,,,9.0,6.0,529.88815,646.6101,116.72195,0.611410345457626,123.993916742801,8851.15671196923,-10138.4118052339,70.7693276243387
80,551.068,,,,,,Frage 1,1.0,13.0,0.0269583743065595,0.0004930993891321,0.0089798709377646,0.0297042336314916,62.12299346923828,0.0092975795269012,0.0690622180700302,99.38320922851561,77.32870483398438,0.0633134692907333,0.0633134692907333,12.877005577087402,94.8848114013672,0.0633134692907333,3.994085550308228,1.5141489505767822,0.0007262335275299,0.0,0.0002516940876375,0.0148735623806715,0.986821949481964,0.350767970085144,9.530390343570616e-06,0.0238003991544246,0.0009465827024541,1.1187294721603394,0.0173834804445505,0.0180969908833503,48.71765899658203,0.1567690074443817,78.28927612304686,0.0,0.1957573890686035,0.0,0.0,-14.487456321716309,-7.39774990081787,2.724386692047119,87.79242706298828,1.0,13.0,640.0,480.0,0.0,291.3635559082032,257.3827209472656,1.0,415.9859313964844,387.2196044921875,2.0,310.8127136230469,283.0228271484375,3.0,398.59817504882807,284.128662109375,4.0,359.6204528808594,324.40447998046875,5.0,351.61334228515625,387.2196044921875,,,,,,,,,,,,,,,,,,,,,,,,,,,,,,,,,,,,,,,,,,,,,,,
81,559.0775,,,,,,Frage 1,,,,,,,,,,,,,,,,,,,,,,,,,,,,,,,,,,,,,,,,,,,,,,,,,,,,,,,,,,,,,,,,,,,,,1.0,290.0,376.0,357.0,381.0,4.400680541992188,4.05029296875,733.247000000003,671.2081909179688,662.5701904296875,0.6404320001602172,0.6312499046325682,0.50166517496109,0.6276786923408508,0.0,0.0,1.0,323.5,378.5,323.5,378.5,666.889190673828,123.993916742801,7160.41419593256,,,,,,,,,9.0,6.0,529.88815,646.6101,116.72195,0.611410345457626,123.993916742801,8851.15671196923,-10138.4118052339,70.7693276243387
82,567.4083,,,,,,Frage 1,,,,,,,,,,,,,,,,,,,,,,,,,,,,,,,,,,,,,,,,,,,,,,,,,,,,,,,,,,,,,,,,,,,,,1.0,-1.0,-1.0,379.0,368.0,-1.0,-1.0,741.5770000000047,-1.0,662.1723022460938,-1.0,-1.0,0.5015459060668945,0.6275969743728637,4.0,0.0,1.0,379.0,368.0,379.0,368.0,662.172302246094,39.5328356757579,-10138.4118052339,,,,,,,,,9.0,6.0,529.88815,646.6101,116.72195,0.611410345457626,123.993916742801,8851.15671196923,-10138.4118052339,70.7693276243387
83,575.7404,,,,,,Frage 1,,,,,,,,,,,,,,,,,,,,,,,,,,,,,,,,,,,,,,,,,,,,,,,,,,,,,,,,,,,,,,,,,,,,,1.0,332.0,414.0,368.0,349.0,-1.0,-1.0,749.9089999999997,669.46240234375,661.6743774414064,0.640591561794281,0.6310715079307556,0.5016400814056396,0.627459168434143,0.0,0.0,1.0,350.0,381.5,350.0,381.5,665.568389892578,37.5168407649047,-241.9551986718,,,,,,,,,9.0,6.0,529.88815,646.6101,116.72195,0.611410345457626,123.993916742801,8851.15671196923,-10138.4118052339,70.7693276243387
84,583.6917,,,,,,Frage 1,1.0,14.0,0.0260835941880941,0.0005668967496603,0.0082935392856597,0.0288775190711021,57.348175048828125,0.009921477176249,0.0685039162635803,99.1808853149414,75.42933654785155,0.0601114220917224,0.0601114220917224,17.651824951171875,94.622314453125,0.0601114220917224,3.745772361755371,1.5111299753189087,0.0008272147970274,0.0,0.0002276901068398,0.0139202689751982,1.0258545875549316,0.3660702109336853,1.1076553164457437e-05,0.0586525239050388,0.0007267858018167,1.2391070127487185,0.0176324490457773,0.0188376847654581,44.61904525756836,0.1585971862077713,76.51140594482422,0.0,0.1637270897626876,0.0,0.0,-14.475178718566896,-7.661823749542237,2.6512753963470455,87.3816680908203,1.0,14.0,640.0,480.0,0.0,291.2255859375,257.28338623046875,1.0,415.92327880859375,387.3468627929688,2.0,310.86138916015625,282.80877685546875,3.0,398.23480224609375,284.0097045898437,4.0,359.67462158203125,324.36358642578125,5.0,351.6270751953125,387.3468627929688,,,,,,,,,,,,,,,,,,,,,,,,,,,,,,,,,,,,,,,,,,,,,,,
85,584.0472,,,,,,Frage 1,,,,,,,,,,,,,,,,,,,,,,,,,,,,,,,,,,,,,,,,,,,,,,,,,,,,,,,,,,,,,,,,,,,,,1.0,350.0,417.0,375.0,355.0,4.375747680664063,4.043792724609375,758.2160000000003,668.5284423828125,661.2837524414064,0.6405383348464965,0.6309943199157714,0.5016925930976867,0.627446174621582,0.0,0.0,1.0,362.5,386.0,362.5,386.0,664.906097412109,73.0184598163845,4273.80207197477,,,,,,,,,9.0,6.0,529.88815,646.6101,116.72195,0.611410345457626,123.993916742801,8851.15671196923,-10138.4118052339,70.7693276243387
86,592.3778,,,,,,Frage 1,,,,,,,,,,,,,,,,,,,,,,,,,,,,,,,,,,,,,,,,,,,,,,,,,,,,,,,,,,,,,,,,,,,,,1.0,-1.0,-1.0,379.0,344.0,-1.0,-1.0,766.5469999999915,-1.0,660.8704223632812,-1.0,-1.0,0.5014804005622863,0.6272811889648438,4.0,0.0,1.0,379.0,344.0,379.0,344.0,660.870422363281,94.3037397755589,2555.07165860495,,,,,,,,,9.0,6.0,529.88815,646.6101,116.72195,0.611410345457626,123.993916742801,8851.15671196923,-10138.4118052339,70.7693276243387
87,600.7073,,,,,,Frage 1,,,,,,,,,,,,,,,,,,,,,,,,,,,,,,,,,,,,,,,,,,,,,,,,,,,,,,,,,,,,,,,,,,,,,1.0,306.0,357.0,-1.0,-1.0,-1.0,-1.0,774.8769999999931,666.763427734375,-1.0,0.6405367851257324,0.630844235420227,-1.0,-1.0,0.0,4.0,1.0,306.0,357.0,306.0,357.0,666.763427734375,66.6247056346338,-3323.01268274506,,,,,,,,,9.0,6.0,529.88815,646.6101,116.72195,0.611410345457626,123.993916742801,8851.15671196923,-10138.4118052339,70.7693276243387
88,609.0434,,,,,,Frage 1,,,,,,,,,,,,,,,,,,,,,,,,,,,,,,,,,,,,,,,,,,,,,,,,,,,,,,,,,,,,,,,,,,,,,1.0,328.0,369.0,346.0,348.0,4.338790893554688,3.996505737304688,783.2119999999995,665.8475952148438,660.3707885742188,0.6405394673347473,0.6307587027549743,0.5014708042144775,0.6271589994430542,0.0,0.0,1.0,337.0,358.5,337.0,358.5,663.109191894531,64.9810404700965,-197.174357857662,,,,,,,,,9.0,6.0,529.88815,646.6101,116.72195,0.611410345457626,123.993916742801,8851.15671196923,-10138.4118052339,70.7693276243387
89,615.2731,,,,,,Frage 1,1.0,15.0,0.0259513296186923,0.0007089600549079,0.0078381579369306,0.0289418473839759,49.17779159545898,0.0109913563355803,0.0681197121739387,98.70063018798828,72.31019592285155,0.0822305977344512,0.0571508780121803,25.822206497192383,95.04550933837889,0.0571508780121803,3.501506090164185,1.4229801893234253,0.0010420475155115,0.0,0.000372295937268,0.0136897256597876,1.0792388916015625,0.4221018254756927,1.393801903759595e-05,0.0822305977344512,0.0006560971960425,1.3666204214096067,0.0176765695214271,0.0186380986124277,40.12012481689453,0.1436994820833206,73.61019897460938,0.0,0.1318626254796981,0.0,0.0,-15.023938179016112,-7.229697227478027,3.2047107219696045,86.48967742919923,1.0,15.0,640.0,480.0,0.0,290.90771484375,257.2991027832032,1.0,415.9249267578125,387.87786865234375,2.0,311.5300598144532,281.93524169921875,3.0,397.98138427734375,284.5105895996094,4.0,359.18292236328125,324.9071655273437,5.0,350.737548828125,387.87786865234375,,,,,,,,,,,,,,,,,,,,,,,,,,,,,,,,,,,,,,,,,,,,,,,
90,617.3721,,,,,,Frage 1,,,,,,,,,,,,,,,,,,,,,,,,,,,,,,,,,,,,,,,,,,,,,,,,,,,,,,,,,,,,,,,,,,,,,1.0,-1.0,-1.0,334.0,325.0,-1.0,-1.0,791.5420000000013,-1.0,660.13134765625,-1.0,-1.0,0.5014693140983582,0.6271040439605712,4.0,0.0,1.0,334.0,325.0,334.0,325.0,660.13134765625,76.9679087453274,1439.22440179509,,,,,,,,,9.0,6.0,529.88815,646.6101,116.72195,0.611410345457626,123.993916742801,8851.15671196923,-10138.4118052339,70.7693276243387
91,625.7047,,,,,,Frage 1,,,,,,,,,,,,,,,,,,,,,,,,,,,,,,,,,,,,,,,,,,,,,,,,,,,,,,,,,,,,,,,,,,,,,1.0,333.0,408.0,-1.0,-1.0,-1.0,-1.0,799.8739999999962,664.0977172851562,-1.0,0.6406533122062683,0.6305747032165527,-1.0,-1.0,0.0,4.0,1.0,333.0,408.0,333.0,408.0,664.097717285156,94.3943942716278,2091.36230303873,,,,,,,,,9.0,6.0,529.88815,646.6101,116.72195,0.611410345457626,123.993916742801,8851.15671196923,-10138.4118052339,70.7693276243387
92,634.0665,,,,,,Frage 1,,,,,,,,,,,,,,,,,,,,,,,,,,,,,,,,,,,,,,,,,,,,,,,,,,,,,,,,,,,,,,,,,,,,,1.0,333.0,412.0,331.0,361.0,4.325927734375,3.9809722900390634,808.2360000000044,663.241943359375,659.907958984375,0.6406185626983641,0.6304768323898315,0.5014843940734863,0.6268488764762878,0.0,0.0,1.0,332.0,386.5,332.0,386.5,661.574951171875,60.2466866677488,-4083.7747379606,,,,,,,,,9.0,6.0,529.88815,646.6101,116.72195,0.611410345457626,123.993916742801,8851.15671196923,-10138.4118052339,70.7693276243387
93,642.4841,,,,,,Frage 1,,,,,,,,,,,,,,,,,,,,,,,,,,,,,,,,,,,,,,,,,,,,,,,,,,,,,,,,,,,,,,,,,,,,,1.0,-1.0,-1.0,337.0,369.0,-1.0,-1.0,816.653999999995,-1.0,659.7613525390625,-1.0,-1.0,0.5014277696609497,0.6268449425697326,4.0,0.0,1.0,337.0,369.0,337.0,369.0,659.761352539063,41.2125664559091,-2261.22887899635,,,,,,,,,9.0,6.0,529.88815,646.6101,116.72195,0.611410345457626,123.993916742801,8851.15671196923,-10138.4118052339,70.7693276243387
94,647.7068,,,,,,Frage 1,1.0,16.0,0.0257707238197326,0.0009651776053942,0.0074941287748515,0.0291305072605609,44.08958435058594,0.0119044594466686,0.0681888535618782,98.24928283691406,70.31195068359375,0.1129842177033424,0.0504997856914997,30.9104118347168,94.1648941040039,0.0504997856914997,3.209308385848999,1.5237399339675903,0.0014627450145781,0.0,0.000286858092295,0.0147453006356954,1.3249795436859133,0.4918718636035919,1.667796641413588e-05,0.1129842177033424,0.0005722863716073,1.7919921875,0.0154293617233634,0.018296904861927,37.08732604980469,0.1209818944334983,71.72651672363281,1.5068321228027344,0.1045492440462112,0.0,0.0,-14.616312980651855,-8.094223022460938,3.609572172164917,86.44052886962889,1.0,16.0,640.0,480.0,0.0,290.0318298339844,256.9479064941406,1.0,415.9986267089844,388.4464111328125,2.0,311.4179992675781,281.906005859375,3.0,397.8201293945313,284.4822692871094,4.0,359.40789794921875,324.8905029296875,5.0,349.8075561523437,388.4464111328125,,,,,,,,,,,,,,,,,,,,,,,,,,,,,,,,,,,,,,,,,,,,,,,
95,650.7361,,,,,,Frage 1,,,,,,,,,,,,,,,,,,,,,,,,,,,,,,,,,,,,,,,,,,,,,,,,,,,,,,,,,,,,,,,,,,,,,1.0,350.0,407.0,-1.0,-1.0,-1.0,-1.0,824.9049999999987,662.1619873046875,-1.0,0.6405652165412902,0.6303074955940245,-1.0,-1.0,0.0,4.0,1.0,350.0,407.0,350.0,407.0,662.161987304688,26.4199673936118,-1792.60773900841,,,,,,,,,,,,,,,,,,
96,659.0635,,,,,,Frage 1,,,,,,,,,,,,,,,,,,,,,,,,,,,,,,,,,,,,,,,,,,,,,,,,,,,,,,,,,,,,,,,,,,,,,1.0,354.0,411.0,351.0,344.0,4.276336669921875,3.9616851806640634,833.2329999999929,662.05224609375,659.7655639648438,0.6405693292617797,0.6302490830421447,0.5014232397079467,0.6267171502113342,0.0,0.0,1.0,352.5,377.5,352.5,377.5,660.908905029297,97.582861870459,8545.63182708254,,,,,,,,,10.0,7.0,654.8998,663.2305,8.33070000000009,,97.582861870459,8545.63182708254,,
97,667.3975,,,,,,Frage 1,,,,,,,,,,,,,,,,,,,,,,,,,,,,,,,,,,,,,,,,,,,,,,,,,,,,,,,,,,,,,,,,,,,,,1.0,-1.0,-1.0,351.0,344.0,-1.0,-1.0,841.5659999999917,-1.0,659.7459716796875,-1.0,-1.0,0.5013656020164489,0.6266348361968994,4.0,0.0,1.0,351.0,344.0,351.0,344.0,659.745971679688,27.6203109630732,-8394.83452212448,,,,,,,,,,,,,,,,,,
98,675.7336,,,,,,Frage 1,,,,,,,,,,,,,,,,,,,,,,,,,,,,,,,,,,,,,,,,,,,,,,,,,,,,,,,,,,,,,,,,,,,,,1.0,-1.0,-1.0,-1.0,-1.0,-1.0,-1.0,849.902999999991,-1.0,-1.0,-1.0,-1.0,-1.0,-1.0,4.0,4.0,1.0,,,344.5,361.25,660.337432861328,57.2009997151458,3548.5045467392,,,,,,,,,11.0,8.0,671.56555,729.88685,58.3213,4.89852631868354,189.406258894708,14389.9072986251,-12573.2201558332,271.575827563229
99,679.3714,,,,,,Frage 1,1.0,17.0,0.0267543774098157,0.0021997538860887,0.0074928351677954,0.0310004018247127,34.789100646972656,0.0136503595858812,0.0688111186027526,96.96402740478516,66.5101547241211,0.1910597085952758,0.0498391203582286,40.21089553833008,94.28372955322264,0.0498391203582286,2.9986188411712646,1.538712978363037,0.0021500177681446,0.0,0.0001513920287834,0.0147740114480257,1.687320113182068,0.5583609938621521,2.154694084310904e-05,0.1910597085952758,0.0005057184607721,2.338934898376465,0.0156129216775298,0.0158664789050817,33.73638153076172,0.1203009784221649,68.21924591064453,6.735114574432373,0.1178860142827034,0.0,0.0,-13.894542694091797,-7.985039234161377,3.4620256423950195,85.98919677734375,1.0,17.0,640.0,480.0,0.0,290.212646484375,256.55010986328125,1.0,416.1922912597656,388.2296752929688,2.0,311.7194519042969,281.8167724609375,3.0,397.6807861328125,284.0055236816406,4.0,359.4775695800781,324.1076965332032,5.0,350.2071533203125,388.2296752929688,,,,,,,,,,,,,,,,,,,,,,,,,,,,,,,,,,,,,,,,,,,,,,,
100,684.0589,,,,,,Frage 1,,,,,,,,,,,,,,,,,,,,,,,,,,,,,,,,,,,,,,,,,,,,,,,,,,,,,,,,,,,,,,,,,,,,,1.0,349.0,408.0,327.0,349.0,4.2745208740234375,3.9634857177734375,858.2280000000029,661.8949584960938,659.9628295898438,0.6406135559082031,0.6300610899925231,0.5014641880989074,0.6264781951904296,0.0,0.0,1.0,338.0,378.5,338.0,378.5,660.928894042969,69.4937223845343,1476.55011463715,,,,,,,,,11.0,8.0,671.56555,729.88685,58.3213,4.89852631868354,189.406258894708,14389.9072986251,-12573.2201558332,271.575827563229
101,692.392,,,,,,Frage 1,,,,,,,,,,,,,,,,,,,,,,,,,,,,,,,,,,,,,,,,,,,,,,,,,,,,,,,,,,,,,,,,,,,,,1.0,-1.0,-1.0,-1.0,-1.0,-1.0,-1.0,866.5610000000014,-1.0,-1.0,-1.0,-1.0,-1.0,-1.0,4.0,4.0,1.0,,,335.333333333333,316.833333333333,661.597391764323,189.406258894708,14389.9072986251,,,,,,,,,11.0,8.0,671.56555,729.88685,58.3213,4.89852631868354,189.406258894708,14389.9072986251,-12573.2201558332,271.575827563229
102,700.7227,,,,,,Frage 1,,,,,,,,,,,,,,,,,,,,,,,,,,,,,,,,,,,,,,,,,,,,,,,,,,,,,,,,,,,,,,,,,,,,,1.0,-1.0,-1.0,-1.0,-1.0,-1.0,-1.0,874.8919999999924,-1.0,-1.0,-1.0,-1.0,-1.0,-1.0,4.0,4.0,1.0,,,332.666666666667,255.166666666667,662.265889485677,187.945428867349,-175.355015467942,,,,,,,,,11.0,8.0,671.56555,729.88685,58.3213,4.89852631868354,189.406258894708,14389.9072986251,-12573.2201558332,271.575827563229
103,709.0539,,,,,,Frage 1,,,,,,,,,,,,,,,,,,,,,,,,,,,,,,,,,,,,,,,,,,,,,,,,,,,,,,,,,,,,,,,,,,,,,1.0,342.0,210.0,318.0,177.0,4.2713470458984375,3.921295166015625,883.222999999998,663.7297973632812,662.1389770507812,0.6404379606246948,0.6291902661323547,0.501673400402069,0.6256442070007324,0.0,0.0,1.0,330.0,193.5,330.0,193.5,662.934387207031,141.357365017723,-5591.99921375394,,,,,,,,,11.0,8.0,671.56555,729.88685,58.3213,4.89852631868354,189.406258894708,14389.9072986251,-12573.2201558332,271.575827563229
104,710.9451,,,,,,Frage 1,1.0,18.0,0.0257062818855047,0.0025692705530673,0.0069405855610966,0.0307914745062589,32.53369140625,0.0144784646108746,0.0699520483613014,96.49970245361328,65.3934097290039,0.4080693423748016,0.0483485087752342,42.46630859375,94.5194091796875,0.0483485087752342,2.824525594711304,1.5597046613693235,0.0031361032743006,0.0,0.0001706077600829,0.0172906927764415,2.2437846660614014,0.5684267878532409,2.47238167503383e-05,0.4080693423748016,0.000477161956951,2.8991878032684326,0.0158905982971191,0.0145115116611123,30.844213485717773,0.1029566526412963,67.3038558959961,7.509803295135498,0.1065703108906745,0.0,0.0,-13.871492385864258,-7.762042999267577,3.5544912815093994,86.3321533203125,1.0,18.0,640.0,480.0,0.0,289.93359375,256.2226257324219,1.0,416.2652893066406,388.2150268554688,2.0,311.5153503417969,281.5793151855469,3.0,397.818603515625,283.8129272460937,4.0,359.2489624023437,323.9466552734375,5.0,349.96435546875,388.2150268554688,,,,,,,,,,,,,,,,,,,,,,,,,,,,,,,,,,,,,,,,,,,,,,,
105,717.3988,,,,,,Frage 1,,,,,,,,,,,,,,,,,,,,,,,,,,,,,,,,,,,,,,,,,,,,,,,,,,,,,,,,,,,,,,,,,,,,,1.0,-1.0,-1.0,336.0,162.0,-1.0,-1.0,891.5679999999993,-1.0,662.43896484375,-1.0,-1.0,0.501535952091217,0.6255004405975341,4.0,0.0,1.0,336.0,162.0,336.0,162.0,662.43896484375,36.4351001393093,-12573.2201558332,,,,,,,,,11.0,8.0,671.56555,729.88685,58.3213,4.89852631868354,189.406258894708,14389.9072986251,-12573.2201558332,271.575827563229
106,725.7242,,,,,,Frage 1,,,,,,,,,,,,,,,,,,,,,,,,,,,,,,,,,,,,,,,,,,,,,,,,,,,,,,,,,,,,,,,,,,,,,1.0,-1.0,-1.0,-1.0,-1.0,-1.0,-1.0,899.8940000000001,-1.0,-1.0,-1.0,-1.0,-1.0,-1.0,4.0,4.0,1.0,,,349.5,179.5,661.091842651367,64.937361875122,3423.53060943773,,,,,,,,,11.0,8.0,671.56555,729.88685,58.3213,4.89852631868354,189.406258894708,14389.9072986251,-12573.2201558332,271.575827563229
107,734.0495,,,,,,Frage 1,,,,,,,,,,,,,,,,,,,,,,,,,,,,,,,,,,,,,,,,,,,,,,,,,,,,,,,,,,,,,,,,,,,,,1.0,367.0,195.0,359.0,199.0,4.24493408203125,3.8892974853515625,908.2189999999971,660.7935180664064,658.6959228515625,0.640406847000122,0.6288672685623168,0.5018929839134216,0.6251798272132874,0.0,0.0,1.0,363.0,197.0,363.0,197.0,659.744720458984,4.31109049402343,-7282.17258009907,,,,,,,,,,,,,,,,,,
108,742.3695,,,,,,Frage 1,,,,,,,,,,,,,,,,,,,,,,,,,,,,,,,,,,,,,,,,,,,,,,,,,,,,,,,,,,,,,,,,,,,,,1.0,-1.0,-1.0,348.0,177.0,-1.0,-1.0,916.5390000000045,-1.0,653.8430786132812,-1.0,-1.0,0.5019418597221375,0.6252685189247131,4.0,0.0,1.0,348.0,177.0,348.0,177.0,653.843078613281,118.566937913343,13732.6739686682,,,,,,,,,12.0,9.0,738.2095,771.5491,33.3396,0.638304803697972,118.566937913343,13732.6739686682,-6408.49341047607,70.0168934781
109,742.9598,,,,,,Frage 1,1.0,19.0,0.0263461023569107,0.0035230042412877,0.0070154187269508,0.0312348864972591,30.493923187255856,0.0151269240304827,0.0696433782577514,95.94785308837889,64.40497589111328,0.6132965683937072,0.0452695675194263,44.50607681274414,94.0234146118164,0.0452695675194263,2.508573055267334,1.7568273544311523,0.0034793489612638,0.0,0.0005455071222968,0.0183041989803314,2.3606622219085693,0.6602694988250732,2.682803278730717e-05,0.6132965683937072,0.0004292647936381,2.957118511199951,0.0133460480719804,0.016350895166397,30.28180694580078,0.1088587641716003,66.35724639892578,9.739288330078123,0.0977732688188552,0.0,0.0,-14.499699592590332,-8.221529006958006,3.4794533252716064,85.73365783691406,1.0,19.0,640.0,480.0,0.0,289.534423828125,256.52105712890625,1.0,416.06005859375,388.77239990234375,2.0,311.44805908203125,281.71051025390625,3.0,397.15240478515625,283.9521789550781,4.0,359.2191772460937,324.70037841796875,5.0,349.7912902832032,388.77239990234375,,,,,,,,,,,,,,,,,,,,,,,,,,,,,,,,,,,,,,,,,,,,,,,
110,750.7812,,,,,,Frage 1,,,,,,,,,,,,,,,,,,,,,,,,,,,,,,,,,,,,,,,,,,,,,,,,,,,,,,,,,,,,,,,,,,,,,1.0,292.0,157.0,-1.0,-1.0,-1.0,-1.0,924.9499999999971,655.65625,-1.0,0.6405326724052429,0.6287009716033936,-1.0,-1.0,0.0,4.0,1.0,292.0,157.0,292.0,157.0,655.65625,64.6606138924417,-6408.49341047607,,,,,,,,,12.0,9.0,738.2095,771.5491,33.3396,0.638304803697972,118.566937913343,13732.6739686682,-6408.49341047607,70.0168934781
111,759.0422,,,,,,Frage 1,,,,,,,,,,,,,,,,,,,,,,,,,,,,,,,,,,,,,,,,,,,,,,,,,,,,,,,,,,,,,,,,,,,,,1.0,275.0,158.0,339.0,162.0,4.187179565429688,3.879440307617188,933.2099999999919,656.2427978515625,652.4819946289064,0.6405392289161682,0.6285947561264038,0.5020714402198792,0.6250526309013366,0.0,0.0,1.0,307.0,160.0,307.0,160.0,654.362396240234,112.04782964014,5736.25659698562,,,,,,,,,12.0,9.0,738.2095,771.5491,33.3396,0.638304803697972,118.566937913343,13732.6739686682,-6408.49341047607,70.0168934781
112,767.394,,,,,,Frage 1,,,,,,,,,,,,,,,,,,,,,,,,,,,,,,,,,,,,,,,,,,,,,,,,,,,,,,,,,,,,,,,,,,,,,1.0,-1.0,-1.0,356.0,199.0,-1.0,-1.0,941.5629999999945,-1.0,652.7638549804688,-1.0,-1.0,0.5020490288734436,0.6250896453857421,4.0,0.0,1.0,356.0,199.0,356.0,199.0,652.763854980469,95.287886303357,-2006.74625072231,,,,,,,,,12.0,9.0,738.2095,771.5491,33.3396,0.638304803697972,118.566937913343,13732.6739686682,-6408.49341047607,70.0168934781
113,774.6862,,,,,,Frage 1,1.0,20.0,0.02757672034204,0.0047656502574682,0.0074687232263386,0.0329608581960201,30.492162704467773,0.0155610218644142,0.070656269788742,95.82716369628906,64.25711059570312,0.6845849156379699,0.0474144369363784,44.5078353881836,94.4506378173828,0.0474144369363784,2.405285596847534,2.1306674480438232,0.0033634651917964,0.0,0.0009663362288847,0.0241492595523595,2.7331929206848145,0.7319691181182861,2.6839241400011812e-05,0.6845849156379699,0.0004200549738015,3.116224527359009,0.0109655614942312,0.0192696712911129,32.10362243652344,0.131007581949234,66.16679382324219,12.42364501953125,0.1107325851917266,0.0,0.0,-14.383877754211426,-7.8280296325683585,3.526958465576172,86.0712661743164,1.0,20.0,640.0,480.0,0.0,289.41619873046875,256.32476806640625,1.0,416.57073974609375,389.2858276367188,2.0,311.5181884765625,281.576904296875,3.0,397.5562133789063,283.9688720703125,4.0,359.16845703125,324.776611328125,5.0,349.90594482421875,389.2858276367188,,,,,,,,,,,,,,,,,,,,,,,,,,,,,,,,,,,,,,,,,,,,,,,
114,775.7042,,,,,,Frage 1,,,,,,,,,,,,,,,,,,,,,,,,,,,,,,,,,,,,,,,,,,,,,,,,,,,,,,,,,,,,,,,,,,,,,1.0,340.0,215.0,-1.0,-1.0,-1.0,-1.0,949.8729999999923,657.074462890625,-1.0,0.640566349029541,0.6284460425376892,-1.0,-1.0,0.0,4.0,1.0,340.0,215.0,340.0,215.0,657.074462890625,11.8990018676533,-10034.52196526,,,,,,,,,,,,,,,,,,
115,784.0502,,,,,,Frage 1,,,,,,,,,,,,,,,,,,,,,,,,,,,,,,,,,,,,,,,,,,,,,,,,,,,,,,,,,,,,,,,,,,,,,1.0,337.0,194.0,359.0,203.0,4.1959075927734375,3.89007568359375,958.2189999999971,657.4193725585938,653.0242919921875,0.640626549720764,0.628487229347229,0.5021557807922363,0.6247983574867249,0.0,0.0,1.0,348.0,198.5,348.0,198.5,655.221832275391,72.5241268916601,7263.97376276142,,,,,,,,,13.0,10.0,779.8772,971.50325,191.62605,1.47979127213857,281.314085701471,17402.6629649654,-19737.9707305443,313.89118787224
116,792.3535,,,,,,Frage 1,,,,,,,,,,,,,,,,,,,,,,,,,,,,,,,,,,,,,,,,,,,,,,,,,,,,,,,,,,,,,,,,,,,,,1.0,-1.0,-1.0,384.0,197.0,-1.0,-1.0,966.5230000000009,-1.0,652.91748046875,-1.0,-1.0,0.5021832585334777,0.624765396118164,4.0,0.0,1.0,384.0,197.0,384.0,197.0,652.91748046875,56.4573702180585,-1934.98448491582,,,,,,,,,13.0,10.0,779.8772,971.50325,191.62605,1.47979127213857,281.314085701471,17402.6629649654,-19737.9707305443,313.89118787224
117,800.6856,,,,,,Frage 1,,,,,,,,,,,,,,,,,,,,,,,,,,,,,,,,,,,,,,,,,,,,,,,,,,,,,,,,,,,,,,,,,,,,,1.0,280.0,131.0,386.0,197.0,-1.0,-1.0,974.853999999992,657.8426513671875,652.8070068359375,0.6407628059387207,0.6282715797424316,0.5022222399711608,0.6247366666793823,0.0,0.0,1.0,333.0,164.0,333.0,164.0,655.324829101563,77.1048101759138,2478.05954775571,,,,,,,,,13.0,10.0,779.8772,971.50325,191.62605,1.47979127213857,281.314085701471,17402.6629649654,-19737.9707305443,313.89118787224
